#Time,Rho,X,Z,Alt,AoA,GSE,LUE,Vtot,Vy,Gamma,Pitch,Roll,Yaw,Step,Grade,Points,Details
0.00,21.977,40852.8,939.2,5803.7,4.35,-1.02,-7.81,305.8,-0.9,121.1,4.1,-27.3,0.0,n/a,OK,4.0,    
0.50,22.007,40910.2,879.7,5803.7,4.35,-1.02,-7.90,305.9,0.3,122.0,4.1,-27.3,0.0,n/a,OK,4.0,    
1.00,22.038,40968.6,821.0,5803.7,4.35,-1.02,-7.98,306.1,0.7,122.9,4.1,-27.3,0.0,n/a,OK,4.0,    
1.50,22.069,41027.9,763.2,5803.7,4.35,-1.03,-8.06,306.2,0.5,123.8,4.1,-27.3,0.0,n/a,OK,4.0,    
2.00,22.101,41088.1,706.1,5803.7,4.35,-1.03,-8.14,306.4,2.5,124.7,4.1,-27.3,0.0,n/a,OK,4.0,    
2.50,22.134,41149.2,649.9,5803.8,4.35,-1.03,-8.22,306.5,-0.1,125.5,4.1,-27.3,0.0,n/a,OK,4.0,    
3.00,22.167,41211.2,594.4,5803.8,4.34,-1.04,-8.30,306.7,1.3,126.4,4.1,-27.3,0.0,n/a,OK,4.0,    
3.50,22.200,41274.1,539.9,5803.8,4.34,-1.04,-8.38,306.8,0.5,127.3,4.1,-27.3,0.0,n/a,OK,4.0,    
4.00,22.234,41337.8,486.2,5803.8,4.34,-1.04,-8.46,307.0,3.6,128.2,4.1,-27.3,0.0,n/a,OK,4.0,    
4.50,22.269,41402.4,433.4,5803.8,4.35,-1.05,-8.53,307.1,1.2,129.1,4.1,-27.3,0.0,n/a,OK,4.0,    
5.00,22.304,41467.8,381.4,5803.8,4.35,-1.05,-8.60,307.3,-1.2,129.9,4.1,-27.3,0.0,n/a,OK,4.0,    
5.50,22.340,41534.1,330.4,5803.8,4.35,-1.06,-8.67,307.4,-1.0,130.8,4.1,-27.3,0.0,n/a,OK,4.0,    
6.00,22.376,41601.2,280.3,5803.8,4.34,-1.06,-8.74,307.5,-0.2,131.7,4.1,-27.3,0.0,n/a,OK,4.0,    
6.50,22.412,41669.1,231.1,5803.8,4.34,-1.06,-8.81,307.7,0.2,132.6,4.1,-27.3,0.0,n/a,OK,4.0,    
7.00,22.449,41737.7,182.9,5803.8,4.34,-1.07,-8.88,307.9,0.2,133.5,4.1,-27.3,0.0,n/a,OK,4.0,    
7.50,22.486,41807.1,135.6,5803.8,4.35,-1.07,-8.95,308.0,-3.9,134.3,4.1,-27.3,0.0,n/a,OK,4.0,    
8.00,22.524,41877.3,89.3,5803.8,4.35,-1.08,-9.01,308.2,1.2,135.2,4.1,-27.3,0.0,n/a,OK,4.0,    
8.50,22.563,41948.2,43.9,5803.8,4.35,-1.08,-9.07,308.3,-3.6,136.1,4.1,-27.3,0.0,n/a,OK,4.0,    
9.00,22.601,42019.9,-0.4,5803.8,4.34,-1.08,-9.13,308.4,1.1,137.0,4.1,-27.3,0.0,n/a,OK,4.0,    
9.50,22.640,42092.2,-43.8,5803.8,4.34,-1.09,-9.19,308.6,-1.0,137.9,4.1,-27.3,0.0,n/a,OK,4.0,    
10.00,22.680,42165.3,-86.1,5803.8,4.34,-1.09,-9.25,308.7,1.3,138.7,4.1,-27.3,0.0,n/a,OK,4.0,    
10.50,22.720,42239.0,-127.4,5803.8,4.35,-1.10,-9.30,308.9,-0.8,139.6,4.1,-27.3,0.0,n/a,OK,4.0,    
11.00,22.760,42313.4,-167.7,5803.8,4.35,-1.10,-9.36,309.1,-4.4,140.5,4.1,-27.3,0.0,n/a,OK,4.0,    
11.50,22.800,42388.4,-207.0,5803.7,4.34,-1.11,-9.41,309.2,0.7,141.4,4.1,-27.3,0.0,n/a,OK,4.0,    
12.00,22.841,42464.1,-245.2,5803.8,4.34,-1.11,-9.46,309.4,-0.1,142.3,4.1,-27.3,0.0,n/a,OK,4.0,    
12.50,22.883,42540.3,-282.4,5803.8,4.34,-1.11,-9.51,309.5,0.2,143.1,4.1,-27.3,0.0,n/a,OK,4.0,    
13.00,22.924,42617.2,-318.4,5803.8,4.34,-1.12,-9.56,309.6,-0.0,144.0,4.1,-27.3,0.0,n/a,OK,4.0,    
13.50,22.966,42694.6,-353.4,5803.8,4.34,-1.12,-9.61,309.8,0.3,144.9,4.1,-27.3,0.0,n/a,OK,4.0,    
14.00,23.009,42772.7,-387.4,5803.8,4.34,-1.13,-9.65,310.0,0.3,145.8,4.1,-27.3,0.0,n/a,OK,4.0,    
14.50,23.051,42851.2,-420.2,5803.8,4.34,-1.13,-9.69,310.1,0.2,146.7,4.1,-27.3,0.0,n/a,OK,4.0,    
15.00,23.094,42930.3,-451.9,5803.8,4.35,-1.14,-9.74,310.3,-0.1,147.5,4.1,-27.3,0.0,n/a,OK,4.0,    
15.50,23.137,43009.9,-482.5,5803.8,4.34,-1.14,-9.78,310.4,-0.1,148.4,4.1,-27.3,0.0,n/a,OK,4.0,    
16.00,23.181,43090.0,-512.0,5803.8,4.35,-1.14,-9.81,310.6,-0.1,149.3,4.1,-27.3,0.0,n/a,OK,4.0,    
16.50,23.224,43170.6,-540.4,5803.8,4.34,-1.15,-9.85,310.7,2.6,150.2,4.1,-27.3,0.0,n/a,OK,4.0,    
17.00,23.268,43251.7,-567.6,5803.8,4.34,-1.15,-9.89,310.9,-0.3,151.1,4.1,-27.3,0.0,n/a,OK,4.0,    
17.50,23.313,43333.1,-593.7,5803.8,4.34,-1.16,-9.92,311.0,-0.1,151.9,4.1,-27.3,0.0,n/a,OK,4.0,    
18.00,23.357,43415.1,-618.6,5803.8,4.34,-1.16,-9.95,311.2,-0.2,152.8,4.1,-27.3,0.0,n/a,OK,4.0,    
18.50,23.402,43497.4,-642.4,5803.8,4.34,-1.17,-9.98,311.3,3.6,153.7,4.1,-27.3,0.0,n/a,OK,4.0,    
19.00,23.446,43580.1,-665.1,5803.8,4.35,-1.17,-10.01,311.5,-0.6,154.6,4.1,-27.3,0.0,n/a,OK,4.0,    
19.50,23.492,43663.2,-686.5,5803.8,4.34,-1.18,-10.03,311.6,-0.4,155.4,4.1,-27.3,0.0,n/a,OK,4.0,    
20.00,23.537,43746.7,-706.8,5803.8,4.34,-1.18,-10.06,311.8,-0.5,156.3,4.1,-27.3,0.0,n/a,OK,4.0,    
20.50,23.582,43830.4,-725.9,5803.8,4.34,-1.18,-10.08,311.9,-0.1,157.2,4.1,-27.3,0.0,n/a,OK,4.0,    
21.00,23.628,43914.5,-743.9,5803.8,4.34,-1.19,-10.10,312.1,0.1,158.1,4.1,-27.3,0.0,n/a,OK,4.0,    
21.50,23.673,43999.0,-760.6,5803.8,4.34,-1.19,-10.12,312.2,0.1,159.0,4.1,-27.3,0.0,n/a,OK,4.0,    
22.00,23.719,44083.6,-776.2,5803.8,4.34,-1.20,-10.14,312.4,0.1,159.8,4.1,-27.3,0.0,n/a,OK,4.0,    
22.50,23.765,44168.6,-790.5,5803.8,4.34,-1.20,-10.16,312.5,0.0,160.7,4.1,-27.3,0.0,n/a,OK,4.0,    
23.00,23.811,44253.8,-803.7,5803.8,4.34,-1.21,-10.17,312.7,0.0,161.6,4.1,-27.3,0.0,n/a,OK,4.0,    
23.50,23.858,44339.2,-815.7,5803.8,4.34,-1.21,-10.19,312.8,-1.1,162.5,4.1,-27.3,0.0,n/a,OK,4.0,    
24.00,23.904,44424.9,-826.4,5803.8,4.34,-1.22,-10.20,313.0,0.3,163.4,4.1,-27.3,0.0,n/a,OK,4.0,    
24.50,23.950,44510.7,-836.0,5803.8,4.34,-1.22,-10.21,313.1,-0.1,164.2,4.1,-27.3,0.0,n/a,OK,4.0,    
25.00,23.997,44596.7,-844.3,5803.8,4.33,-1.22,-10.22,313.2,5.1,165.1,4.1,-27.3,0.0,n/a,OK,4.0,    
25.50,24.044,44682.9,-851.4,5803.8,4.34,-1.23,-10.23,313.4,2.6,166.0,4.1,-27.3,0.0,n/a,OK,4.0,    
26.00,24.090,44769.2,-857.3,5803.9,4.33,-1.23,-10.23,313.5,7.5,166.9,4.1,-27.3,0.0,n/a,OK,4.0,    
26.50,24.137,44855.6,-862.0,5804.0,4.32,-1.24,-10.23,313.7,10.2,167.8,4.1,-27.3,0.0,n/a,OK,4.0,    
27.00,24.184,44942.1,-865.4,5804.0,4.31,-1.24,-10.24,313.8,12.6,168.6,4.1,-27.3,0.0,n/a,OK,4.0,    
27.50,24.230,45028.7,-867.7,5804.1,4.31,-1.25,-10.24,314.0,12.0,169.5,4.1,-27.3,0.0,n/a,OK,4.0,    
28.00,24.277,45115.3,-868.7,5804.2,4.31,-1.25,-10.24,314.1,10.0,170.4,4.1,-27.3,0.0,n/a,OK,4.0,    
28.50,24.324,45202.0,-868.5,5804.3,4.29,-1.25,-10.23,314.2,12.6,171.3,4.1,-27.3,0.0,n/a,OK,4.0,    
29.00,24.371,45288.7,-867.0,5804.4,4.29,-1.26,-10.23,314.4,11.1,172.1,4.1,-27.3,0.0,n/a,OK,4.0,    
29.50,24.418,45375.4,-864.4,5804.5,4.29,-1.26,-10.23,314.5,9.3,173.0,4.1,-27.3,0.0,n/a,OK,4.0,    
30.00,24.464,45462.1,-860.5,5804.6,4.29,-1.27,-10.22,314.6,6.7,173.9,4.1,-27.3,0.0,n/a,OK,4.0,    
30.50,24.511,45548.8,-855.4,5804.7,4.27,-1.27,-10.21,314.8,9.3,174.8,4.1,-27.3,0.0,n/a,OK,4.0,    
31.00,24.558,45635.4,-849.0,5804.7,4.27,-1.28,-10.20,314.9,5.4,175.7,4.1,-27.3,0.0,n/a,OK,4.0,    
31.50,24.604,45722.0,-841.5,5804.8,4.28,-1.28,-10.19,315.1,-1.8,176.5,4.1,-27.3,0.0,n/a,OK,4.0,    
32.00,24.651,45808.4,-832.8,5804.7,4.28,-1.28,-10.18,315.2,-6.2,177.4,4.0,-27.3,0.0,n/a,OK,4.0,    
32.50,24.698,45894.8,-822.8,5804.7,4.26,-1.29,-10.16,315.4,-5.1,178.3,4.0,-27.3,0.0,n/a,OK,4.0,    
33.00,24.744,45981.1,-811.6,5804.6,4.26,-1.29,-10.15,315.5,-7.7,179.1,4.0,-27.3,0.0,n/a,OK,4.0,    
33.50,24.790,46067.1,-799.2,5804.6,4.26,-1.30,-10.13,315.6,-9.2,180.0,4.0,-27.3,0.0,n/a,OK,4.0,    
34.00,24.837,46153.1,-785.6,5804.5,4.26,-1.30,-10.11,315.7,-11.4,179.1,4.0,-27.3,0.0,n/a,OK,4.0,    
34.50,24.883,46238.8,-770.8,5804.4,4.28,-1.31,-10.09,315.8,-19.0,178.2,4.0,-27.3,0.0,n/a,OK,4.0,    
35.00,24.929,46324.3,-754.8,5804.2,4.28,-1.31,-10.07,316.0,-18.9,177.3,4.0,-27.3,0.0,n/a,OK,4.0,    
35.50,24.975,46409.7,-737.6,5804.1,4.27,-1.31,-10.04,316.1,-15.9,176.4,4.0,-27.3,0.0,n/a,OK,4.0,    
36.00,25.021,46494.8,-719.1,5803.9,4.28,-1.32,-10.02,316.2,-16.9,175.6,4.0,-27.3,0.0,n/a,OK,4.0,    
36.50,25.066,46579.6,-699.5,5803.8,4.28,-1.32,-9.99,316.3,-15.3,174.7,4.0,-27.3,0.0,n/a,OK,4.0,    
37.00,25.112,46664.1,-678.7,5803.7,4.28,-1.33,-9.97,316.4,-14.5,173.8,4.0,-27.3,0.0,n/a,OK,4.0,    
37.50,25.157,46748.4,-656.7,5803.5,4.28,-1.33,-9.94,316.6,-11.6,172.9,4.0,-27.3,0.0,n/a,OK,4.0,    
38.00,25.202,46832.4,-633.5,5803.4,4.28,-1.33,-9.91,316.7,-11.8,172.0,4.0,-27.3,0.0,n/a,OK,4.0,    
38.50,25.247,46916.0,-609.1,5803.4,4.28,-1.34,-9.88,316.7,-7.4,171.2,4.0,-27.3,0.0,n/a,OK,4.0,    
39.00,25.292,46999.2,-583.6,5803.3,4.28,-1.34,-9.84,316.8,-6.7,170.3,4.1,-27.3,0.0,n/a,OK,4.0,    
39.50,25.336,47082.1,-556.9,5803.3,4.28,-1.34,-9.81,317.0,-3.9,169.4,4.1,-27.3,0.0,n/a,OK,4.0,    
40.00,25.381,47164.7,-529.0,5803.3,4.28,-1.35,-9.78,317.1,-2.0,168.5,4.1,-27.3,0.0,n/a,OK,4.0,    
40.50,25.425,47246.8,-500.0,5803.2,4.28,-1.35,-9.74,317.2,0.7,167.6,4.1,-27.3,0.0,n/a,OK,4.0,    
41.00,25.469,47328.5,-469.8,5803.2,4.27,-1.36,-9.70,317.3,1.5,166.8,4.1,-27.4,0.0,n/a,OK,4.0,    
41.50,25.513,47409.7,-438.5,5803.3,4.27,-1.36,-9.66,317.4,-1.0,165.8,4.0,-27.9,0.0,n/a,OK,4.0,    
42.00,25.556,47490.5,-406.0,5803.2,4.26,-1.36,-9.62,317.5,-2.7,164.9,4.0,-28.7,0.0,n/a,OK,4.0,    
42.50,25.599,47570.8,-372.3,5803.2,4.28,-1.37,-9.58,317.6,-15.0,163.9,4.0,-29.5,0.0,n/a,OK,4.0,    
43.00,25.642,47650.6,-337.3,5803.0,4.30,-1.37,-9.54,317.7,-21.1,162.9,4.0,-30.2,0.0,n/a,OK,4.0,    
43.50,25.685,47729.7,-301.2,5802.8,4.33,-1.37,-9.49,317.8,-30.2,161.8,4.0,-30.9,0.0,n/a,OK,4.0,    
44.00,25.727,47808.3,-263.7,5802.5,4.36,-1.38,-9.45,317.9,-34.4,160.7,4.0,-31.8,0.0,n/a,OK,4.0,    
44.50,25.769,47886.2,-225.0,5802.2,4.40,-1.38,-9.40,318.0,-45.4,159.6,4.0,-32.9,0.0,n/a,OK,4.0,    
45.00,25.811,47963.5,-185.0,5801.8,4.44,-1.38,-9.35,318.1,-53.8,158.4,4.0,-33.9,0.0,n/a,OK,4.0,    
45.50,25.852,48039.9,-143.5,5801.3,4.49,-1.39,-9.30,318.2,-65.3,157.2,4.0,-34.9,0.0,n/a,OK,4.0,    
46.00,25.893,48115.5,-100.7,5800.7,4.54,-1.39,-9.25,318.3,-71.0,155.9,4.0,-35.7,0.0,n/a,OK,4.0,    
46.50,25.933,48190.3,-56.4,5800.1,4.64,-1.40,-9.20,318.4,-75.0,154.7,4.1,-35.3,0.0,n/a,OK,4.0,    
47.00,25.973,48264.2,-10.7,5799.6,4.67,-1.40,-9.14,318.5,-44.7,153.5,4.2,-34.7,0.0,n/a,OK,4.0,    
47.50,26.012,48337.1,36.4,5799.3,4.64,-1.40,-9.09,318.6,-27.9,152.3,4.2,-34.9,0.0,n/a,OK,4.0,    
48.00,26.051,48409.1,84.9,5799.1,4.66,-1.41,-9.03,318.7,-14.1,151.0,4.2,-35.0,0.0,n/a,OK,4.0,    
48.50,26.089,48480.1,134.7,5799.1,4.67,-1.41,-8.97,318.8,-1.7,149.8,4.2,-35.1,0.0,n/a,OK,4.0,    
49.00,26.127,48550.0,185.9,5799.1,4.65,-1.41,-8.91,318.9,17.9,148.6,4.2,-35.1,0.0,n/a,OK,4.0,    
49.50,26.165,48618.9,238.4,5799.3,4.65,-1.41,-8.85,319.0,31.8,147.4,4.3,-35.1,0.0,n/a,OK,4.0,    
50.00,26.201,48686.8,292.2,5799.6,4.64,-1.42,-8.79,319.0,43.8,146.2,4.3,-35.1,0.0,n/a,OK,4.0,    
50.50,26.238,48753.5,347.3,5800.1,4.63,-1.42,-8.72,319.1,52.4,145.0,4.3,-35.1,0.0,n/a,OK,4.0,    
51.00,26.273,48819.1,403.6,5800.5,4.62,-1.42,-8.66,319.2,61.4,143.8,4.3,-35.1,0.0,n/a,OK,4.0,    
51.50,26.308,48883.5,461.2,5801.1,4.60,-1.42,-8.59,319.3,65.9,142.6,4.3,-35.1,0.0,n/a,OK,4.0,    
52.00,26.343,48946.8,519.9,5801.6,4.59,-1.43,-8.52,319.4,66.8,141.4,4.3,-35.1,0.0,n/a,OK,4.0,    
52.50,26.377,49008.9,579.8,5802.2,4.57,-1.43,-8.45,319.5,67.4,140.2,4.3,-35.1,0.0,n/a,OK,4.0,    
53.00,26.410,49069.8,640.9,5802.8,4.55,-1.43,-8.38,319.6,67.1,139.0,4.3,-35.1,0.0,n/a,OK,4.0,    
53.50,26.443,49129.5,703.1,5803.3,4.55,-1.43,-8.31,319.6,61.1,137.8,4.2,-35.1,0.0,n/a,OK,4.0,    
54.00,26.475,49187.9,766.3,5803.8,4.54,-1.44,-8.24,319.7,52.3,136.6,4.2,-35.1,0.0,n/a,OK,4.0,    
54.50,26.506,49245.0,830.7,5804.2,4.53,-1.44,-8.16,319.7,45.0,135.4,4.2,-35.1,0.0,n/a,OK,4.0,    
55.00,26.537,49300.8,896.0,5804.5,4.53,-1.44,-8.09,319.8,36.3,134.3,4.2,-35.1,0.0,n/a,OK,4.0,    
55.50,26.567,49355.3,962.3,5804.8,4.52,-1.44,-8.01,319.8,25.8,133.1,4.2,-35.1,0.0,n/a,OK,4.0,    
56.00,26.596,49408.5,1029.7,5805.0,4.52,-1.45,-7.94,319.9,16.6,131.9,4.1,-35.1,0.0,n/a,OK,4.0,    
56.50,26.625,49460.4,1097.9,5805.1,4.52,-1.45,-7.86,319.9,8.2,130.7,4.1,-35.1,0.0,n/a,OK,4.0,    
57.00,26.653,49510.8,1167.1,5805.1,4.51,-1.45,-7.78,319.9,1.4,129.5,4.1,-35.1,0.0,n/a,OK,4.0,    
57.50,26.681,49559.9,1237.1,5805.1,4.52,-1.45,-7.70,320.0,-10.4,128.3,4.1,-35.1,0.0,n/a,OK,4.0,    
58.00,26.707,49607.6,1308.0,5804.9,4.53,-1.45,-7.62,320.0,-19.6,127.2,4.1,-35.1,0.0,n/a,OK,4.0,    
58.50,26.733,49653.8,1379.8,5804.8,4.54,-1.46,-7.54,320.0,-25.4,126.0,4.1,-35.1,0.0,n/a,OK,4.0,    
59.00,26.759,49698.6,1452.3,5804.5,4.54,-1.46,-7.46,320.0,-28.9,124.8,4.1,-35.1,0.0,n/a,OK,4.0,    
59.50,26.783,49741.9,1525.6,5804.3,4.55,-1.46,-7.37,320.0,-31.5,123.6,4.1,-35.1,0.0,n/a,OK,4.0,    
60.00,26.807,49783.7,1599.7,5804.0,4.56,-1.46,-7.29,320.0,-33.3,122.4,4.1,-35.1,0.0,n/a,OK,4.0,    
60.50,26.830,49824.0,1674.5,5803.7,4.56,-1.46,-7.20,320.0,-34.4,121.2,4.1,-35.1,0.0,n/a,OK,4.0,    
61.00,26.852,49862.8,1749.9,5803.5,4.56,-1.47,-7.12,320.0,-32.1,120.0,4.1,-35.1,0.0,n/a,OK,4.0,    
61.50,26.874,49900.1,1826.0,5803.2,4.57,-1.47,-7.03,319.9,-32.8,118.8,4.1,-35.1,0.0,n/a,OK,4.0,    
62.00,26.895,49935.8,1902.7,5802.9,4.58,-1.47,-6.95,320.0,-28.6,117.6,4.1,-35.1,0.0,n/a,OK,4.0,    
62.50,26.915,49969.9,1980.0,5802.7,4.57,-1.47,-6.86,319.9,-22.5,116.4,4.1,-35.1,0.0,n/a,OK,4.0,    
63.00,26.934,50002.5,2057.8,5802.5,4.58,-1.47,-6.77,319.9,-17.4,115.1,4.1,-35.1,0.0,n/a,OK,4.0,    
63.50,26.953,50033.4,2136.2,5802.4,4.58,-1.47,-6.68,319.8,-13.2,113.9,4.1,-35.1,0.0,n/a,OK,4.0,    
64.00,26.970,50062.8,2215.0,5802.3,4.58,-1.48,-6.59,319.8,-10.3,112.7,4.1,-35.1,0.0,n/a,OK,4.0,    
64.50,26.987,50090.5,2294.3,5802.2,4.58,-1.48,-6.51,319.8,-7.4,111.5,4.1,-35.1,0.0,n/a,OK,4.0,    
65.00,27.003,50116.7,2374.0,5802.2,4.58,-1.48,-6.42,319.7,0.2,110.3,4.2,-35.1,0.0,n/a,OK,4.0,    
65.50,27.019,50141.2,2454.1,5802.2,4.57,-1.48,-6.33,319.7,6.7,109.1,4.2,-35.1,0.0,n/a,OK,4.0,    
66.00,27.033,50164.0,2534.6,5802.3,4.57,-1.48,-6.23,319.6,7.0,107.9,4.2,-35.1,0.0,n/a,OK,4.0,    
66.50,27.047,50185.2,2615.3,5802.4,4.56,-1.48,-6.14,319.6,11.6,106.7,4.2,-35.1,0.0,n/a,OK,4.0,    
67.00,27.060,50204.8,2696.4,5802.5,4.55,-1.48,-6.05,319.5,14.7,105.5,4.2,-35.1,0.0,n/a,OK,4.0,    
67.50,27.072,50222.7,2777.7,5802.6,4.55,-1.48,-5.96,319.5,14.6,104.3,4.2,-35.1,0.0,n/a,OK,4.0,    
68.00,27.083,50239.0,2859.2,5802.7,4.55,-1.48,-5.87,319.4,17.6,103.1,4.2,-35.1,0.0,n/a,OK,4.0,    
68.50,27.093,50253.6,2940.9,5802.9,4.54,-1.48,-5.78,319.3,19.0,102.0,4.2,-35.1,0.0,n/a,OK,4.0,    
69.00,27.103,50266.5,3022.7,5803.0,4.53,-1.48,-5.69,319.3,20.2,100.8,4.2,-35.1,0.0,n/a,OK,4.0,    
69.50,27.112,50277.8,3104.6,5803.2,4.54,-1.49,-5.59,319.2,13.6,99.6,4.1,-35.1,0.0,n/a,OK,4.0,    
70.00,27.120,50287.4,3186.6,5803.3,4.53,-1.49,-5.50,319.1,17.7,98.4,4.1,-35.1,0.0,n/a,OK,4.0,    
70.50,27.127,50295.4,3268.7,5803.4,4.53,-1.49,-5.41,319.0,14.6,97.2,4.1,-35.1,0.0,n/a,OK,4.0,    
71.00,27.133,50301.7,3350.7,5803.5,4.53,-1.49,-5.31,318.9,9.7,96.0,4.1,-35.1,0.0,n/a,OK,4.0,    
71.50,27.139,50306.3,3432.7,5803.6,4.53,-1.49,-5.22,318.9,6.0,94.8,4.1,-35.1,0.0,n/a,OK,4.0,    
72.00,27.143,50309.3,3514.7,5803.7,4.53,-1.49,-5.13,318.8,4.3,93.6,4.1,-35.1,-0.0,n/a,OK,4.0,    
72.50,27.147,50310.6,3596.5,5803.7,4.53,-1.49,-5.04,318.7,-0.7,92.4,4.1,-35.1,-0.0,n/a,OK,4.0,    
73.00,27.150,50310.3,3678.3,5803.7,4.53,-1.49,-4.94,318.5,-1.5,91.2,4.1,-35.1,-0.0,n/a,OK,4.0,    
73.50,27.152,50308.3,3759.8,5803.7,4.53,-1.49,-4.85,318.4,-0.1,90.0,4.1,-35.1,-0.0,n/a,OK,4.0,    
74.00,27.154,50304.7,3841.1,5803.7,4.53,-1.49,-4.76,318.3,-6.7,88.8,4.1,-35.1,-0.0,n/a,OK,4.0,    
74.50,27.154,50299.4,3922.2,5803.6,4.54,-1.49,-4.67,318.2,-6.9,87.6,4.1,-35.1,-0.0,n/a,OK,4.0,    
75.00,27.154,50292.5,4003.1,5803.5,4.54,-1.49,-4.57,318.1,-9.1,86.4,4.1,-35.1,-0.0,n/a,OK,4.0,    
75.50,27.153,50283.9,4083.6,5803.5,4.53,-1.49,-4.48,318.0,-8.3,85.2,4.1,-35.1,-0.0,n/a,OK,4.0,    
76.00,27.151,50273.7,4163.8,5803.4,4.53,-1.49,-4.39,317.8,-8.7,84.0,4.1,-35.1,-0.0,n/a,OK,4.0,    
76.50,27.148,50261.9,4243.6,5803.3,4.54,-1.49,-4.30,317.7,-9.0,82.8,4.1,-35.1,-0.0,n/a,OK,4.0,    
77.00,27.144,50248.5,4322.9,5803.2,4.54,-1.49,-4.21,317.6,-10.8,81.6,4.1,-35.1,-0.0,n/a,OK,4.0,    
77.50,27.140,50233.4,4401.9,5803.2,4.54,-1.49,-4.12,317.4,-8.8,80.4,4.1,-35.1,-0.0,n/a,OK,4.0,    
78.00,27.135,50216.8,4480.4,5803.1,4.54,-1.49,-4.03,317.3,-8.4,79.2,4.1,-35.1,-0.0,n/a,OK,4.0,    
78.50,27.129,50198.6,4558.3,5803.0,4.54,-1.49,-3.94,317.2,-6.5,78.0,4.1,-35.1,-0.0,n/a,OK,4.0,    
79.00,27.122,50178.8,4635.7,5803.0,4.54,-1.49,-3.85,317.0,-4.8,76.8,4.1,-35.1,-0.0,n/a,OK,4.0,    
79.50,27.114,50157.4,4712.6,5802.9,4.54,-1.49,-3.76,316.8,-5.6,75.6,4.1,-35.1,-0.0,n/a,OK,4.0,    
80.00,27.106,50134.5,4788.8,5802.9,4.55,-1.49,-3.67,316.7,-5.9,74.4,4.1,-35.1,-0.0,n/a,OK,4.0,    
80.50,27.097,50110.1,4864.4,5802.9,4.54,-1.48,-3.58,316.6,0.2,73.2,4.1,-35.1,-0.0,n/a,OK,4.0,    
81.00,27.087,50084.1,4939.3,5802.9,4.55,-1.48,-3.49,316.4,0.9,72.0,4.1,-35.1,-0.0,n/a,OK,4.0,    
81.50,27.076,50056.6,5013.5,5802.9,4.53,-1.48,-3.40,316.2,5.8,70.8,4.1,-35.1,-0.0,n/a,OK,4.0,    
82.00,27.064,50027.6,5086.9,5803.0,4.53,-1.48,-3.32,316.1,6.5,69.6,4.1,-35.1,-0.0,n/a,OK,4.0,    
82.50,27.052,49997.1,5159.6,5803.0,4.54,-1.48,-3.23,315.9,5.7,68.4,4.1,-35.1,-0.0,n/a,OK,4.0,    
83.00,27.039,49965.2,5231.5,5803.0,4.53,-1.48,-3.14,315.7,5.0,67.2,4.1,-35.1,-0.0,n/a,OK,4.0,    
83.50,27.025,49931.8,5302.6,5803.1,4.53,-1.48,-3.06,315.6,8.3,66.0,4.1,-35.1,-0.0,n/a,OK,4.0,    
84.00,27.010,49897.0,5372.8,5803.2,4.52,-1.48,-2.98,315.4,11.9,64.9,4.1,-35.1,-0.0,n/a,OK,4.0,    
84.50,26.995,49860.8,5442.1,5803.3,4.52,-1.48,-2.89,315.2,9.5,63.7,4.1,-35.1,-0.0,n/a,OK,4.0,    
85.00,26.979,49823.1,5510.5,5803.4,4.52,-1.48,-2.81,315.1,8.5,62.5,4.1,-35.1,-0.0,n/a,OK,4.0,    
85.50,26.962,49784.2,5578.0,5803.5,4.51,-1.47,-2.73,314.9,9.8,61.3,4.1,-35.1,-0.0,n/a,OK,4.0,    
86.00,26.944,49743.8,5644.5,5803.5,4.52,-1.47,-2.65,314.7,6.7,60.1,4.1,-35.1,-0.0,n/a,OK,4.0,    
86.50,26.926,49702.2,5709.9,5803.6,4.51,-1.47,-2.57,314.5,6.5,58.9,4.1,-35.1,-0.0,n/a,OK,4.0,    
87.00,26.907,49659.2,5774.4,5803.6,4.51,-1.47,-2.49,314.3,5.1,57.7,4.1,-35.1,-0.0,n/a,OK,4.0,    
87.50,26.887,49614.9,5837.8,5803.7,4.51,-1.47,-2.41,314.1,5.4,56.5,4.1,-35.1,-0.0,n/a,OK,4.0,    
88.00,26.867,49569.4,5900.1,5803.7,4.50,-1.47,-2.33,314.0,3.9,55.3,4.1,-35.1,-0.0,n/a,OK,4.0,    
88.50,26.845,49522.6,5961.3,5803.7,4.50,-1.47,-2.26,313.8,1.0,54.1,4.1,-35.1,-0.0,n/a,OK,4.0,    
89.00,26.824,49474.7,6021.4,5803.8,4.50,-1.46,-2.18,313.6,1.9,52.9,4.1,-35.1,-0.0,n/a,OK,4.0,    
89.50,26.801,49425.5,6080.3,5803.8,4.50,-1.46,-2.11,313.4,-0.4,51.7,4.1,-35.1,-0.0,n/a,OK,4.0,    
90.00,26.778,49375.1,6138.0,5803.8,4.50,-1.46,-2.03,313.2,-2.5,50.5,4.1,-35.1,-0.0,n/a,OK,4.0,    
90.50,26.754,49323.7,6194.5,5803.7,4.50,-1.46,-1.96,313.0,-2.1,49.3,4.1,-35.1,-0.0,n/a,OK,4.0,    
91.00,26.730,49271.1,6249.8,5803.7,4.49,-1.46,-1.89,312.8,-2.6,48.1,4.1,-35.1,-0.0,n/a,OK,4.0,    
91.50,26.705,49217.4,6303.8,5803.7,4.50,-1.45,-1.82,312.6,-5.6,46.9,4.1,-35.1,-0.0,n/a,OK,4.0,    
92.00,26.679,49162.6,6356.6,5803.6,4.50,-1.45,-1.75,312.4,-6.0,45.7,4.1,-35.1,-0.0,n/a,OK,4.0,    
92.50,26.653,49106.8,6408.0,5803.6,4.50,-1.45,-1.68,312.2,-5.1,44.5,4.1,-35.1,-0.0,n/a,OK,4.0,    
93.00,26.626,49050.0,6458.2,5803.6,4.50,-1.45,-1.62,312.0,-4.9,43.3,4.1,-35.1,-0.0,n/a,OK,4.0,    
93.50,26.598,48992.2,6507.0,5803.5,4.49,-1.45,-1.55,311.8,-5.9,42.1,4.1,-35.1,-0.0,n/a,OK,4.0,    
94.00,26.570,48933.4,6554.4,5803.5,4.50,-1.44,-1.49,311.5,-5.7,40.9,4.1,-35.1,-0.0,n/a,OK,4.0,    
94.50,26.542,48873.8,6600.4,5803.4,4.50,-1.44,-1.43,311.4,-4.5,39.8,4.1,-35.1,-0.0,n/a,OK,4.0,    
95.00,26.512,48813.2,6645.1,5803.4,4.49,-1.44,-1.37,311.2,-1.1,38.6,4.1,-35.1,-0.0,n/a,OK,4.0,    
95.50,26.483,48751.7,6688.3,5803.4,4.50,-1.44,-1.31,310.9,-3.8,37.4,4.1,-35.1,-0.0,n/a,OK,4.0,    
96.00,26.453,48689.4,6730.0,5803.3,4.49,-1.44,-1.25,310.7,-2.5,36.2,4.1,-35.1,-0.0,n/a,OK,4.0,    
96.50,26.422,48626.3,6770.3,5803.3,4.49,-1.43,-1.19,310.5,-0.3,35.0,4.1,-35.1,-0.0,n/a,OK,4.0,    
97.00,26.391,48562.4,6809.2,5803.3,4.49,-1.43,-1.14,310.3,0.8,33.8,4.1,-35.1,-0.0,n/a,OK,4.0,    
97.50,26.359,48497.8,6846.5,5803.3,4.49,-1.43,-1.08,310.1,-0.9,32.6,4.1,-35.1,-0.0,n/a,OK,4.0,    
98.00,26.327,48432.5,6882.4,5803.3,4.49,-1.43,-1.03,309.9,-0.6,31.4,4.1,-35.1,-0.0,n/a,OK,4.0,    
98.50,26.294,48366.4,6916.7,5803.4,4.48,-1.42,-0.98,309.7,2.6,30.2,4.1,-35.1,-0.0,n/a,OK,4.0,    
99.00,26.261,48299.8,6949.5,5803.4,4.48,-1.42,-0.93,309.5,2.2,29.0,4.1,-35.1,-0.0,n/a,OK,4.0,    
99.50,26.227,48232.5,6980.7,5803.4,4.48,-1.42,-0.88,309.3,2.1,27.8,4.1,-35.1,-0.0,n/a,OK,4.0,    
100.00,26.193,48164.6,7010.4,5803.4,4.47,-1.42,-0.84,309.1,1.4,26.6,4.1,-35.1,-0.0,n/a,OK,4.0,    
100.50,26.159,48096.1,7038.5,5803.4,4.47,-1.41,-0.79,308.8,3.9,25.4,4.1,-35.1,-0.0,n/a,OK,4.0,    
101.00,26.124,48027.2,7065.1,5803.5,4.47,-1.41,-0.75,308.7,4.0,24.2,4.1,-35.1,-0.0,n/a,OK,4.0,    
101.50,26.089,47957.7,7090.0,5803.5,4.47,-1.41,-0.71,308.4,4.4,23.0,4.1,-35.1,-0.0,n/a,OK,4.0,    
102.00,26.054,47887.8,7113.4,5803.5,4.47,-1.40,-0.67,308.2,0.7,21.8,4.1,-35.1,-0.0,n/a,OK,4.0,    
102.50,26.018,47817.5,7135.1,5803.5,4.46,-1.40,-0.63,308.0,2.3,20.6,4.1,-35.1,-0.0,n/a,OK,4.0,    
103.00,25.982,47746.7,7155.2,5803.6,4.46,-1.40,-0.59,307.8,5.1,19.4,4.1,-35.1,-0.0,n/a,OK,4.0,    
103.50,25.945,47675.7,7173.7,5803.6,4.47,-1.40,-0.56,307.6,1.3,18.2,4.1,-35.1,-0.0,n/a,OK,4.0,    
104.00,25.908,47604.3,7190.5,5803.6,4.47,-1.39,-0.53,307.4,-1.9,17.0,4.1,-34.9,-0.0,n/a,OK,4.0,    
104.50,25.871,47532.6,7205.7,5803.6,4.47,-1.39,-0.50,307.2,6.0,15.9,4.1,-33.8,-0.0,n/a,OK,4.0,    
105.00,25.834,47460.6,7219.4,5803.7,4.47,-1.39,-0.47,307.0,26.5,14.9,4.2,-31.7,-0.0,n/a,OK,4.0,    
105.50,25.796,47388.5,7231.5,5804.1,4.42,-1.38,-0.44,306.8,61.7,14.1,4.3,-28.9,-0.0,n/a,OK,4.0,    
106.00,25.759,47316.3,7242.4,5804.8,4.33,-1.38,-0.41,306.7,102.4,13.4,4.3,-25.6,-0.0,n/a,OK,4.0,    
106.50,25.721,47243.9,7252.0,5805.8,4.20,-1.38,-0.39,306.6,140.0,12.8,4.3,-21.8,-0.0,n/a,OK,4.0,    
107.00,25.683,47171.4,7260.7,5807.1,4.02,-1.37,-0.37,306.5,166.7,12.4,4.2,-18.6,-0.0,n/a,OK,4.0,    
107.50,25.645,47098.8,7268.6,5808.5,3.85,-1.37,-0.34,306.5,166.7,12.0,4.1,-16.0,-0.0,n/a,OK,4.0,    
108.00,25.607,47026.2,7275.8,5809.7,3.72,-1.37,-0.32,306.5,136.6,11.7,3.9,-14.2,-0.0,n/a,OK,4.0,    
108.50,25.569,46953.5,7282.3,5810.7,3.62,-1.36,-0.30,306.5,88.9,11.3,3.7,-13.0,-0.0,n/a,OK,4.0,    
109.00,25.530,46880.8,7288.4,5811.2,3.58,-1.36,-0.28,306.5,22.6,11.0,3.6,-12.9,-0.0,n/a,OK,4.0,    
109.50,25.492,46808.1,7293.8,5811.1,3.56,-1.36,-0.26,306.4,-37.8,10.6,3.5,-13.4,-0.0,n/a,OK,4.0,    
110.00,25.453,46735.3,7298.7,5810.6,3.55,-1.35,-0.24,306.4,-99.0,10.2,3.3,-13.8,-0.0,n/a,OK,4.0,    
110.50,25.415,46662.5,7303.1,5809.5,3.58,-1.35,-0.22,306.3,-156.3,9.8,3.3,-13.4,-0.0,n/a,OK,4.0,    
111.00,25.376,46589.7,7306.9,5808.0,3.61,-1.35,-0.20,306.3,-198.1,9.6,3.2,-11.6,-0.0,n/a,OK,4.0,    
111.50,25.338,46516.9,7310.3,5806.2,3.63,-1.34,-0.18,306.2,-229.4,9.4,3.2,-9.7,-0.0,n/a,OK,4.0,    
112.00,25.299,46444.0,7313.3,5804.2,3.65,-1.34,-0.17,306.1,-256.6,9.1,3.2,-8.2,-0.0,n/a,OK,4.0,    
112.50,25.261,46371.2,7315.9,5802.0,3.66,-1.34,-0.15,306.1,-272.9,9.0,3.2,-6.8,-0.0,n/a,OK,4.0,    
113.00,25.222,46298.4,7318.3,5799.7,3.68,-1.34,-0.13,306.1,-286.1,8.8,3.1,-5.6,-0.0,n/a,OK,4.0,    
113.50,25.183,46225.6,7320.4,5797.3,3.69,-1.33,-0.12,306.0,-290.3,8.7,3.2,-4.4,-0.0,n/a,OK,4.0,    
114.00,25.145,46152.8,7322.4,5794.8,3.71,-1.33,-0.10,305.9,-292.0,8.6,3.2,-3.2,-0.0,n/a,OK,4.0,    
114.50,25.106,46080.0,7324.2,5792.4,3.73,-1.33,-0.08,305.9,-287.3,8.6,3.2,-2.2,-0.0,n/a,OK,4.0,    
115.00,25.067,46007.3,7325.9,5790.1,3.74,-1.33,-0.07,305.8,-275.0,8.6,3.2,-1.1,-0.0,n/a,OK,4.0,    
115.50,25.029,45934.5,7327.5,5787.8,3.76,-1.32,-0.05,305.8,-263.9,8.6,3.3,-0.4,-0.0,n/a,OK,4.0,    
116.00,24.990,45861.7,7329.1,5785.7,3.78,-1.32,-0.04,305.8,-245.2,8.6,3.3,-0.6,-0.0,n/a,OK,4.0,    
116.50,24.951,45789.0,7330.7,5783.7,3.81,-1.32,-0.02,305.7,-223.4,8.5,3.4,-1.0,-0.0,n/a,OK,4.0,    
117.00,24.913,45716.3,7332.2,5782.0,3.83,-1.32,-0.00,305.7,-191.2,8.5,3.5,-1.1,-0.0,n/a,OK,4.0,    
117.50,24.874,45643.5,7333.7,5780.6,3.84,-1.31,0.01,305.7,-154.6,8.5,3.6,-1.1,-0.0,n/a,OK,4.0,    
118.00,24.836,45570.8,7335.2,5779.4,3.85,-1.31,0.03,305.6,-114.7,8.5,3.6,-1.0,-0.0,n/a,OK,4.0,    
118.50,24.797,45498.1,7336.6,5778.6,3.86,-1.31,0.04,305.6,-81.4,8.4,3.7,-1.0,-0.0,n/a,OK,4.0,    
119.00,24.758,45425.4,7337.9,5778.1,3.85,-1.30,0.06,305.5,-40.2,8.4,3.8,-1.0,-0.0,n/a,OK,4.0,    
119.50,24.720,45352.7,7339.2,5777.9,3.84,-1.30,0.08,305.5,-2.9,8.4,3.8,-1.0,-0.0,n/a,OK,4.0,    
120.00,24.681,45280.0,7340.5,5778.0,3.83,-1.30,0.09,305.5,29.8,8.3,3.9,-1.0,-0.0,n/a,OK,4.0,    
120.50,24.642,45207.3,7341.7,5778.4,3.81,-1.29,0.11,305.5,59.8,8.3,3.9,-1.0,-0.0,n/a,OK,4.0,    
121.00,24.604,45134.7,7342.9,5779.0,3.79,-1.29,0.13,305.5,79.6,8.3,3.9,-1.0,-0.0,n/a,OK,4.0,    
121.50,24.565,45062.0,7344.1,5779.7,3.78,-1.29,0.14,305.5,95.1,8.3,3.9,-1.0,-0.0,n/a,OK,4.0,    
122.00,24.527,44989.3,7345.2,5780.5,3.75,-1.28,0.16,305.5,110.2,8.3,3.9,-1.0,-0.0,n/a,OK,4.0,    
122.50,24.488,44916.6,7346.3,5781.5,3.73,-1.28,0.17,305.5,113.0,8.2,3.9,-0.9,-0.0,n/a,OK,4.0,    
123.00,24.449,44843.9,7347.4,5782.4,3.71,-1.27,0.19,305.5,113.2,8.2,3.9,-0.9,-0.0,n/a,OK,4.0,    
123.50,24.411,44771.2,7348.4,5783.3,3.69,-1.27,0.21,305.5,109.5,8.2,3.9,-0.9,-0.0,n/a,OK,4.0,    
124.00,24.372,44698.5,7349.3,5784.2,3.67,-1.27,0.22,305.5,103.4,8.1,3.9,-1.0,-0.0,n/a,OK,4.0,    
124.50,24.333,44625.8,7350.3,5785.0,3.66,-1.26,0.24,305.5,92.5,8.1,3.8,-0.9,-0.0,n/a,OK,4.0,    
125.00,24.295,44553.1,7351.2,5785.7,3.65,-1.26,0.25,305.6,74.1,8.1,3.8,-0.9,-0.0,n/a,OK,4.0,    
125.50,24.256,44480.4,7352.0,5786.3,3.65,-1.26,0.27,305.6,57.7,8.0,3.7,-0.9,-0.0,n/a,OK,4.0,    
126.00,24.217,44407.7,7352.8,5786.7,3.64,-1.25,0.29,305.6,42.2,8.0,3.7,-1.0,-0.0,n/a,OK,4.0,    
126.50,24.179,44334.9,7353.6,5787.0,3.64,-1.25,0.30,305.6,24.7,7.9,3.7,-2.2,-0.0,n/a,OK,4.0,    
127.00,24.140,44262.2,7354.3,5787.1,3.67,-1.24,0.32,305.6,7.5,7.7,3.7,-4.8,-0.0,n/a,OK,4.0,    
127.50,24.101,44189.5,7354.8,5787.2,3.70,-1.24,0.34,305.5,5.3,7.5,3.7,-5.9,-0.0,n/a,OK,4.0,    
128.00,24.063,44116.8,7355.0,5787.2,3.72,-1.24,0.35,305.5,6.5,7.3,3.7,-7.2,-0.0,n/a,OK,4.0,    
128.50,24.024,44044.1,7355.0,5787.3,3.74,-1.23,0.37,305.5,7.3,6.9,3.7,-10.3,-0.0,n/a,OK,4.0,    
129.00,23.985,43971.4,7354.5,5787.4,3.78,-1.23,0.38,305.4,12.9,6.4,3.8,-12.7,-0.0,n/a,OK,4.0,    
129.50,23.946,43898.8,7353.5,5787.5,3.85,-1.23,0.40,305.3,25.8,6.1,3.9,-12.4,-0.0,n/a,OK,4.0,    
130.00,23.908,43826.1,7351.9,5787.9,3.85,-1.22,0.41,305.2,53.7,5.8,3.9,-11.5,-0.0,n/a,OK,4.0,    
130.50,23.869,43753.5,7349.9,5788.4,3.83,-1.22,0.42,305.2,68.5,5.4,3.9,-11.3,-0.0,n/a,OK,4.0,    
131.00,23.830,43681.0,7347.5,5789.0,3.82,-1.21,0.43,305.1,81.7,5.0,3.9,-11.3,-0.0,n/a,OK,4.0,    
131.50,23.791,43608.4,7344.6,5789.7,3.81,-1.21,0.45,305.1,91.4,4.7,3.9,-11.4,-0.0,n/a,OK,4.0,    
132.00,23.752,43535.9,7341.2,5790.5,3.80,-1.21,0.46,305.0,98.4,4.3,3.9,-11.5,-0.0,n/a,OK,4.0,    
132.50,23.713,43463.4,7337.3,5791.3,3.79,-1.20,0.47,305.0,99.1,4.0,3.9,-11.5,-0.0,n/a,OK,4.0,    
133.00,23.674,43391.0,7332.9,5792.1,3.78,-1.20,0.48,304.9,96.2,3.6,3.9,-11.5,-0.0,n/a,OK,4.0,    
133.50,23.635,43318.6,7328.1,5792.9,3.76,-1.19,0.49,304.9,93.2,3.3,3.9,-11.5,-0.0,n/a,OK,4.0,    
134.00,23.596,43246.2,7322.8,5793.7,3.75,-1.19,0.50,304.9,86.0,2.9,3.9,-11.5,-0.0,n/a,OK,4.0,    
134.50,23.557,43173.9,7317.0,5794.3,3.74,-1.19,0.51,304.8,74.6,2.6,3.8,-11.5,-0.0,n/a,OK,4.0,    
135.00,23.518,43101.7,7310.7,5794.9,3.73,-1.18,0.51,304.8,62.1,2.3,3.8,-11.5,-0.0,n/a,OK,4.0,    
135.50,23.479,43029.5,7303.9,5795.4,3.73,-1.18,0.52,304.7,48.1,1.9,3.8,-11.5,-0.0,n/a,OK,4.0,    
136.00,23.440,42957.3,7296.7,5795.7,3.72,-1.17,0.53,304.7,35.8,1.6,3.8,-11.5,-0.0,n/a,OK,4.0,    
136.50,23.401,42885.2,7289.0,5796.0,3.73,-1.17,0.53,304.7,19.0,1.2,3.7,-11.5,-0.0,n/a,OK,4.0,    
137.00,23.362,42813.1,7280.9,5796.1,3.72,-1.17,0.54,304.6,8.4,0.9,3.7,-11.5,-0.0,n/a,OK,4.0,    
137.50,23.323,42741.2,7272.2,5796.1,3.73,-1.16,0.54,304.5,-6.5,0.6,3.7,-11.5,-0.0,n/a,OK,4.0,    
138.00,23.284,42669.2,7263.1,5796.0,3.74,-1.16,0.55,304.5,-19.4,0.2,3.7,-11.5,-0.0,n/a,OK,4.0,    
138.50,23.244,42597.4,7253.5,5795.8,3.74,-1.15,0.55,304.5,-26.4,0.1,3.7,-11.5,-0.0,n/a,OK,4.0,    
139.00,23.205,42525.6,7243.5,5795.5,3.75,-1.15,0.55,304.4,-35.6,0.5,3.7,-11.5,-0.0,n/a,OK,4.0,    
139.50,23.166,42453.9,7233.0,5795.2,3.75,-1.15,0.56,304.3,-39.5,0.8,3.7,-11.5,-0.0,n/a,OK,4.0,    
140.00,23.127,42382.3,7222.0,5794.9,3.76,-1.14,0.56,304.3,-42.7,1.2,3.7,-11.5,-0.0,n/a,OK,4.0,    
140.50,23.088,42310.7,7210.5,5794.5,3.77,-1.14,0.56,304.3,-46.0,1.5,3.7,-11.5,-0.0,n/a,OK,4.0,    
141.00,23.049,42239.3,7198.6,5794.1,3.78,-1.14,0.56,304.2,-46.6,1.9,3.7,-11.5,-0.0,n/a,OK,4.0,    
141.50,23.010,42167.9,7186.1,5793.7,3.78,-1.13,0.56,304.1,-42.4,2.2,3.7,-11.5,-0.0,n/a,OK,4.0,    
142.00,22.971,42096.6,7173.2,5793.4,3.79,-1.13,0.56,304.1,-36.6,2.6,3.7,-11.5,-0.0,n/a,OK,4.0,    
142.50,22.932,42025.5,7159.9,5793.1,3.80,-1.12,0.56,304.0,-34.4,2.9,3.7,-11.5,-0.0,n/a,OK,4.0,    
143.00,22.892,41954.4,7146.0,5792.9,3.80,-1.12,0.55,304.0,-26.4,3.3,3.7,-11.5,-0.0,n/a,OK,4.0,    
143.50,22.853,41883.4,7131.7,5792.7,3.80,-1.12,0.55,303.9,-19.8,3.6,3.7,-11.5,-0.0,n/a,OK,4.0,    
144.00,22.814,41812.5,7116.9,5792.6,3.81,-1.11,0.55,303.9,-12.8,4.0,3.8,-11.5,-0.0,n/a,OK,4.0,    
144.50,22.775,41741.8,7101.7,5792.5,3.81,-1.11,0.54,303.8,-8.0,4.3,3.8,-11.5,-0.0,n/a,OK,4.0,    
145.00,22.736,41671.1,7085.9,5792.4,3.80,-1.10,0.54,303.8,0.9,4.7,3.8,-11.5,-0.0,n/a,OK,4.0,    
145.50,22.697,41600.6,7069.7,5792.5,3.81,-1.10,0.53,303.7,4.6,5.0,3.8,-11.5,-0.0,n/a,OK,4.0,    
146.00,22.658,41530.1,7053.0,5792.5,3.80,-1.10,0.53,303.7,11.5,5.3,3.8,-11.5,-0.0,n/a,OK,4.0,    
146.50,22.619,41459.8,7035.9,5792.6,3.79,-1.09,0.52,303.6,17.3,5.7,3.8,-11.5,-0.0,n/a,OK,4.0,    
147.00,22.580,41389.6,7018.3,5792.8,3.79,-1.09,0.51,303.6,18.3,6.0,3.8,-11.5,-0.0,n/a,OK,4.0,    
147.50,22.541,41319.5,7000.2,5793.0,3.78,-1.08,0.50,303.5,22.7,6.4,3.8,-11.5,-0.0,n/a,OK,4.0,    
148.00,22.502,41249.6,6981.6,5793.1,3.78,-1.08,0.49,303.5,21.8,6.7,3.8,-11.5,-0.0,n/a,OK,4.0,    
148.50,22.464,41179.8,6962.6,5793.3,3.78,-1.07,0.48,303.4,21.2,7.1,3.8,-11.5,-0.0,n/a,OK,4.0,    
149.00,22.425,41110.1,6943.1,5793.5,3.77,-1.07,0.47,303.4,23.4,7.4,3.8,-11.5,-0.0,n/a,OK,4.0,    
149.50,22.386,41040.5,6923.2,5793.7,3.78,-1.07,0.46,303.3,19.4,7.8,3.8,-11.5,-0.0,n/a,OK,4.0,    
150.00,22.347,40971.1,6902.8,5793.8,3.77,-1.06,0.45,303.3,16.0,8.1,3.8,-11.5,-0.0,n/a,OK,4.0,    
150.50,22.308,40901.8,6881.9,5794.0,3.77,-1.06,0.44,303.2,15.1,8.5,3.8,-11.5,-0.0,n/a,OK,4.0,    
151.00,22.270,40832.7,6860.6,5794.1,3.77,-1.05,0.43,303.2,11.6,8.8,3.8,-11.5,-0.0,n/a,OK,4.0,    
151.50,22.231,40763.7,6838.8,5794.1,3.76,-1.05,0.41,303.2,9.4,9.1,3.8,-11.5,-0.0,n/a,OK,4.0,    
152.00,22.192,40694.8,6816.6,5794.2,3.77,-1.04,0.40,303.1,4.6,9.5,3.7,-11.5,-0.0,n/a,OK,4.0,    
152.50,22.154,40626.1,6793.9,5794.2,3.76,-1.04,0.38,303.1,2.8,9.8,3.7,-11.5,-0.0,n/a,OK,4.0,    
153.00,22.115,40557.5,6770.7,5794.3,3.76,-1.04,0.37,303.1,-0.1,10.2,3.7,-11.5,-0.0,n/a,OK,4.0,    
153.50,22.076,40489.1,6747.1,5794.2,3.77,-1.03,0.35,303.0,-4.9,10.5,3.7,-11.5,-0.0,n/a,OK,4.0,    
154.00,22.038,40420.9,6723.0,5794.2,3.77,-1.03,0.33,303.0,-5.8,10.9,3.7,-11.5,-0.0,n/a,OK,4.0,    
154.50,22.000,40352.8,6698.5,5794.2,3.77,-1.02,0.31,302.9,-4.9,11.2,3.7,-11.5,-0.0,n/a,OK,4.0,    
155.00,21.961,40284.9,6673.6,5794.1,3.77,-1.02,0.29,302.9,-7.7,11.6,3.7,-11.6,-0.0,n/a,OK,4.0,    
155.50,21.923,40217.1,6648.2,5794.0,3.77,-1.01,0.27,302.8,-15.0,12.0,3.7,-13.2,-0.0,n/a,OK,4.0,    
156.00,21.885,40149.6,6622.2,5793.8,3.78,-1.01,0.25,302.8,-26.7,12.6,3.7,-16.4,-0.0,n/a,OK,4.0,    
156.50,21.846,40082.3,6595.6,5793.6,3.81,-1.01,0.23,302.7,-33.0,13.3,3.7,-19.5,-0.0,n/a,OK,4.0,    
157.00,21.808,40015.3,6568.2,5793.3,3.88,-1.00,0.21,302.6,-35.4,14.1,3.7,-22.2,-0.0,n/a,OK,4.0,    
157.50,21.770,39948.6,6539.9,5793.0,3.96,-1.00,0.19,302.5,-31.4,14.9,3.8,-24.2,-0.0,n/a,OK,4.0,    
158.00,21.732,39882.4,6510.7,5792.8,4.04,-0.99,0.16,302.4,-18.4,15.8,3.9,-25.8,-0.0,n/a,OK,4.0,    
158.50,21.695,39816.7,6480.4,5792.7,4.12,-0.99,0.13,302.2,-9.3,16.7,3.9,-27.2,-0.0,n/a,OK,4.0,    
159.00,21.657,39751.5,6449.1,5792.7,4.18,-0.98,0.10,302.1,9.1,17.8,4.0,-28.6,-0.0,n/a,OK,4.0,    
159.50,21.620,39686.8,6416.5,5792.9,4.24,-0.98,0.07,302.0,20.7,18.9,4.0,-30.4,-0.0,n/a,OK,4.0,    
160.00,21.583,39622.8,6382.8,5793.1,4.32,-0.98,0.04,301.8,34.2,20.0,4.1,-30.8,-0.0,n/a,OK,4.0,    
160.50,21.546,39559.4,6347.7,5793.5,4.38,-0.97,0.00,301.7,73.3,20.9,4.3,-29.9,-0.0,n/a,OK,4.0,    
161.00,21.510,39496.7,6311.5,5794.3,4.35,-0.97,-0.03,301.6,109.9,21.9,4.3,-29.7,-0.0,n/a,OK,4.0,    
161.50,21.473,39434.6,6274.1,5795.3,4.34,-0.96,-0.07,301.4,133.6,23.0,4.3,-29.7,-0.0,n/a,OK,4.0,    
162.00,21.437,39373.3,6235.4,5796.5,4.32,-0.96,-0.11,301.4,152.5,24.0,4.3,-29.8,-0.0,n/a,OK,4.0,    
162.50,21.402,39312.7,6195.6,5797.9,4.29,-0.95,-0.16,301.3,172.2,24.9,4.3,-29.8,-0.0,n/a,OK,4.0,    
163.00,21.366,39252.8,6154.6,5799.3,4.26,-0.95,-0.20,301.2,178.9,25.9,4.3,-29.8,-0.0,n/a,OK,4.0,    
163.50,21.331,39193.7,6112.5,5800.8,4.23,-0.94,-0.25,301.2,178.5,26.9,4.3,-29.8,-0.0,n/a,OK,4.0,    
164.00,21.296,39135.3,6069.3,5802.3,4.20,-0.94,-0.30,301.1,174.6,27.8,4.3,-29.8,-0.0,n/a,OK,4.0,    
164.50,21.262,39077.7,6024.9,5803.7,4.18,-0.93,-0.35,301.1,166.1,28.8,4.2,-29.8,-0.0,n/a,OK,4.0,    
165.00,21.228,39020.9,5979.5,5805.0,4.15,-0.93,-0.40,301.0,150.2,29.7,4.2,-29.8,-0.0,n/a,OK,4.0,    
165.50,21.194,38964.9,5932.9,5806.2,4.13,-0.92,-0.46,301.0,131.6,30.7,4.1,-29.8,-0.0,n/a,OK,4.0,    
166.00,21.161,38909.7,5885.4,5807.2,4.12,-0.92,-0.51,300.9,106.6,31.6,4.1,-29.8,-0.0,n/a,OK,4.0,    
166.50,21.128,38855.3,5836.8,5808.0,4.11,-0.91,-0.57,300.9,80.8,32.6,4.0,-29.8,-0.0,n/a,OK,4.0,    
167.00,21.096,38801.8,5787.2,5808.6,4.09,-0.91,-0.63,300.8,57.2,33.5,4.0,-29.8,-0.0,n/a,OK,4.0,    
167.50,21.063,38749.1,5736.6,5808.9,4.10,-0.91,-0.69,300.8,28.2,34.5,3.9,-29.8,-0.0,n/a,OK,4.0,    
168.00,21.032,38697.4,5685.0,5809.1,4.10,-0.90,-0.76,300.7,6.8,35.4,3.9,-29.8,-0.0,n/a,OK,4.0,    
168.50,21.000,38646.5,5632.4,5809.1,4.11,-0.90,-0.82,300.7,-17.1,36.4,3.8,-29.8,0.0,n/a,OK,4.0,    
169.00,20.970,38596.6,5578.9,5808.8,4.11,-0.89,-0.89,300.6,-36.3,37.3,3.8,-29.8,0.0,n/a,OK,4.0,    
169.50,20.939,38547.6,5524.4,5808.5,4.13,-0.89,-0.96,300.6,-57.7,38.3,3.8,-29.8,0.0,n/a,OK,4.0,    
170.00,20.909,38499.6,5469.0,5807.9,4.15,-0.89,-1.03,300.5,-71.1,39.3,3.8,-29.8,0.0,n/a,OK,4.0,    
170.50,20.880,38452.5,5412.7,5807.3,4.17,-0.88,-1.10,300.5,-78.2,40.2,3.8,-29.8,0.0,n/a,OK,4.0,    
171.00,20.851,38406.4,5355.5,5806.6,4.19,-0.88,-1.18,300.4,-85.1,41.2,3.8,-29.8,0.0,n/a,OK,4.0,    
171.50,20.822,38361.4,5297.4,5805.9,4.20,-0.88,-1.25,300.4,-88.4,42.2,3.8,-29.8,0.0,n/a,OK,4.0,    
172.00,20.795,38317.4,5238.4,5805.2,4.22,-0.87,-1.33,300.3,-86.2,43.2,3.8,-29.8,0.0,n/a,OK,4.0,    
172.50,20.767,38274.4,5178.6,5804.5,4.23,-0.87,-1.41,300.2,-82.1,44.2,3.8,-29.8,0.0,n/a,OK,4.0,    
173.00,20.740,38232.6,5117.9,5803.8,4.25,-0.87,-1.49,300.2,-76.3,45.2,3.8,-29.8,0.0,n/a,OK,4.0,    
173.50,20.714,38191.8,5056.4,5803.2,4.25,-0.87,-1.57,300.1,-66.8,46.2,3.9,-29.8,0.0,n/a,OK,4.0,    
174.00,20.689,38152.1,4994.0,5802.7,4.26,-0.86,-1.66,300.1,-54.2,47.2,3.9,-29.8,0.0,n/a,OK,4.0,    
174.50,20.664,38113.6,4930.9,5802.3,4.26,-0.86,-1.74,300.0,-39.6,48.1,3.9,-29.8,0.0,n/a,OK,4.0,    
175.00,20.639,38076.2,4867.0,5802.0,4.26,-0.86,-1.83,300.0,-27.6,49.1,3.9,-29.8,0.0,n/a,OK,4.0,    
175.50,20.615,38039.9,4802.4,5801.8,4.26,-0.85,-1.92,300.0,-14.9,50.1,4.0,-29.8,0.0,n/a,OK,4.0,    
176.00,20.592,38004.9,4737.0,5801.8,4.27,-0.85,-2.01,300.0,-7.3,51.1,4.0,-29.8,0.0,n/a,OK,4.0,    
176.50,20.570,37970.9,4670.9,5801.8,4.26,-0.85,-2.10,299.9,7.7,52.1,4.0,-29.8,0.0,n/a,OK,4.0,    
177.00,20.548,37938.2,4604.1,5801.9,4.25,-0.84,-2.20,299.9,18.7,53.1,4.0,-29.8,0.0,n/a,OK,4.0,    
177.50,20.526,37906.7,4536.6,5802.1,4.24,-0.84,-2.29,299.9,29.9,54.1,4.0,-29.8,0.0,n/a,OK,4.0,    
178.00,20.506,37876.4,4468.5,5802.3,4.23,-0.84,-2.39,299.9,37.0,55.1,4.0,-29.8,0.0,n/a,OK,4.0,    
178.50,20.486,37847.3,4399.7,5802.7,4.23,-0.84,-2.49,299.9,39.0,56.0,4.0,-29.8,0.0,n/a,OK,4.0,    
179.00,20.467,37819.4,4330.4,5803.0,4.21,-0.83,-2.58,299.9,44.5,57.0,4.0,-29.8,0.0,n/a,OK,4.0,    
179.50,20.448,37792.8,4260.4,5803.4,4.21,-0.83,-2.69,299.9,42.6,58.0,4.0,-29.8,0.0,n/a,OK,4.0,    
180.00,20.430,37767.4,4189.9,5803.7,4.21,-0.83,-2.79,300.0,42.9,59.0,4.0,-29.8,0.0,n/a,OK,4.0,    
180.50,20.413,37743.2,4118.8,5804.1,4.19,-0.83,-2.89,299.9,42.0,59.9,4.0,-29.8,0.0,n/a,OK,4.0,    
181.00,20.396,37720.3,4047.3,5804.4,4.18,-0.82,-2.99,299.9,40.0,60.9,4.0,-29.8,0.0,n/a,OK,4.0,    
181.50,20.381,37698.7,3975.2,5804.7,4.18,-0.82,-3.10,300.0,33.1,61.9,4.0,-29.8,0.0,n/a,OK,4.0,    
182.00,20.366,37678.3,3902.6,5805.0,4.17,-0.82,-3.20,300.0,26.9,62.8,4.0,-29.8,0.0,n/a,OK,4.0,    
182.50,20.351,37659.2,3829.6,5805.2,4.17,-0.82,-3.31,300.0,21.3,63.8,4.0,-29.8,0.0,n/a,OK,4.0,    
183.00,20.338,37641.3,3756.2,5805.3,4.18,-0.82,-3.42,300.1,13.3,64.8,3.9,-29.8,0.0,n/a,OK,4.0,    
183.50,20.325,37624.8,3682.3,5805.4,4.17,-0.81,-3.53,300.1,9.5,65.7,3.9,-29.8,0.0,n/a,OK,4.0,    
184.00,20.313,37609.5,3608.1,5805.5,4.17,-0.81,-3.64,300.1,2.1,66.7,3.9,-29.8,0.0,n/a,OK,4.0,    
184.50,20.302,37595.6,3533.5,5805.5,4.18,-0.81,-3.75,300.2,-3.6,67.7,3.9,-29.8,0.0,n/a,OK,4.0,    
185.00,20.291,37582.9,3458.5,5805.4,4.18,-0.81,-3.86,300.2,-8.7,68.7,3.9,-29.8,0.0,n/a,OK,4.0,    
185.50,20.281,37571.6,3383.2,5805.3,4.19,-0.81,-3.97,300.2,-14.7,69.6,3.9,-29.8,0.0,n/a,OK,4.0,    
186.00,20.272,37561.6,3307.7,5805.2,4.18,-0.81,-4.09,300.3,-15.6,70.6,3.9,-29.8,0.0,n/a,OK,4.0,    
186.50,20.264,37552.9,3231.8,5805.1,4.19,-0.81,-4.20,300.3,-21.7,71.6,3.9,-29.8,0.0,n/a,OK,4.0,    
187.00,20.257,37545.5,3155.7,5804.9,4.20,-0.81,-4.32,300.3,-23.2,72.6,3.9,-29.8,0.0,n/a,OK,4.0,    
187.50,20.250,37539.5,3079.4,5804.7,4.20,-0.80,-4.43,300.4,-23.3,73.5,3.9,-29.8,0.0,n/a,OK,4.0,    
188.00,20.244,37534.8,3002.8,5804.5,4.20,-0.80,-4.55,300.5,-21.6,74.5,3.9,-29.8,0.0,n/a,OK,4.0,    
188.50,20.239,37531.5,2926.1,5804.3,4.21,-0.80,-4.66,300.5,-21.5,75.5,3.9,-29.8,0.0,n/a,OK,4.0,    
189.00,20.235,37529.5,2849.2,5804.1,4.20,-0.80,-4.78,300.5,-17.5,76.5,3.9,-29.8,0.0,n/a,OK,4.0,    
189.50,20.231,37528.9,2772.1,5804.0,4.21,-0.80,-4.90,300.6,-17.9,77.5,3.9,-29.8,0.0,n/a,OK,4.0,    
190.00,20.229,37529.6,2695.0,5803.9,4.21,-0.80,-5.01,300.7,-13.7,78.4,3.9,-29.8,0.0,n/a,OK,4.0,    
190.50,20.227,37531.7,2617.7,5803.8,4.21,-0.80,-5.13,300.7,-11.5,79.4,3.9,-29.8,0.0,n/a,OK,4.0,    
191.00,20.226,37535.2,2540.4,5803.7,4.22,-0.80,-5.25,300.8,-9.6,80.4,3.9,-29.8,0.0,n/a,OK,4.0,    
191.50,20.226,37540.0,2463.0,5803.6,4.23,-0.80,-5.37,300.9,-7.9,81.4,3.9,-29.8,0.0,n/a,OK,4.0,    
192.00,20.226,37546.2,2385.6,5803.6,4.21,-0.80,-5.49,301.0,0.4,82.4,4.0,-29.8,0.0,n/a,OK,4.0,    
192.50,20.228,37553.7,2308.2,5803.6,4.21,-0.80,-5.61,301.0,0.7,83.3,4.0,-29.8,0.0,n/a,OK,4.0,    
193.00,20.230,37562.6,2230.9,5803.6,4.21,-0.80,-5.72,301.1,4.4,84.3,4.0,-29.8,0.0,n/a,OK,4.0,    
193.50,20.233,37572.9,2153.5,5803.7,4.21,-0.80,-5.84,301.2,8.9,85.3,4.0,-29.8,0.0,n/a,OK,4.0,    
194.00,20.237,37584.5,2076.3,5803.7,4.21,-0.80,-5.96,301.2,8.5,86.3,4.0,-29.8,0.0,n/a,OK,4.0,    
194.50,20.242,37597.5,1999.1,5803.8,4.20,-0.80,-6.08,301.3,10.8,87.3,4.0,-29.8,0.0,n/a,OK,4.0,    
195.00,20.247,37611.9,1922.0,5803.9,4.20,-0.80,-6.20,301.4,10.3,88.2,4.0,-29.8,0.0,n/a,OK,4.0,    
195.50,20.254,37627.6,1845.1,5804.0,4.20,-0.81,-6.32,301.5,12.8,89.2,4.0,-29.8,0.0,n/a,OK,4.0,    
196.00,20.261,37644.7,1768.4,5804.1,4.21,-0.81,-6.44,301.6,9.7,90.2,4.0,-29.8,0.0,n/a,OK,4.0,    
196.50,20.269,37663.1,1691.8,5804.2,4.20,-0.81,-6.55,301.7,9.5,91.2,4.0,-29.8,0.0,n/a,OK,4.0,    
197.00,20.278,37682.8,1615.4,5804.3,4.20,-0.81,-6.67,301.8,10.2,92.1,4.0,-29.8,0.0,n/a,OK,4.0,    
197.50,20.288,37703.9,1539.3,5804.3,4.20,-0.81,-6.79,301.9,7.7,93.1,4.0,-29.8,0.0,n/a,OK,4.0,    
198.00,20.298,37726.3,1463.4,5804.4,4.19,-0.81,-6.90,302.0,9.9,94.1,3.9,-29.8,0.0,n/a,OK,4.0,    
198.50,20.309,37750.1,1387.8,5804.5,4.19,-0.81,-7.02,302.1,7.0,95.1,3.9,-29.8,0.0,n/a,OK,4.0,    
199.00,20.321,37775.1,1312.4,5804.5,4.19,-0.81,-7.14,302.2,4.7,96.0,3.9,-29.8,0.0,n/a,OK,4.0,    
199.50,20.334,37801.5,1237.4,5804.5,4.19,-0.82,-7.25,302.4,1.5,97.0,3.9,-29.8,0.0,n/a,OK,4.0,    
200.00,20.348,37829.3,1162.8,5804.5,4.20,-0.82,-7.37,302.5,-1.9,98.0,3.9,-29.8,0.0,n/a,OK,4.0,    
200.50,20.362,37858.3,1088.5,5804.5,4.19,-0.82,-7.48,302.6,1.1,99.0,3.9,-29.8,0.0,n/a,OK,4.0,    
201.00,20.378,37888.6,1014.6,5804.5,4.19,-0.82,-7.59,302.7,-0.8,99.9,3.9,-29.8,0.0,n/a,OK,4.0,    
201.50,20.394,37920.2,941.1,5804.5,4.19,-0.82,-7.71,302.8,-3.2,100.9,3.9,-29.8,0.0,n/a,OK,4.0,    
202.00,20.411,37953.1,868.0,5804.5,4.20,-0.83,-7.82,303.0,-6.6,101.9,3.9,-29.8,0.0,n/a,OK,4.0,    
202.50,20.428,37987.3,795.3,5804.4,4.20,-0.83,-7.93,303.1,-5.3,102.9,3.9,-29.8,0.0,n/a,OK,4.0,    
203.00,20.447,38022.7,723.2,5804.4,4.20,-0.83,-8.04,303.2,-6.2,103.9,3.9,-29.8,0.0,n/a,OK,4.0,    
203.50,20.466,38059.5,651.5,5804.3,4.20,-0.83,-8.15,303.4,-7.5,104.8,3.9,-29.8,0.0,n/a,OK,4.0,    
204.00,20.486,38097.4,580.4,5804.3,4.20,-0.84,-8.26,303.5,-6.5,105.8,3.9,-29.8,0.0,n/a,OK,4.0,    
204.50,20.506,38136.7,509.8,5804.2,4.20,-0.84,-8.36,303.6,-3.6,106.8,3.9,-29.8,0.0,n/a,OK,4.0,    
205.00,20.528,38177.1,439.8,5804.2,4.20,-0.84,-8.47,303.8,-4.4,107.8,3.9,-29.8,0.0,n/a,OK,4.0,    
205.50,20.550,38218.8,370.3,5804.2,4.20,-0.84,-8.57,303.9,-3.8,108.7,3.9,-29.8,0.0,n/a,OK,4.0,    
206.00,20.573,38261.8,301.4,5804.1,4.20,-0.85,-8.68,304.0,-3.4,109.7,3.9,-29.8,0.0,n/a,OK,4.0,    
206.50,20.596,38305.9,233.2,5804.1,4.20,-0.85,-8.78,304.1,-3.5,110.7,3.9,-29.8,0.0,n/a,OK,4.0,    
207.00,20.620,38351.2,165.6,5804.1,4.21,-0.85,-8.88,304.3,-3.6,111.7,3.9,-29.8,0.0,n/a,OK,4.0,    
207.50,20.645,38397.7,98.7,5804.1,4.21,-0.86,-8.98,304.4,-2.7,112.7,3.9,-29.8,0.0,n/a,OK,4.0,    
208.00,20.671,38445.4,32.5,5804.0,4.21,-0.86,-9.08,304.6,-0.1,113.6,3.9,-29.8,0.0,n/a,OK,4.0,    
208.50,20.698,38494.3,-33.1,5804.0,4.21,-0.86,-9.18,304.8,0.8,114.6,3.9,-29.8,0.0,n/a,OK,4.0,    
209.00,20.725,38544.3,-97.9,5804.1,4.21,-0.87,-9.28,304.9,0.4,115.6,3.9,-29.8,0.0,n/a,OK,4.0,    
209.50,20.752,38595.4,-162.0,5804.1,4.20,-0.87,-9.37,305.0,-0.6,116.6,3.9,-29.8,0.0,n/a,OK,4.0,    
210.00,20.781,38647.7,-225.3,5804.1,4.20,-0.87,-9.47,305.2,2.8,117.5,3.9,-29.8,0.0,n/a,OK,4.0,    
210.50,20.810,38701.1,-287.8,5804.1,4.20,-0.88,-9.56,305.4,2.3,118.5,3.9,-29.8,0.0,n/a,OK,4.0,    
211.00,20.839,38755.6,-349.5,5804.1,4.20,-0.88,-9.65,305.5,2.6,119.5,3.9,-29.8,0.0,n/a,OK,4.0,    
211.50,20.870,38811.1,-410.4,5804.2,4.20,-0.88,-9.74,305.6,4.1,120.5,3.9,-29.8,0.0,n/a,OK,4.0,    
212.00,20.901,38867.8,-470.5,5804.2,4.20,-0.89,-9.83,305.8,1.7,121.4,3.9,-29.8,0.0,n/a,OK,4.0,    
212.50,20.932,38925.5,-529.7,5804.2,4.19,-0.89,-9.91,306.0,2.4,122.4,3.9,-29.8,0.0,n/a,OK,4.0,    
213.00,20.965,38984.2,-588.0,5804.2,4.20,-0.90,-10.00,306.1,1.7,123.4,3.9,-29.8,0.0,n/a,OK,4.0,    
213.50,20.997,39044.0,-645.5,5804.3,4.19,-0.90,-10.08,306.3,2.9,124.4,3.9,-29.8,0.0,n/a,OK,4.0,    
214.00,21.031,39104.8,-702.0,5804.3,4.20,-0.90,-10.16,306.4,2.5,125.4,3.9,-29.8,0.0,n/a,OK,4.0,    
214.50,21.065,39166.5,-757.6,5804.3,4.19,-0.91,-10.24,306.6,1.9,126.3,3.9,-29.8,0.0,n/a,OK,4.0,    
215.00,21.099,39229.3,-812.3,5804.3,4.19,-0.91,-10.32,306.8,1.4,127.3,3.9,-29.8,0.0,n/a,OK,4.0,    
215.50,21.134,39293.0,-866.0,5804.3,4.19,-0.92,-10.40,306.9,2.0,128.3,3.9,-29.8,0.0,n/a,OK,4.0,    
216.00,21.170,39357.7,-918.7,5804.3,4.19,-0.92,-10.47,307.1,2.7,129.3,3.9,-29.8,0.0,n/a,OK,4.0,    
216.50,21.206,39423.3,-970.5,5804.3,4.19,-0.93,-10.54,307.3,-0.2,130.2,3.9,-29.8,0.0,n/a,OK,4.0,    
217.00,21.242,39489.8,-1021.2,5804.3,4.19,-0.93,-10.62,307.4,-0.4,131.2,3.9,-29.8,0.0,n/a,OK,4.0,    
217.50,21.279,39557.2,-1070.9,5804.3,4.19,-0.93,-10.69,307.6,-0.2,132.2,3.9,-29.8,0.0,n/a,OK,4.0,    
218.00,21.317,39625.5,-1119.6,5804.3,4.19,-0.94,-10.75,307.8,-1.1,133.2,3.9,-29.8,0.0,n/a,OK,4.0,    
218.50,21.355,39694.6,-1167.2,5804.3,4.19,-0.94,-10.82,307.9,0.1,134.1,3.9,-29.8,0.0,n/a,OK,4.0,    
219.00,21.394,39764.6,-1213.8,5804.3,4.20,-0.95,-10.88,308.1,-3.3,135.1,3.9,-29.8,0.0,n/a,OK,4.0,    
219.50,21.433,39835.4,-1259.2,5804.3,4.19,-0.95,-10.95,308.3,-2.2,136.1,3.9,-29.8,0.0,n/a,OK,4.0,    
220.00,21.472,39907.0,-1303.6,5804.2,4.19,-0.96,-11.01,308.4,-2.7,137.1,3.9,-29.8,0.0,n/a,OK,4.0,    
220.50,21.512,39979.4,-1346.9,5804.2,4.20,-0.96,-11.06,308.6,-1.5,138.1,3.9,-29.8,0.0,n/a,OK,4.0,    
221.00,21.552,40052.6,-1389.0,5804.2,4.20,-0.97,-11.12,308.8,-3.2,139.0,3.9,-29.8,0.0,n/a,OK,4.0,    
221.50,21.593,40126.5,-1430.1,5804.2,4.20,-0.97,-11.18,308.9,-2.5,140.0,3.9,-29.8,0.0,n/a,OK,4.0,    
222.00,21.634,40201.1,-1469.9,5804.2,4.19,-0.98,-11.23,309.1,0.6,141.0,3.9,-29.8,0.0,n/a,OK,4.0,    
222.50,21.675,40276.5,-1508.6,5804.2,4.19,-0.98,-11.28,309.3,0.9,142.0,3.9,-29.8,0.0,n/a,OK,4.0,    
223.00,21.717,40352.5,-1546.2,5804.2,4.19,-0.99,-11.33,309.4,-0.7,142.9,3.9,-29.8,0.0,n/a,OK,4.0,    
223.50,21.759,40429.2,-1582.5,5804.2,4.20,-0.99,-11.38,309.6,-1.6,143.9,3.9,-29.8,0.0,n/a,OK,4.0,    
224.00,21.802,40506.6,-1617.7,5804.2,4.20,-1.00,-11.42,309.8,-0.1,144.9,3.9,-29.8,0.0,n/a,OK,4.0,    
224.50,21.845,40584.6,-1651.6,5804.1,4.19,-1.00,-11.47,310.0,-0.3,145.9,3.9,-29.8,0.0,n/a,OK,4.0,    
225.00,21.888,40663.2,-1684.3,5804.1,4.20,-1.01,-11.51,310.1,-0.2,146.9,3.9,-29.8,0.0,n/a,OK,4.0,    
225.50,21.931,40742.4,-1715.8,5804.1,4.20,-1.01,-11.55,310.3,-0.1,147.8,3.9,-29.8,0.0,n/a,OK,4.0,    
226.00,21.975,40822.1,-1746.1,5804.2,4.20,-1.02,-11.59,310.4,0.6,148.8,3.9,-29.8,0.0,n/a,OK,4.0,    
226.50,22.019,40902.4,-1775.1,5804.2,4.20,-1.02,-11.62,310.6,-0.3,149.8,3.9,-29.8,0.0,n/a,OK,4.0,    
227.00,22.063,40983.3,-1802.9,5804.2,4.20,-1.03,-11.66,310.8,0.4,150.8,3.9,-29.8,0.0,n/a,OK,4.0,    
227.50,22.108,41064.6,-1829.4,5804.2,4.19,-1.03,-11.69,310.9,1.5,151.7,3.9,-29.8,0.0,n/a,OK,4.0,    
228.00,22.152,41146.4,-1854.6,5804.2,4.20,-1.04,-11.72,311.1,-0.5,152.7,3.9,-29.8,0.0,n/a,OK,4.0,    
228.50,22.197,41228.7,-1878.6,5804.2,4.19,-1.04,-11.75,311.3,2.7,153.7,3.9,-29.8,0.0,n/a,OK,4.0,    
229.00,22.243,41311.4,-1901.2,5804.2,4.20,-1.05,-11.77,311.5,-0.6,154.7,3.9,-29.8,0.0,n/a,OK,4.0,    
229.50,22.288,41394.5,-1922.6,5804.2,4.19,-1.05,-11.80,311.7,2.3,155.6,3.9,-29.8,0.0,n/a,OK,4.0,    
230.00,22.333,41478.0,-1942.7,5804.2,4.19,-1.06,-11.82,311.8,1.8,156.6,3.9,-29.8,0.0,n/a,OK,4.0,    
230.50,22.379,41561.9,-1961.4,5804.2,4.20,-1.06,-11.84,312.0,0.4,157.6,3.9,-29.8,0.0,n/a,OK,4.0,    
231.00,22.425,41646.1,-1978.9,5804.2,4.19,-1.07,-11.86,312.1,2.6,158.6,3.9,-29.8,0.0,n/a,OK,4.0,    
231.50,22.471,41730.7,-1995.0,5804.2,4.20,-1.07,-11.87,312.3,-1.4,159.6,3.9,-29.8,0.0,n/a,OK,4.0,    
232.00,22.517,41815.5,-2009.8,5804.2,4.19,-1.08,-11.89,312.5,-0.3,160.5,3.9,-29.8,0.0,n/a,OK,4.0,    
232.50,22.564,41900.7,-2023.3,5804.2,4.19,-1.08,-11.90,312.6,-0.2,161.5,3.9,-29.8,0.0,n/a,OK,4.0,    
233.00,22.610,41986.1,-2035.4,5804.2,4.19,-1.09,-11.91,312.8,-0.2,162.5,3.9,-29.8,0.0,n/a,OK,4.0,    
233.50,22.656,42071.7,-2046.2,5804.2,4.19,-1.09,-11.92,313.0,0.2,163.5,3.9,-29.8,0.0,n/a,OK,4.0,    
234.00,22.703,42157.6,-2055.7,5804.2,4.19,-1.10,-11.93,313.1,0.2,164.4,3.9,-29.8,0.0,n/a,OK,4.0,    
234.50,22.750,42243.6,-2063.8,5804.2,4.19,-1.10,-11.93,313.3,0.1,165.4,3.9,-29.8,0.0,n/a,OK,4.0,    
235.00,22.796,42329.8,-2070.5,5804.2,4.19,-1.10,-11.94,313.5,0.0,166.4,3.9,-29.8,0.0,n/a,OK,4.0,    
235.50,22.843,42416.2,-2076.0,5804.2,4.20,-1.11,-11.94,313.6,-1.0,167.4,3.9,-29.8,0.0,n/a,OK,4.0,    
236.00,22.890,42502.6,-2080.0,5804.2,4.19,-1.11,-11.94,313.8,0.4,168.4,3.9,-29.8,0.0,n/a,OK,4.0,    
236.50,22.936,42589.2,-2082.7,5804.2,4.20,-1.12,-11.94,313.9,-4.1,169.3,3.9,-29.8,0.0,n/a,OK,4.0,    
237.00,22.983,42675.8,-2084.0,5804.2,4.19,-1.12,-11.93,314.1,0.9,170.3,3.9,-29.8,0.0,n/a,OK,4.0,    
237.50,23.030,42762.5,-2084.0,5804.2,4.19,-1.13,-11.93,314.2,0.4,171.3,3.9,-29.8,0.0,n/a,OK,4.0,    
238.00,23.077,42849.2,-2082.6,5804.2,4.20,-1.13,-11.92,314.4,-3.0,172.3,3.9,-29.8,0.0,n/a,OK,4.0,    
238.50,23.123,42936.0,-2079.9,5804.2,4.20,-1.14,-11.91,314.5,0.6,173.2,3.9,-29.8,0.0,n/a,OK,4.0,    
239.00,23.170,43022.7,-2075.8,5804.2,4.20,-1.14,-11.90,314.7,0.3,174.2,3.9,-29.8,0.0,n/a,OK,4.0,    
239.50,23.217,43109.3,-2070.3,5804.2,4.20,-1.15,-11.89,314.8,-1.0,175.2,3.9,-29.8,0.0,n/a,OK,4.0,    
240.00,23.263,43195.9,-2063.5,5804.2,4.20,-1.15,-11.87,315.0,-0.0,176.2,3.9,-29.8,0.0,n/a,OK,4.0,    
240.50,23.310,43282.4,-2055.3,5804.2,4.19,-1.16,-11.86,315.2,0.1,177.2,3.9,-29.8,0.0,n/a,OK,4.0,    
241.00,23.356,43368.8,-2045.8,5804.2,4.20,-1.16,-11.84,315.2,0.3,178.1,3.9,-29.8,0.0,n/a,OK,4.0,    
241.50,23.402,43455.0,-2034.9,5804.2,4.20,-1.17,-11.82,315.4,0.1,179.1,3.9,-29.8,0.0,n/a,OK,4.0,    
242.00,23.448,43541.1,-2022.7,5804.2,4.20,-1.17,-11.80,315.6,0.0,179.9,3.9,-29.8,0.0,n/a,OK,4.0,    
242.50,23.494,43627.1,-2009.1,5804.2,4.20,-1.18,-11.77,315.7,-0.0,178.9,3.9,-29.8,0.0,n/a,OK,4.0,    
243.00,23.540,43712.8,-1994.2,5804.2,4.19,-1.18,-11.75,315.8,-0.0,178.0,3.9,-29.8,0.0,n/a,OK,4.0,    
243.50,23.586,43798.3,-1977.9,5804.2,4.19,-1.18,-11.72,316.0,-0.0,177.0,3.9,-29.8,0.0,n/a,OK,4.0,    
244.00,23.631,43883.5,-1960.3,5804.2,4.19,-1.19,-11.69,316.1,2.6,176.0,3.9,-29.8,0.0,n/a,OK,4.0,    
244.50,23.677,43968.5,-1941.3,5804.2,4.20,-1.19,-11.66,316.2,-0.5,175.0,3.9,-29.8,0.0,n/a,OK,4.0,    
245.00,23.722,44053.2,-1921.1,5804.2,4.20,-1.20,-11.63,316.3,-0.3,174.1,3.9,-29.8,0.0,n/a,OK,4.0,    
245.50,23.767,44137.5,-1899.5,5804.2,4.19,-1.20,-11.60,316.5,2.0,173.1,3.9,-29.8,0.0,n/a,OK,4.0,    
246.00,23.812,44221.5,-1876.6,5804.2,4.19,-1.21,-11.57,316.6,-0.9,172.1,3.9,-29.8,0.0,n/a,OK,4.0,    
246.50,23.856,44305.2,-1852.4,5804.2,4.19,-1.21,-11.53,316.7,-0.8,171.1,3.9,-29.8,0.0,n/a,OK,4.0,    
247.00,23.901,44388.4,-1826.8,5804.2,4.19,-1.22,-11.49,316.9,-0.4,170.1,3.9,-29.8,0.0,n/a,OK,4.0,    
247.50,23.945,44471.3,-1800.0,5804.2,4.19,-1.22,-11.45,317.0,0.9,169.2,3.9,-29.8,0.0,n/a,OK,4.0,    
248.00,23.989,44553.7,-1771.9,5804.2,4.19,-1.22,-11.41,317.1,0.2,168.2,3.9,-29.8,0.0,n/a,OK,4.0,    
248.50,24.032,44635.7,-1742.5,5804.2,4.19,-1.23,-11.37,317.2,0.2,167.2,3.9,-29.8,0.0,n/a,OK,4.0,    
249.00,24.076,44717.2,-1711.9,5804.2,4.20,-1.23,-11.33,317.3,-4.1,166.2,3.9,-29.8,0.0,n/a,OK,4.0,    
249.50,24.119,44798.2,-1679.9,5804.2,4.19,-1.24,-11.28,317.5,0.3,165.3,3.9,-29.8,0.0,n/a,OK,4.0,    
250.00,24.161,44878.7,-1646.7,5804.2,4.19,-1.24,-11.24,317.6,0.2,164.3,3.9,-29.8,0.0,n/a,OK,4.0,    
250.50,24.204,44958.7,-1612.3,5804.2,4.19,-1.24,-11.19,317.7,0.6,163.3,3.9,-29.8,0.0,n/a,OK,4.0,    
251.00,24.246,45038.1,-1576.6,5804.2,4.19,-1.25,-11.14,317.8,-2.8,162.3,3.9,-29.8,0.0,n/a,OK,4.0,    
251.50,24.288,45116.9,-1539.7,5804.2,4.19,-1.25,-11.09,317.9,1.0,161.4,3.9,-29.8,0.0,n/a,OK,4.0,    
252.00,24.329,45195.2,-1501.6,5804.2,4.19,-1.26,-11.04,317.9,0.4,160.4,3.9,-29.8,0.0,n/a,OK,4.0,    
252.50,24.371,45272.8,-1462.2,5804.2,4.19,-1.26,-10.99,318.1,0.2,159.4,3.9,-29.8,0.0,n/a,OK,4.0,    
253.00,24.411,45349.7,-1421.7,5804.2,4.19,-1.26,-10.93,318.2,0.0,158.4,3.9,-29.8,0.0,n/a,OK,4.0,    
253.50,24.452,45426.0,-1380.0,5804.2,4.19,-1.27,-10.88,318.3,-0.1,157.4,3.9,-29.8,0.0,n/a,OK,4.0,    
254.00,24.492,45501.6,-1337.1,5804.2,4.19,-1.27,-10.82,318.4,-0.1,156.5,3.9,-29.8,0.0,n/a,OK,4.0,    
254.50,24.532,45576.6,-1293.0,5804.2,4.19,-1.27,-10.76,318.4,-0.0,155.5,3.9,-29.8,0.0,n/a,OK,4.0,    
255.00,24.571,45650.8,-1247.8,5804.2,4.19,-1.28,-10.70,318.5,-0.0,154.5,3.9,-29.8,0.0,n/a,OK,4.0,    
255.50,24.610,45724.2,-1201.4,5804.2,4.19,-1.28,-10.64,318.6,1.4,153.5,3.9,-29.8,0.0,n/a,OK,4.0,    
256.00,24.649,45796.9,-1153.9,5804.2,4.19,-1.28,-10.58,318.7,-0.5,152.6,3.9,-29.8,0.0,n/a,OK,4.0,    
256.50,24.687,45868.8,-1105.3,5804.2,4.19,-1.29,-10.51,318.8,0.3,151.6,3.9,-29.8,0.0,n/a,OK,4.0,    
257.00,24.725,45939.9,-1055.6,5804.2,4.19,-1.29,-10.45,318.9,-0.2,150.6,3.9,-29.8,0.0,n/a,OK,4.0,    
257.50,24.762,46010.2,-1004.8,5804.2,4.19,-1.29,-10.39,318.9,1.1,149.6,3.9,-29.8,0.0,n/a,OK,4.0,    
258.00,24.799,46079.7,-953.0,5804.2,4.19,-1.30,-10.32,319.0,0.1,148.6,3.9,-29.8,0.0,n/a,OK,4.0,    
258.50,24.835,46148.3,-900.0,5804.2,4.19,-1.30,-10.25,319.1,-0.1,147.7,3.9,-29.8,0.0,n/a,OK,4.0,    
259.00,24.871,46216.0,-846.1,5804.2,4.19,-1.30,-10.18,319.1,-0.2,146.7,3.9,-29.8,0.0,n/a,OK,4.0,    
259.50,24.907,46282.8,-791.1,5804.3,4.18,-1.31,-10.11,319.2,3.7,145.7,3.9,-29.8,0.0,n/a,OK,4.0,    
260.00,24.942,46348.8,-735.1,5804.3,4.19,-1.31,-10.04,319.3,-0.8,144.7,3.9,-29.8,0.0,n/a,OK,4.0,    
260.50,24.976,46413.8,-678.1,5804.3,4.19,-1.31,-9.97,319.3,-0.8,143.8,3.9,-29.8,0.0,n/a,OK,4.0,    
261.00,25.011,46477.9,-620.1,5804.3,4.18,-1.32,-9.90,319.4,3.1,142.8,3.9,-29.9,0.0,n/a,OK,4.0,    
261.50,25.044,46541.0,-561.1,5804.3,4.18,-1.32,-9.82,319.4,-5.1,141.8,3.9,-30.4,0.0,n/a,OK,4.0,    
262.00,25.077,46603.1,-501.2,5804.2,4.18,-1.32,-9.75,319.5,-11.1,140.7,3.9,-31.2,0.0,n/a,OK,4.0,    
262.50,25.110,46664.2,-440.3,5804.0,4.23,-1.33,-9.67,319.6,-25.1,139.7,3.9,-31.2,0.0,n/a,OK,4.0,    
263.00,25.142,46724.2,-378.5,5803.9,4.24,-1.33,-9.60,319.6,-12.4,138.7,3.9,-30.8,0.0,n/a,OK,4.0,    
263.50,25.174,46783.2,-315.7,5803.8,4.23,-1.33,-9.52,319.7,-11.3,137.7,3.9,-30.8,0.0,n/a,OK,4.0,    
264.00,25.205,46841.1,-252.0,5803.7,4.24,-1.33,-9.44,319.7,-10.6,136.6,3.9,-30.8,0.0,n/a,OK,4.0,    
264.50,25.235,46897.8,-187.4,5803.6,4.24,-1.34,-9.36,319.7,-6.5,135.6,3.9,-30.9,0.0,n/a,OK,4.0,    
265.00,25.265,46953.5,-121.9,5803.6,4.25,-1.34,-9.28,319.8,-6.8,134.6,3.9,-30.9,0.0,n/a,OK,4.0,    
265.50,25.295,47008.0,-55.6,5803.5,4.25,-1.34,-9.20,319.8,-2.7,133.6,4.0,-30.9,0.0,n/a,OK,4.0,    
266.00,25.323,47061.4,11.6,5803.5,4.24,-1.34,-9.12,319.8,2.1,132.5,4.0,-30.9,0.0,n/a,OK,4.0,    
266.50,25.352,47113.6,79.5,5803.6,4.24,-1.35,-9.04,319.8,5.5,131.5,4.0,-30.9,0.0,n/a,OK,4.0,    
267.00,25.379,47164.6,148.3,5803.6,4.24,-1.35,-8.95,319.9,5.0,130.5,4.0,-30.9,0.0,n/a,OK,4.0,    
267.50,25.406,47214.5,217.9,5803.7,4.24,-1.35,-8.87,319.9,7.3,129.5,4.0,-30.9,0.0,n/a,OK,4.0,    
268.00,25.433,47263.1,288.2,5803.7,4.23,-1.35,-8.78,319.9,10.2,128.5,4.0,-30.9,0.0,n/a,OK,4.0,    
268.50,25.459,47310.5,359.2,5803.8,4.23,-1.35,-8.70,319.9,12.1,127.4,4.0,-30.9,0.0,n/a,OK,4.0,    
269.00,25.484,47356.7,431.0,5803.9,4.23,-1.36,-8.61,319.9,12.7,126.4,4.0,-30.9,0.0,n/a,OK,4.0,    
269.50,25.509,47401.7,503.4,5804.0,4.22,-1.36,-8.52,319.9,15.0,125.4,4.0,-30.9,0.0,n/a,OK,4.0,    
270.00,25.533,47445.3,576.5,5804.1,4.23,-1.36,-8.43,320.0,9.8,124.4,4.0,-30.9,0.0,n/a,OK,4.0,    
270.50,25.556,47487.8,650.2,5804.2,4.22,-1.36,-8.35,320.0,11.7,123.4,4.0,-30.9,0.0,n/a,OK,4.0,    
271.00,25.579,47528.9,724.6,5804.3,4.22,-1.36,-8.26,319.9,8.3,122.3,4.0,-30.9,0.0,n/a,OK,4.0,    
271.50,25.601,47568.8,799.5,5804.4,4.23,-1.37,-8.17,320.0,6.5,121.3,4.0,-30.9,0.0,n/a,OK,4.0,    
272.00,25.622,47607.3,875.1,5804.5,4.22,-1.37,-8.08,319.9,7.7,120.3,3.9,-30.9,0.0,n/a,OK,4.0,    
272.50,25.643,47644.6,951.1,5804.5,4.22,-1.37,-7.99,320.0,4.6,119.3,3.9,-30.9,0.0,n/a,OK,4.0,    
273.00,25.664,47680.6,1027.7,5804.5,4.22,-1.37,-7.90,319.9,3.9,118.3,3.9,-30.9,0.0,n/a,OK,4.0,    
273.50,25.683,47715.2,1104.9,5804.6,4.22,-1.37,-7.80,319.9,0.3,117.3,3.9,-30.9,0.0,n/a,OK,4.0,    
274.00,25.702,47748.5,1182.4,5804.6,4.22,-1.37,-7.71,319.9,-1.4,116.2,3.9,-30.9,0.0,n/a,OK,4.0,    
274.50,25.720,47780.4,1260.5,5804.5,4.22,-1.38,-7.62,319.9,-1.7,115.2,3.9,-30.9,0.0,n/a,OK,4.0,    
275.00,25.738,47811.0,1338.9,5804.5,4.22,-1.38,-7.53,319.8,-2.6,114.2,3.9,-30.9,0.0,n/a,OK,4.0,    
275.50,25.755,47840.3,1417.8,5804.5,4.23,-1.38,-7.43,319.8,-5.4,113.2,3.9,-30.9,0.0,n/a,OK,4.0,    
276.00,25.772,47868.1,1497.1,5804.5,4.23,-1.38,-7.34,319.8,-5.8,112.2,3.9,-30.9,0.0,n/a,OK,4.0,    
276.50,25.787,47894.7,1576.7,5804.4,4.23,-1.38,-7.24,319.8,-8.6,111.1,3.9,-30.9,0.0,n/a,OK,4.0,    
277.00,25.802,47919.8,1656.7,5804.3,4.23,-1.38,-7.15,319.7,-4.4,110.1,3.9,-30.9,0.0,n/a,OK,4.0,    
277.50,25.817,47943.5,1736.9,5804.3,4.23,-1.38,-7.05,319.7,-5.9,109.1,3.9,-30.9,0.0,n/a,OK,4.0,    
278.00,25.830,47965.9,1817.5,5804.3,4.23,-1.39,-6.96,319.6,-6.3,108.1,3.9,-30.9,0.0,n/a,OK,4.0,    
278.50,25.843,47986.8,1898.3,5804.2,4.22,-1.39,-6.86,319.6,-2.4,107.1,3.9,-30.9,0.0,n/a,OK,4.0,    
279.00,25.856,48006.4,1979.3,5804.2,4.22,-1.39,-6.77,319.5,-4.2,106.0,3.9,-30.9,0.0,n/a,OK,4.0,    
279.50,25.867,48024.6,2060.6,5804.1,4.24,-1.39,-6.67,319.5,-7.8,105.0,3.9,-30.9,0.0,n/a,OK,4.0,    
280.00,25.878,48041.3,2142.0,5804.1,4.23,-1.39,-6.57,319.4,-3.2,104.0,3.9,-30.9,0.0,n/a,OK,4.0,    
280.50,25.888,48056.6,2223.7,5804.1,4.23,-1.39,-6.48,319.3,-1.6,103.0,3.9,-30.9,0.0,n/a,OK,4.0,    
281.00,25.898,48070.6,2305.4,5804.1,4.23,-1.39,-6.38,319.3,-1.5,102.0,3.9,-30.9,0.0,n/a,OK,4.0,    
281.50,25.907,48083.1,2387.3,5804.0,4.23,-1.39,-6.28,319.2,-0.6,100.9,3.9,-30.9,0.0,n/a,OK,4.0,    
282.00,25.915,48094.2,2469.2,5804.0,4.23,-1.39,-6.19,319.2,1.6,99.9,4.0,-30.9,0.0,n/a,OK,4.0,    
282.50,25.923,48103.8,2551.2,5804.1,4.23,-1.39,-6.09,319.1,0.3,98.9,4.0,-30.9,-0.0,n/a,OK,4.0,    
283.00,25.929,48112.1,2633.2,5804.1,4.23,-1.39,-5.99,319.0,-0.3,97.9,4.0,-30.9,-0.0,n/a,OK,4.0,    
283.50,25.936,48118.9,2715.3,5804.1,4.23,-1.39,-5.90,319.0,-0.6,96.9,4.0,-30.9,-0.0,n/a,OK,4.0,    
284.00,25.941,48124.3,2797.3,5804.1,4.23,-1.39,-5.80,318.9,4.5,95.8,4.0,-30.9,-0.0,n/a,OK,4.0,    
284.50,25.946,48128.3,2879.3,5804.1,4.23,-1.39,-5.70,318.8,4.5,94.8,4.0,-30.9,-0.0,n/a,OK,4.0,    
285.00,25.950,48130.9,2961.2,5804.2,4.23,-1.40,-5.61,318.7,2.2,93.8,4.0,-30.9,-0.0,n/a,OK,4.0,    
285.50,25.953,48132.1,3043.0,5804.2,4.23,-1.40,-5.51,318.6,0.9,92.8,4.0,-30.9,-0.0,n/a,OK,4.0,    
286.00,25.956,48131.8,3124.8,5804.2,4.23,-1.40,-5.41,318.5,2.2,91.7,4.0,-30.9,-0.0,n/a,OK,4.0,    
286.50,25.958,48130.1,3206.3,5804.2,4.23,-1.40,-5.31,318.4,5.2,90.7,3.9,-30.9,-0.0,n/a,OK,4.0,    
287.00,25.959,48127.1,3287.7,5804.3,4.22,-1.40,-5.22,318.4,4.2,89.7,3.9,-30.9,-0.0,n/a,OK,4.0,    
287.50,25.960,48122.6,3369.0,5804.3,4.23,-1.40,-5.12,318.3,2.9,88.7,3.9,-30.9,-0.0,n/a,OK,4.0,    
288.00,25.960,48116.7,3450.0,5804.3,4.23,-1.40,-5.02,318.2,-0.7,87.7,3.9,-30.9,-0.0,n/a,OK,4.0,    
288.50,25.959,48109.4,3530.7,5804.3,4.23,-1.40,-4.93,318.1,0.8,86.7,3.9,-30.9,-0.0,n/a,OK,4.0,    
289.00,25.958,48100.7,3611.2,5804.3,4.23,-1.40,-4.83,317.9,-2.0,85.6,3.9,-30.9,-0.0,n/a,OK,4.0,    
289.50,25.955,48090.7,3691.4,5804.3,4.23,-1.40,-4.74,317.9,-0.6,84.6,3.9,-30.9,-0.0,n/a,OK,4.0,    
290.00,25.953,48079.2,3771.3,5804.3,4.22,-1.40,-4.64,317.8,-0.6,83.6,3.9,-30.9,-0.0,n/a,OK,4.0,    
290.50,25.949,48066.4,3850.9,5804.3,4.22,-1.40,-4.54,317.6,0.3,82.6,3.9,-30.9,-0.0,n/a,OK,4.0,    
291.00,25.945,48052.2,3930.1,5804.3,4.22,-1.39,-4.45,317.5,0.4,81.6,3.9,-30.9,-0.0,n/a,OK,4.0,    
291.50,25.940,48036.7,4008.9,5804.3,4.22,-1.39,-4.35,317.4,-1.8,80.5,3.9,-30.9,-0.0,n/a,OK,4.0,    
292.00,25.934,48019.8,4087.2,5804.3,4.23,-1.39,-4.26,317.3,-2.2,79.5,3.9,-30.9,-0.0,n/a,OK,4.0,    
292.50,25.928,48001.5,4165.2,5804.3,4.22,-1.39,-4.16,317.2,-0.7,78.5,3.9,-30.9,-0.0,n/a,OK,4.0,    
293.00,25.921,47981.9,4242.7,5804.3,4.22,-1.39,-4.07,317.0,1.1,77.5,3.9,-30.9,-0.0,n/a,OK,4.0,    
293.50,25.914,47961.0,4319.7,5804.3,4.23,-1.39,-3.98,316.9,-1.7,76.5,3.9,-30.9,-0.0,n/a,OK,4.0,    
294.00,25.906,47938.7,4396.2,5804.2,4.23,-1.39,-3.88,316.8,-2.7,75.4,3.9,-30.9,-0.0,n/a,OK,4.0,    
294.50,25.897,47915.1,4472.1,5804.2,4.23,-1.39,-3.79,316.7,-2.8,74.4,3.9,-30.9,-0.0,n/a,OK,4.0,    
295.00,25.887,47890.3,4547.5,5804.2,4.23,-1.39,-3.70,316.5,-1.4,73.4,3.9,-30.9,-0.0,n/a,OK,4.0,    
295.50,25.877,47864.1,4622.3,5804.2,4.23,-1.39,-3.61,316.4,-3.0,72.4,3.9,-30.9,-0.0,n/a,OK,4.0,    
296.00,25.866,47836.6,4696.6,5804.2,4.22,-1.39,-3.51,316.3,0.2,71.4,3.9,-30.9,-0.0,n/a,OK,4.0,    
296.50,25.855,47807.9,4770.2,5804.2,4.23,-1.39,-3.42,316.1,-2.2,70.3,3.9,-30.9,-0.0,n/a,OK,4.0,    
297.00,25.842,47777.9,4843.1,5804.2,4.22,-1.39,-3.33,316.0,1.5,69.3,3.9,-31.1,-0.0,n/a,OK,4.0,    
297.50,25.830,47746.6,4915.4,5804.1,4.21,-1.39,-3.24,315.8,-8.7,68.2,3.9,-32.2,-0.0,n/a,OK,4.0,    
298.00,25.816,47714.1,4986.9,5804.0,4.22,-1.38,-3.15,315.7,-22.8,67.1,3.8,-33.5,-0.0,n/a,OK,4.0,    
298.50,25.802,47680.2,5057.7,5803.7,4.25,-1.38,-3.07,315.5,-42.6,65.9,3.8,-34.6,-0.0,n/a,OK,4.0,    
299.00,25.787,47644.9,5127.6,5803.3,4.35,-1.38,-2.98,315.3,-55.3,64.7,3.9,-34.2,-0.0,n/a,OK,4.0,    
299.50,25.771,47608.3,5196.7,5802.9,4.37,-1.38,-2.89,315.2,-44.7,63.6,3.9,-33.7,-0.0,n/a,OK,4.0,    
300.00,25.755,47570.4,5264.9,5802.5,4.37,-1.38,-2.81,315.0,-40.0,62.4,3.9,-33.7,-0.0,n/a,OK,4.0,    
300.50,25.738,47531.2,5332.2,5802.2,4.38,-1.38,-2.72,314.8,-33.4,61.2,3.9,-33.8,-0.0,n/a,OK,4.0,    
301.00,25.720,47490.7,5398.5,5802.0,4.38,-1.38,-2.64,314.6,-24.3,60.1,4.0,-33.8,-0.0,n/a,OK,4.0,    
