#Time,Rho,X,Z,Alt,AoA,GSE,LUE,Vtot,Vy,Gamma,Pitch,Roll,Yaw,Step,Grade,Points,Details
0.00,39.914,59168.0,44536.3,7726.5,0.97,-1.68,27.87,586.9,-6259.7,160.1,-5.3,36.6,0.0,n/a,OK,4.0,    
0.50,39.997,59304.1,44610.9,7673.6,0.97,-1.69,27.86,586.6,-6430.9,160.7,-5.5,36.4,0.0,n/a,OK,4.0,    
1.00,40.080,59440.8,44684.2,7619.4,0.97,-1.71,27.84,586.3,-6600.9,161.3,-5.6,36.2,0.0,n/a,OK,4.0,    
1.50,40.162,59578.0,44756.2,7563.7,0.97,-1.73,27.82,586.1,-6769.2,161.8,-5.8,36.0,0.0,n/a,OK,4.0,    
2.00,40.245,59715.9,44826.9,7506.6,0.96,-1.74,27.80,585.8,-6933.6,162.3,-6.0,35.7,0.0,n/a,OK,4.0,    
2.50,40.327,59854.3,44896.2,7448.2,0.96,-1.76,27.78,585.7,-7098.2,162.9,-6.1,35.5,0.0,n/a,OK,4.0,    
3.00,40.409,59993.4,44964.3,7388.5,1.06,-1.78,27.76,585.5,-7182.2,163.5,-6.1,35.3,0.0,n/a,OK,4.0,    
3.50,40.491,60133.1,45030.8,7328.7,1.13,-1.80,27.73,585.3,-7163.1,164.3,-6.1,35.1,0.0,n/a,OK,4.0,    
4.00,40.573,60273.6,45095.7,7269.8,1.48,-1.81,27.71,585.0,-6865.0,165.3,-5.5,34.8,0.0,n/a,OK,4.0,    
4.50,40.654,60415.4,45158.0,7215.7,1.69,-1.83,27.68,584.6,-6097.4,166.6,-4.5,34.4,0.0,n/a,OK,4.0,    
5.00,40.735,60558.4,45217.7,7167.8,1.84,-1.84,27.65,583.9,-5321.8,167.8,-3.7,34.0,0.0,n/a,OK,4.0,    
5.50,40.816,60702.6,45274.8,7126.6,1.64,-1.86,27.62,583.0,-4615.5,168.8,-3.1,33.7,0.0,n/a,OK,4.0,    
6.00,40.896,60847.4,45329.7,7089.3,1.49,-1.87,27.59,582.3,-4359.7,169.4,-3.0,33.4,0.0,n/a,OK,4.0,    
6.50,40.977,60992.9,45382.8,7053.8,1.39,-1.88,27.56,581.6,-4179.0,170.1,-2.9,33.1,0.0,n/a,OK,4.0,    
7.00,41.056,61138.8,45434.2,7019.3,1.35,-1.89,27.52,581.1,-4090.2,170.8,-2.9,32.9,0.0,n/a,OK,4.0,    
7.50,41.136,61285.2,45483.7,6985.8,1.32,-1.90,27.49,580.5,-3946.3,171.4,-2.7,32.7,0.0,n/a,OK,4.0,    
8.00,41.215,61432.1,45531.6,6953.3,1.18,-1.91,27.45,580.0,-3882.9,172.0,-2.8,32.4,0.0,n/a,OK,4.0,    
8.50,41.294,61579.4,45578.0,6920.6,1.11,-1.92,27.41,579.5,-3971.8,172.5,-2.9,32.2,0.0,n/a,OK,4.0,    
9.00,41.372,61726.9,45623.1,6887.1,1.07,-1.93,27.37,579.0,-4086.1,173.0,-3.1,32.0,0.0,n/a,OK,4.0,    
9.50,41.450,61874.7,45666.8,6852.5,1.03,-1.94,27.33,578.6,-4200.1,173.5,-3.2,31.8,0.0,n/a,OK,4.0,    
10.00,41.528,62022.8,45709.3,6817.1,1.00,-1.95,27.29,578.3,-4310.1,174.0,-3.4,31.6,0.0,n/a,OK,4.0,    
10.50,41.606,62171.1,45750.4,6780.8,0.98,-1.96,27.25,577.9,-4413.6,174.5,-3.5,31.4,0.0,n/a,OK,4.0,    
11.00,41.683,62319.7,45790.3,6743.6,0.96,-1.98,27.21,577.5,-4520.2,175.0,-3.6,31.2,0.0,n/a,OK,4.0,    
11.50,41.760,62468.5,45829.0,6705.5,0.95,-1.99,27.17,577.2,-4629.7,175.4,-3.7,31.0,0.0,n/a,OK,4.0,    
12.00,41.837,62617.5,45866.4,6666.4,0.94,-2.00,27.13,576.9,-4745.6,175.9,-3.9,30.8,0.0,n/a,OK,4.0,    
12.50,41.914,62766.8,45902.6,6626.4,0.93,-2.01,27.08,576.7,-4859.5,176.4,-4.0,30.6,0.0,n/a,OK,4.0,    
13.00,41.990,62916.3,45937.5,6585.4,0.92,-2.02,27.04,576.4,-4975.5,176.9,-4.1,30.4,0.0,n/a,OK,4.0,    
13.50,42.066,63065.9,45971.3,6543.5,0.92,-2.03,26.99,576.2,-5089.2,177.4,-4.2,30.2,0.0,n/a,OK,4.0,    
14.00,42.142,63215.8,46003.8,6500.6,0.92,-2.05,26.95,576.1,-5209.6,177.8,-4.3,30.0,0.0,n/a,OK,4.0,    
14.50,42.217,63365.9,46035.2,6456.7,0.92,-2.06,26.90,575.9,-5325.0,178.3,-4.5,29.8,0.0,n/a,OK,4.0,    
15.00,42.292,63516.1,46065.3,6411.9,0.92,-2.07,26.85,575.8,-5440.0,178.8,-4.6,29.6,0.0,n/a,OK,4.0,    
15.50,42.367,63666.6,46094.3,6366.1,0.93,-2.08,26.81,575.7,-5557.7,179.2,-4.7,29.4,0.0,n/a,OK,4.0,    
16.00,42.442,63817.2,46122.1,6319.3,0.92,-2.10,26.76,575.6,-5670.4,179.7,-4.8,29.3,0.0,n/a,OK,4.0,    
16.50,42.516,63968.0,46148.8,6271.6,0.91,-2.11,26.71,575.5,-5794.0,179.8,-4.9,32.9,0.0,n/a,OK,4.0,    
17.00,42.590,64118.9,46174.1,6222.6,0.81,-2.12,26.66,575.5,-6002.2,179.2,-5.3,43.5,0.0,n/a,OK,4.0,    
17.50,42.664,64270.1,46197.6,6171.4,0.82,-2.14,26.61,575.4,-6283.7,178.3,-5.6,50.7,0.0,n/a,OK,4.0,    
18.00,42.737,64421.5,46219.0,6118.4,0.98,-2.15,26.56,575.3,-6405.2,177.2,-5.6,50.2,0.0,n/a,OK,4.0,    
18.50,42.810,64573.3,46237.9,6064.5,0.93,-2.17,26.51,575.3,-6590.8,176.4,-5.8,53.3,0.0,n/a,OK,4.0,    
19.00,42.881,64725.2,46254.7,6008.6,1.43,-2.18,26.45,575.2,-6736.6,174.8,-5.8,55.4,0.0,n/a,OK,4.0,    
19.50,42.952,64877.5,46267.3,5954.2,1.62,-2.19,26.40,574.8,-6293.1,172.6,-5.2,56.6,0.0,n/a,OK,4.0,    
20.00,43.022,65030.1,46275.0,5902.4,1.58,-2.21,26.34,574.4,-6158.8,170.8,-5.2,62.6,0.0,n/a,OK,4.0,    
20.50,43.090,65182.8,46278.1,5851.1,1.65,-2.22,26.27,573.7,-6200.9,168.7,-5.4,68.6,0.0,n/a,OK,4.0,    
21.00,43.156,65335.3,46275.9,5798.7,1.80,-2.23,26.21,573.0,-6377.4,166.3,-5.6,72.6,0.0,n/a,OK,4.0,    
21.50,43.221,65487.3,46267.9,5744.7,2.06,-2.25,26.14,572.4,-6585.4,163.6,-5.8,74.1,0.0,n/a,OK,4.0,    
22.00,43.283,65638.6,46253.3,5689.2,2.24,-2.26,26.07,571.6,-6738.0,160.6,-5.9,75.0,0.0,n/a,OK,4.0,    
22.50,43.343,65788.8,46231.9,5632.0,2.32,-2.28,26.00,570.8,-7032.0,157.9,-6.3,77.3,0.0,n/a,OK,4.0,    
23.00,43.399,65937.5,46203.7,5572.3,2.76,-2.29,25.92,569.8,-7248.2,154.4,-6.5,75.9,0.0,n/a,OK,4.0,    
23.50,43.453,66084.0,46167.2,5512.1,2.89,-2.31,25.84,568.7,-7151.6,150.8,-6.2,70.5,0.0,n/a,OK,4.0,    
24.00,43.503,66227.9,46122.7,5453.9,2.94,-2.32,25.75,567.5,-6785.9,147.7,-5.6,66.6,0.0,n/a,OK,4.0,    
24.50,43.549,66369.1,46071.0,5399.0,2.92,-2.33,25.67,566.1,-6395.5,144.7,-5.2,66.3,0.0,n/a,OK,4.0,    
25.00,43.593,66507.1,46012.5,5346.9,2.81,-2.34,25.58,564.9,-6100.6,141.9,-5.0,66.4,0.0,n/a,OK,4.0,    
25.50,43.633,66642.0,45947.6,5297.0,2.58,-2.36,25.48,563.9,-5892.3,139.4,-4.8,66.6,0.0,n/a,OK,4.0,    
26.00,43.669,66773.6,45877.0,5248.5,2.69,-2.37,25.39,563.1,-5720.0,136.7,-4.6,66.0,0.0,n/a,OK,4.0,    
26.50,43.703,66901.4,45800.3,5202.4,2.75,-2.38,25.30,562.1,-5286.1,133.7,-4.1,62.5,0.0,n/a,OK,4.0,    
27.00,43.733,67025.1,45717.7,5160.4,2.64,-2.39,25.20,561.1,-4768.9,131.2,-3.4,60.1,0.0,n/a,OK,4.0,    
27.50,43.759,67144.8,45630.0,5122.7,2.48,-2.40,25.10,560.1,-4301.2,128.9,-3.0,59.9,0.0,n/a,OK,4.0,    
28.00,43.783,67260.7,45537.7,5088.3,2.44,-2.41,25.00,559.2,-3946.6,126.7,-2.7,59.9,0.0,n/a,OK,4.0,    
28.50,43.804,67372.5,45441.1,5057.3,2.55,-2.41,24.90,558.2,-3425.6,124.1,-2.1,57.3,0.0,n/a,OK,4.0,    
29.00,43.821,67479.8,45340.0,5031.7,2.44,-2.42,24.80,557.1,-2671.1,121.9,-1.2,50.9,0.0,n/a,OK,4.0,    
29.50,43.836,67583.3,45235.4,5012.2,2.18,-2.42,24.69,556.1,-2035.4,120.5,-0.6,48.8,0.0,n/a,OK,4.0,    
30.00,43.849,67683.6,45128.1,4997.1,1.99,-2.43,24.59,555.2,-1608.5,119.0,-0.3,50.3,0.0,n/a,OK,4.0,    
30.50,43.860,67780.6,45018.4,4984.8,1.90,-2.43,24.49,554.4,-1324.3,117.4,-0.1,51.9,0.0,n/a,OK,4.0,    
31.00,43.868,67874.3,44906.2,4974.9,1.68,-2.43,24.39,553.6,-1070.8,115.9,0.1,53.2,0.0,n/a,OK,4.0,    
31.50,43.875,67964.8,44791.8,4966.2,1.61,-2.43,24.29,552.9,-1043.7,114.5,0.0,56.9,0.0,n/a,OK,4.0,    
32.00,43.880,68051.8,44675.2,4958.2,1.69,-2.44,24.18,552.0,-833.8,112.5,0.2,57.2,0.0,n/a,OK,4.0,    
32.50,43.882,68134.9,44556.2,4951.9,1.68,-2.44,24.08,551.1,-696.6,110.9,0.4,56.7,0.0,n/a,OK,4.0,    
33.00,43.882,68214.5,44435.2,4946.7,1.70,-2.44,23.98,550.2,-530.9,109.2,0.6,56.4,0.0,n/a,OK,4.0,    
33.50,43.880,68290.4,44312.4,4943.0,1.74,-2.44,23.88,549.3,-356.2,107.5,0.8,56.4,0.0,n/a,OK,4.0,    
34.00,43.876,68362.4,44187.7,4940.8,1.74,-2.44,23.78,548.4,-168.2,105.7,0.9,56.8,0.0,n/a,OK,4.0,    
34.50,43.870,68430.5,44061.2,4940.1,1.82,-2.44,23.67,547.4,33.1,103.9,1.2,57.0,0.0,n/a,OK,4.0,    
35.00,43.861,68494.1,43932.9,4941.9,2.20,-2.44,23.57,546.2,483.0,101.4,1.8,56.6,0.0,n/a,OK,4.0,    
35.50,43.850,68552.1,43802.7,4948.7,2.16,-2.44,23.48,544.8,1144.0,99.0,2.5,56.2,0.0,n/a,OK,4.0,    
36.00,43.835,68604.8,43670.8,4959.9,1.84,-2.43,23.38,543.5,1498.0,97.3,2.7,57.0,0.0,n/a,OK,4.0,    
36.50,43.819,68653.4,43537.9,4972.8,1.81,-2.43,23.28,542.3,1591.3,95.7,2.7,58.3,0.0,n/a,OK,4.0,    
37.00,43.801,68698.1,43404.1,4986.1,1.59,-2.43,23.18,541.3,1554.4,94.2,2.5,60.3,0.0,n/a,OK,4.0,    
37.50,43.780,68739.1,43269.6,4998.3,1.59,-2.42,23.09,540.5,1361.9,92.7,2.3,62.4,0.0,n/a,OK,4.0,    
38.00,43.758,68776.2,43134.2,5009.0,1.43,-2.42,22.99,539.7,1176.4,91.2,2.1,65.4,0.0,n/a,OK,4.0,    
38.50,43.735,68809.6,42998.3,5017.4,1.42,-2.42,22.90,539.0,824.1,89.7,1.6,68.5,-0.0,n/a,OK,4.0,    
39.00,43.709,68839.0,42861.8,5023.1,1.47,-2.42,22.81,538.3,530.7,87.8,1.3,69.4,-0.0,n/a,OK,4.0,    
39.50,43.682,68864.2,42724.8,5026.3,1.53,-2.42,22.71,537.7,222.1,86.1,1.0,69.6,-0.0,n/a,OK,4.0,    
40.00,43.652,68885.2,42587.4,5026.9,1.59,-2.42,22.62,537.1,-67.2,84.3,0.7,69.6,-0.0,n/a,OK,4.0,    
40.50,43.621,68901.9,42449.7,5025.2,1.66,-2.41,22.53,536.5,-355.2,82.4,0.4,69.8,-0.0,n/a,OK,4.0,    
41.00,43.587,68913.9,42311.9,5021.4,1.92,-2.41,22.45,536.0,-533.5,80.1,0.3,68.6,-0.0,n/a,OK,4.0,    
41.50,43.551,68920.4,42174.2,5017.1,2.10,-2.41,22.36,535.3,-448.4,77.6,0.5,63.6,0.0,n/a,OK,4.0,    
42.00,43.513,68921.2,42036.7,5014.2,2.06,-2.41,22.28,534.5,-241.5,75.5,0.9,60.4,0.0,n/a,OK,4.0,    
42.50,43.472,68917.2,41899.6,5013.1,2.09,-2.41,22.20,533.8,4.5,73.6,1.2,57.9,0.0,n/a,OK,4.0,    
43.00,43.430,68908.4,41763.2,5014.3,2.05,-2.41,22.12,533.0,274.3,71.8,1.5,55.3,0.0,n/a,OK,4.0,    
43.50,43.386,68895.3,41627.5,5017.6,1.86,-2.41,22.04,532.4,506.3,70.2,1.7,55.0,0.0,n/a,OK,4.0,    
44.00,43.340,68878.2,41492.6,5022.3,1.62,-2.41,21.96,531.9,616.7,68.8,1.7,54.4,0.0,n/a,OK,4.0,    
44.50,43.294,68858.0,41358.4,5026.7,1.31,-2.41,21.89,531.6,376.9,68.1,1.3,55.0,0.0,n/a,OK,4.0,    
45.00,43.246,68835.3,41224.7,5028.9,1.27,-2.40,21.81,531.4,134.6,67.0,1.0,58.2,-0.0,n/a,OK,4.0,    
45.50,43.197,68809.6,41091.7,5029.0,1.53,-2.40,21.74,531.2,-44.1,65.3,0.9,58.8,-0.0,n/a,OK,4.0,    
46.00,43.147,68779.8,40959.9,5029.2,1.55,-2.40,21.67,530.8,83.3,63.4,1.2,57.9,-0.0,n/a,OK,4.0,    
46.50,43.095,68746.0,40829.3,5030.1,1.67,-2.40,21.60,530.4,161.4,61.7,1.3,56.9,-0.0,n/a,OK,4.0,    
47.00,43.042,68708.4,40700.0,5032.4,1.56,-2.40,21.54,530.0,360.1,60.1,1.4,54.6,-0.0,n/a,OK,4.0,    
47.50,42.988,68667.9,40571.9,5034.2,1.10,-2.40,21.47,529.8,-18.3,59.8,0.8,54.4,-0.0,n/a,OK,4.0,    
48.00,42.933,68626.1,40444.2,5032.2,1.14,-2.40,21.41,529.8,-433.3,59.0,0.3,54.5,-0.0,n/a,OK,4.0,    
48.50,42.878,68582.4,40317.3,5027.2,1.15,-2.40,21.35,529.9,-794.2,58.1,-0.0,54.5,-0.0,n/a,OK,4.0,    
49.00,42.822,68535.8,40191.5,5020.5,1.50,-2.40,21.29,529.8,-699.9,56.2,0.4,54.5,-0.0,n/a,OK,4.0,    
49.50,42.765,68485.5,40067.3,5015.2,1.29,-2.40,21.23,529.7,-631.0,54.8,0.3,54.2,-0.0,n/a,OK,4.0,    
50.00,42.706,68432.3,39944.6,5009.8,1.42,-2.39,21.17,529.6,-637.0,53.5,0.3,53.9,-0.0,n/a,OK,4.0,    
50.50,42.647,68376.3,39823.2,5004.6,1.47,-2.39,21.11,529.5,-630.8,52.1,0.4,52.8,-0.0,n/a,OK,4.0,    
51.00,42.587,68317.5,39703.4,4999.6,1.55,-2.39,21.06,529.3,-529.8,50.6,0.5,54.8,-0.0,n/a,OK,4.0,    
51.50,42.526,68255.5,39585.4,4994.9,1.31,-2.39,21.01,529.3,-684.8,49.4,0.2,58.0,-0.0,n/a,OK,4.0,    
52.00,42.465,68191.0,39468.9,4988.5,1.39,-2.39,20.96,529.2,-826.5,47.9,0.0,58.6,-0.0,n/a,OK,4.0,    
52.50,42.402,68123.5,39354.3,4981.2,1.52,-2.39,20.91,529.2,-929.4,46.4,0.0,57.0,-0.0,n/a,OK,4.0,    
53.00,42.339,68053.0,39241.6,4973.8,1.61,-2.39,20.87,529.2,-813.4,44.8,0.2,54.4,-0.0,n/a,OK,4.0,    
53.50,42.274,67979.5,39131.1,4967.3,1.63,-2.39,20.82,529.1,-743.6,43.4,0.3,53.2,-0.0,n/a,OK,4.0,    
54.00,42.209,67903.2,39022.7,4961.6,1.67,-2.39,20.78,529.0,-619.0,41.8,0.5,54.4,-0.0,n/a,OK,4.0,    
54.50,42.144,67823.9,38916.6,4956.8,1.69,-2.39,20.74,528.9,-527.5,40.2,0.6,56.4,-0.0,n/a,OK,4.0,    
55.00,42.077,67741.6,38813.0,4952.8,1.73,-2.39,20.71,528.8,-426.5,38.4,0.7,58.0,-0.0,n/a,OK,4.0,    
55.50,42.010,67656.1,38712.4,4949.8,1.80,-2.39,20.67,528.6,-271.1,36.5,0.8,56.9,-0.0,n/a,OK,4.0,    
56.00,41.942,67567.4,38614.7,4948.3,1.85,-2.39,20.64,528.3,-72.8,34.8,1.1,54.0,-0.0,n/a,OK,4.0,    
56.50,41.874,67476.0,38519.9,4948.7,1.85,-2.39,20.62,528.1,182.5,33.2,1.4,50.5,-0.0,n/a,OK,4.0,    
57.00,41.806,67382.1,38427.7,4951.3,1.79,-2.38,20.59,527.8,448.9,31.9,1.7,46.9,-0.0,n/a,OK,4.0,    
57.50,41.737,67286.2,38338.0,4956.2,1.71,-2.38,20.57,527.6,730.3,30.8,2.0,43.4,-0.0,n/a,OK,4.0,    
58.00,41.667,67188.4,38250.5,4963.1,1.49,-2.38,20.55,527.4,905.7,30.0,2.1,40.0,-0.0,n/a,OK,4.0,    
58.50,41.598,67089.3,38164.6,4970.9,1.44,-2.37,20.53,527.3,982.4,29.2,2.2,37.0,-0.0,n/a,OK,4.0,    
59.00,41.528,66988.9,38080.4,4979.6,1.32,-2.37,20.51,527.2,1096.4,28.5,2.3,34.4,-0.0,n/a,OK,4.0,    
59.50,41.458,66887.4,37997.7,4989.0,1.26,-2.37,20.50,527.0,1177.1,27.9,2.3,32.1,-0.0,n/a,OK,4.0,    
60.00,41.389,66784.9,37916.4,4999.2,1.19,-2.36,20.48,526.9,1255.4,27.3,2.4,30.1,-0.0,n/a,OK,4.0,    
60.50,41.319,66681.5,37836.3,5009.9,1.15,-2.36,20.47,526.7,1315.1,26.8,2.4,28.3,-0.0,n/a,OK,4.0,    
61.00,41.249,66577.3,37757.5,5021.1,1.10,-2.35,20.46,526.6,1362.9,26.3,2.5,26.7,-0.0,n/a,OK,4.0,    
61.50,41.179,66472.4,37679.6,5032.6,1.07,-2.35,20.44,526.5,1401.6,25.8,2.5,25.2,-0.0,n/a,OK,4.0,    
62.00,41.109,66366.8,37602.8,5044.4,1.04,-2.34,20.43,526.3,1431.7,25.4,2.5,23.8,-0.0,n/a,OK,4.0,    
62.50,41.039,66260.7,37526.9,5056.4,1.02,-2.34,20.42,526.1,1456.3,24.9,2.5,22.5,-0.0,n/a,OK,4.0,    
63.00,40.969,66154.0,37451.9,5068.6,1.00,-2.33,20.41,526.0,1472.0,24.6,2.5,21.4,-0.0,n/a,OK,4.0,    
63.50,40.898,66046.8,37377.7,5081.0,0.99,-2.33,20.40,525.8,1483.3,24.2,2.5,20.3,-0.0,n/a,OK,4.0,    
64.00,40.828,65939.2,37304.3,5093.3,0.99,-2.32,20.40,525.7,1485.4,23.9,2.5,19.3,-0.0,n/a,OK,4.0,    
64.50,40.758,65831.1,37231.6,5105.8,0.97,-2.32,20.39,525.5,1497.8,23.5,2.5,18.3,-0.0,n/a,OK,4.0,    
65.00,40.688,65722.9,37159.8,5118.2,0.98,-2.32,20.38,522.6,1488.8,23.2,2.5,17.4,-0.0,n/a,OK,4.0,    
65.50,40.619,65615.3,37089.2,5130.6,0.99,-2.31,20.38,517.0,1488.0,22.9,2.6,16.6,-0.0,n/a,OK,4.0,    
66.00,40.550,65508.3,37020.0,5143.0,1.00,-2.31,20.37,512.7,1487.5,22.6,2.6,15.7,-0.0,n/a,OK,4.0,    
66.50,40.482,65401.9,36951.8,5155.4,1.01,-2.30,20.36,509.2,1484.5,22.3,2.6,14.9,-0.0,n/a,OK,4.0,    
67.00,40.414,65295.9,36884.7,5167.7,1.01,-2.30,20.36,505.8,1477.5,22.1,2.6,14.1,-0.0,n/a,OK,4.0,    
67.50,40.347,65190.3,36818.5,5180.0,1.02,-2.29,20.36,502.3,1463.2,21.8,2.6,13.4,-0.0,n/a,OK,4.0,    
68.00,40.280,65085.2,36753.4,5192.1,1.02,-2.29,20.35,498.1,1437.0,21.6,2.6,12.7,-0.0,n/a,OK,4.0,    
68.50,40.214,64980.9,36689.3,5203.9,1.03,-2.28,20.35,493.8,1401.8,21.4,2.6,12.1,-0.0,n/a,OK,4.0,    
69.00,40.149,64877.1,36626.1,5215.5,1.05,-2.28,20.34,489.9,1367.2,21.2,2.6,11.5,-0.0,n/a,OK,4.0,    
69.50,40.084,64774.1,36563.9,5226.7,1.06,-2.27,20.34,486.0,1319.8,21.0,2.6,11.0,-0.0,n/a,OK,4.0,    
70.00,40.019,64671.6,36502.6,5237.5,1.08,-2.27,20.34,482.2,1273.9,20.8,2.5,10.4,-0.0,n/a,OK,4.0,    
70.50,39.955,64569.8,36442.1,5247.9,1.10,-2.26,20.34,478.5,1230.9,20.6,2.5,10.0,-0.0,n/a,OK,4.0,    
71.00,39.892,64468.5,36382.5,5257.9,1.06,-2.26,20.34,474.9,1154.1,20.4,2.4,9.5,-0.0,n/a,OK,4.0,    
71.50,39.829,64367.9,36323.6,5267.0,1.10,-2.25,20.33,471.3,1028.7,20.3,2.3,9.1,-0.0,n/a,OK,4.0,    
72.00,39.767,64268.0,36265.4,5275.2,1.08,-2.25,20.33,467.9,927.8,20.1,2.2,8.7,-0.0,n/a,OK,4.0,    
72.50,39.705,64168.6,36208.0,5282.4,1.09,-2.25,20.33,464.5,782.0,20.0,2.0,8.3,-0.0,n/a,OK,4.0,    
73.00,39.643,64069.8,36151.3,5288.4,1.10,-2.24,20.33,461.3,651.9,19.9,1.9,8.0,-0.0,n/a,OK,4.0,    
73.50,39.582,63971.6,36095.2,5293.3,1.19,-2.24,20.33,458.0,529.1,19.7,1.8,7.7,-0.0,n/a,OK,4.0,    
74.00,39.522,63874.0,36039.8,5297.8,1.42,-2.24,20.33,454.9,604.1,19.5,2.1,7.4,-0.0,n/a,OK,4.0,    
74.50,39.461,63776.9,35985.1,5303.3,1.33,-2.23,20.33,451.7,683.9,19.4,2.2,7.1,-0.0,n/a,OK,4.0,    
75.00,39.402,63680.3,35931.0,5308.9,1.49,-2.23,20.33,448.7,679.7,19.2,2.3,6.8,-0.0,n/a,OK,4.0,    
75.50,39.342,63584.4,35877.6,5315.6,1.57,-2.23,20.33,445.5,958.3,19.0,2.8,6.4,-0.0,n/a,OK,4.0,    
76.00,39.283,63489.0,35824.9,5323.6,1.33,-2.22,20.33,442.6,899.0,19.0,2.5,6.1,-0.0,n/a,OK,4.0,    
76.50,39.225,63394.1,35772.7,5330.9,1.42,-2.22,20.33,439.6,872.0,18.8,2.5,5.8,-0.0,n/a,OK,4.0,    
77.00,39.167,63299.8,35721.1,5338.1,1.41,-2.22,20.34,436.8,834.3,18.7,2.5,5.6,-0.0,n/a,OK,4.0,    
77.50,39.109,63206.0,35670.1,5344.8,1.44,-2.21,20.34,433.9,799.9,18.6,2.5,5.4,-0.0,n/a,OK,4.0,    
78.00,39.052,63112.8,35619.6,5351.4,1.46,-2.21,20.34,431.1,769.3,18.5,2.4,5.1,-0.0,n/a,OK,4.0,    
78.50,38.995,63020.1,35569.6,5357.7,1.48,-2.21,20.34,428.4,741.0,18.4,2.4,4.9,-0.0,n/a,OK,4.0,    
79.00,38.939,62927.9,35520.1,5363.8,1.49,-2.20,20.34,425.7,715.3,18.3,2.4,4.7,-0.0,n/a,OK,4.0,    
79.50,38.883,62836.3,35471.1,5369.7,1.50,-2.20,20.34,423.0,696.6,18.2,2.4,4.5,-0.0,n/a,OK,4.0,    
80.00,38.827,62745.2,35422.5,5375.4,1.52,-2.20,20.35,420.4,678.0,18.1,2.4,4.3,-0.0,n/a,OK,4.0,    
80.50,38.772,62654.5,35374.5,5380.9,1.55,-2.19,20.35,417.8,652.6,18.0,2.4,4.1,-0.0,n/a,OK,4.0,    
81.00,38.717,62564.5,35326.9,5386.4,1.64,-2.19,20.35,415.3,669.3,18.0,2.5,3.9,-0.0,n/a,OK,4.0,    
81.50,38.662,62474.9,35279.7,5392.2,1.70,-2.19,20.35,412.7,734.5,17.9,2.7,3.7,-0.0,n/a,OK,4.0,    
82.00,38.608,62385.8,35233.0,5398.6,1.70,-2.18,20.36,410.2,797.7,17.8,2.8,3.5,-0.0,n/a,OK,4.0,    
82.50,38.554,62297.2,35186.8,5405.3,1.63,-2.18,20.36,407.7,802.1,17.7,2.7,3.3,-0.0,n/a,OK,4.0,    
83.00,38.500,62209.1,35140.9,5411.8,1.63,-2.18,20.36,405.3,763.8,17.6,2.7,3.1,-0.0,n/a,OK,4.0,    
83.50,38.447,62121.6,35095.4,5418.1,1.66,-2.17,20.36,402.9,739.0,17.6,2.7,2.9,-0.0,n/a,OK,4.0,    
84.00,38.394,62034.5,35050.3,5424.1,1.69,-2.17,20.37,400.5,707.7,17.5,2.7,2.8,-0.0,n/a,OK,4.0,    
84.50,38.341,61947.9,35005.6,5429.9,1.71,-2.17,20.37,398.1,689.8,17.5,2.7,2.6,-0.0,n/a,OK,4.0,    
85.00,38.289,61861.8,34961.3,5435.6,1.73,-2.16,20.37,395.8,665.0,17.4,2.6,2.5,-0.0,n/a,OK,4.0,    
85.50,38.237,61776.2,34917.3,5441.0,1.76,-2.16,20.38,393.6,640.6,17.4,2.6,2.4,-0.0,n/a,OK,4.0,    
86.00,38.186,61691.1,34873.6,5446.3,1.77,-2.16,20.38,391.3,622.6,17.3,2.6,2.3,-0.0,n/a,OK,4.0,    
86.50,38.134,61606.4,34830.3,5451.4,1.79,-2.15,20.38,389.1,599.3,17.2,2.6,2.2,-0.0,n/a,OK,4.0,    
87.00,38.083,61522.2,34787.4,5456.3,1.82,-2.15,20.39,386.9,577.8,17.2,2.6,2.1,-0.0,n/a,OK,4.0,    
87.50,38.033,61438.5,34744.7,5461.0,1.84,-2.15,20.39,384.7,559.3,17.1,2.6,2.1,-0.0,n/a,OK,4.0,    
88.00,37.982,61355.2,34702.4,5465.6,1.86,-2.14,20.39,382.6,536.5,17.1,2.6,2.0,-0.0,n/a,OK,4.0,    
88.50,37.932,61272.4,34660.4,5470.0,1.89,-2.14,20.40,380.4,517.2,17.1,2.6,2.0,-0.0,n/a,OK,4.0,    
89.00,37.882,61190.1,34618.7,5474.2,1.91,-2.14,20.40,378.4,499.1,17.0,2.6,1.9,-0.0,n/a,OK,4.0,    
89.50,37.833,61108.1,34577.4,5478.3,1.93,-2.14,20.40,376.3,481.3,17.0,2.6,1.9,-0.0,n/a,OK,4.0,    
90.00,37.784,61026.7,34536.3,5482.2,1.96,-2.13,20.41,374.3,460.4,16.9,2.6,1.8,-0.0,n/a,OK,4.0,    
90.50,37.735,60945.6,34495.5,5486.0,1.98,-2.13,20.41,372.3,442.3,16.9,2.6,1.8,-0.0,n/a,OK,4.0,    
91.00,37.686,60865.0,34455.0,5489.6,2.00,-2.13,20.41,370.3,421.7,16.8,2.6,1.8,-0.0,n/a,OK,4.0,    
91.50,37.638,60784.8,34414.9,5493.0,2.03,-2.13,20.42,368.3,404.0,16.8,2.6,1.8,-0.0,n/a,OK,4.0,    
92.00,37.590,60705.1,34374.9,5496.4,2.17,-2.12,20.42,366.3,418.0,16.7,2.8,1.7,-0.0,n/a,OK,4.0,    
92.50,37.542,60625.7,34335.3,5500.2,2.23,-2.12,20.43,364.4,488.1,16.7,3.0,1.7,-0.0,n/a,OK,4.0,    
93.00,37.494,60546.8,34296.0,5504.4,2.21,-2.12,20.43,362.4,524.5,16.7,3.0,1.7,-0.0,n/a,OK,4.0,    
93.50,37.447,60468.3,34256.9,5508.9,2.27,-2.11,20.43,360.5,565.4,16.6,3.1,1.6,-0.0,n/a,OK,4.0,    
94.00,37.400,60390.3,34218.2,5513.9,2.33,-2.11,20.44,358.5,631.7,16.6,3.3,1.6,-0.0,n/a,OK,4.0,    
94.50,37.353,60312.6,34179.7,5519.4,2.32,-2.11,20.44,356.5,683.4,16.5,3.4,1.6,-0.0,n/a,OK,4.0,    
95.00,37.307,60235.4,34141.5,5525.2,2.31,-2.11,20.45,354.6,719.4,16.5,3.4,1.6,-0.0,n/a,OK,4.0,    
95.50,37.261,60158.6,34103.6,5531.2,2.27,-2.10,20.45,352.7,716.1,16.4,3.4,1.5,-0.0,n/a,OK,4.0,    
96.00,37.215,60082.2,34066.0,5537.1,2.26,-2.10,20.45,350.8,696.9,16.4,3.4,1.5,-0.0,n/a,OK,4.0,    
96.50,37.169,60006.3,34028.6,5542.9,2.29,-2.10,20.46,348.9,679.0,16.4,3.4,1.5,-0.0,n/a,OK,4.0,    
97.00,37.124,59930.7,33991.5,5548.4,2.32,-2.09,20.46,347.1,660.5,16.3,3.4,1.5,-0.0,n/a,OK,4.0,    
97.50,37.079,59855.6,33954.6,5553.9,2.34,-2.09,20.47,345.2,638.3,16.3,3.4,1.5,-0.0,n/a,OK,4.0,    
98.00,37.034,59780.8,33918.0,5559.1,2.37,-2.09,20.47,343.4,618.7,16.3,3.4,1.4,-0.0,n/a,OK,4.0,    
98.50,36.989,59706.4,33881.6,5564.2,2.39,-2.08,20.47,341.6,600.8,16.2,3.4,1.4,-0.0,n/a,OK,4.0,    
99.00,36.945,59632.5,33845.5,5569.1,2.41,-2.08,20.48,339.9,582.9,16.2,3.4,1.4,-0.0,n/a,OK,4.0,    
99.50,36.901,59558.9,33809.7,5573.9,2.43,-2.08,20.48,338.1,561.9,16.1,3.3,1.4,-0.0,n/a,OK,4.0,    
100.00,36.857,59485.6,33774.0,5578.5,2.46,-2.07,20.49,336.4,541.8,16.1,3.3,1.4,-0.0,n/a,OK,4.0,    
100.50,36.813,59412.8,33738.7,5582.9,2.48,-2.07,20.49,334.7,524.6,16.1,3.3,1.4,-0.0,n/a,OK,4.0,    
101.00,36.770,59340.3,33703.5,5587.2,2.51,-2.07,20.50,333.0,506.0,16.0,3.3,1.4,-0.0,n/a,OK,4.0,    
101.50,36.727,59268.2,33668.6,5591.4,2.54,-2.07,20.50,331.3,483.3,16.0,3.3,1.3,-0.0,n/a,OK,4.0,    
102.00,36.684,59196.5,33633.9,5595.3,2.57,-2.06,20.51,329.7,466.3,16.0,3.3,1.3,-0.0,n/a,OK,4.0,    
102.50,36.641,59125.2,33599.5,5599.1,2.60,-2.06,20.51,328.0,446.4,15.9,3.3,1.3,-0.0,n/a,OK,4.0,    
103.00,36.599,59054.1,33565.3,5602.8,2.62,-2.06,20.51,326.7,428.6,15.9,3.3,1.3,-0.0,n/a,OK,4.0,    
103.50,36.556,58983.3,33531.2,5606.3,2.64,-2.06,20.52,325.6,417.0,15.9,3.3,1.3,-0.0,n/a,OK,4.0,    
104.00,36.514,58912.8,33497.3,5609.7,2.67,-2.05,20.52,324.4,400.2,15.8,3.3,1.2,-0.0,n/a,OK,4.0,    
104.50,36.472,58842.6,33463.6,5613.0,2.69,-2.05,20.53,322.9,385.3,15.8,3.3,1.2,-0.0,n/a,OK,4.0,    
105.00,36.430,58772.6,33430.1,5616.1,2.71,-2.05,20.53,321.5,370.2,15.8,3.3,1.2,-0.0,n/a,OK,4.0,    
105.50,36.389,58703.0,33396.8,5619.1,2.74,-2.05,20.54,320.1,350.7,15.7,3.3,1.2,-0.0,n/a,OK,4.0,    
106.00,36.348,58633.7,33363.7,5622.0,2.77,-2.04,20.54,318.8,334.2,15.7,3.3,1.2,-0.0,n/a,OK,4.0,    
106.50,36.306,58564.7,33330.8,5624.7,2.79,-2.04,20.55,317.4,321.3,15.7,3.3,1.1,-0.0,n/a,OK,4.0,    
107.00,36.265,58495.9,33298.1,5627.4,2.81,-2.04,20.55,316.2,307.2,15.6,3.3,1.1,-0.0,n/a,OK,4.0,    
107.50,36.225,58427.4,33265.5,5629.9,2.83,-2.04,20.56,314.9,290.7,15.6,3.3,1.1,-0.0,n/a,OK,4.0,    
108.00,36.184,58359.2,33233.2,5632.2,2.86,-2.03,20.56,313.7,274.9,15.6,3.3,1.1,-0.0,n/a,OK,4.0,    
108.50,36.143,58291.3,33201.0,5634.4,2.89,-2.03,20.57,312.5,258.4,15.5,3.3,1.1,-0.0,n/a,OK,4.0,    
109.00,36.103,58223.6,33168.9,5636.5,2.90,-2.03,20.57,311.3,247.6,15.5,3.3,1.1,-0.0,n/a,OK,4.0,    
109.50,36.063,58156.2,33137.1,5638.5,2.94,-2.03,20.58,310.1,230.2,15.5,3.4,1.1,-0.0,n/a,OK,4.0,    
110.00,36.023,58089.0,33105.4,5640.5,3.19,-2.03,20.58,308.9,264.0,15.5,3.7,1.1,-0.0,n/a,OK,4.0,    
110.50,35.983,58022.2,33073.8,5643.2,3.30,-2.02,20.59,307.6,381.9,15.4,4.0,1.0,-0.0,n/a,OK,4.0,    
111.00,35.944,57955.6,33042.5,5646.6,3.16,-2.02,20.59,306.3,438.9,15.4,4.0,1.0,-0.0,n/a,OK,4.0,    
111.50,35.904,57889.3,33011.3,5650.4,3.20,-2.02,20.60,305.0,478.7,15.4,4.1,1.0,-0.0,n/a,OK,4.0,    
112.00,35.865,57823.3,32980.4,5654.6,3.19,-2.02,20.60,303.8,515.7,15.3,4.1,1.0,-0.0,n/a,OK,4.0,    
112.50,35.826,57757.5,32949.6,5659.0,3.20,-2.01,20.61,302.5,540.7,15.3,4.2,1.0,-0.0,n/a,OK,4.0,    
113.00,35.787,57692.1,32918.9,5663.6,3.22,-2.01,20.61,301.2,566.0,15.3,4.3,1.0,-0.0,n/a,OK,4.0,    
113.50,35.748,57626.9,32888.5,5668.4,3.21,-2.01,20.62,300.0,576.6,15.2,4.3,1.0,-0.0,n/a,OK,4.0,    
114.00,35.710,57562.0,32858.2,5673.2,3.20,-2.00,20.62,298.7,572.6,15.2,4.3,1.0,-0.0,n/a,OK,4.0,    
114.50,35.671,57497.4,32828.0,5677.9,3.22,-2.00,20.63,297.5,564.2,15.2,4.3,1.0,-0.0,n/a,OK,4.0,    
115.00,35.633,57433.0,32798.1,5682.6,3.24,-2.00,20.63,296.3,554.0,15.1,4.3,1.0,-0.0,n/a,OK,4.0,    
115.50,35.595,57368.9,32768.3,5687.1,3.27,-2.00,20.64,295.1,539.8,15.1,4.3,1.0,-0.0,n/a,OK,4.0,    
116.00,35.557,57305.1,32738.7,5691.6,3.29,-1.99,20.64,293.9,527.3,15.1,4.3,0.9,-0.0,n/a,OK,4.0,    
116.50,35.520,57241.6,32709.2,5695.9,3.30,-1.99,20.65,292.7,518.2,15.1,4.3,0.9,-0.0,n/a,OK,4.0,    
117.00,35.482,57178.3,32679.9,5700.2,3.33,-1.99,20.65,291.5,502.9,15.0,4.3,0.9,-0.0,n/a,OK,4.0,    
117.50,35.445,57115.2,32650.7,5704.3,3.35,-1.98,20.66,290.3,492.1,15.0,4.3,0.9,-0.0,n/a,OK,4.0,    
118.00,35.407,57052.5,32621.8,5708.3,3.38,-1.98,20.66,289.2,473.3,15.0,4.3,0.9,-0.0,n/a,OK,4.0,    
118.50,35.370,56990.0,32592.9,5712.2,3.41,-1.98,20.67,288.0,457.7,15.0,4.3,0.9,-0.0,n/a,OK,4.0,    
119.00,35.334,56927.7,32564.2,5716.0,3.43,-1.98,20.67,286.9,441.1,14.9,4.3,0.9,-0.0,n/a,OK,4.0,    
119.50,35.297,56865.7,32535.7,5719.6,3.46,-1.97,20.68,285.8,424.0,14.9,4.3,0.9,-0.0,n/a,OK,4.0,    
120.00,35.260,56803.9,32507.3,5723.0,3.49,-1.97,20.68,284.7,409.1,14.9,4.3,0.9,-0.0,n/a,OK,4.0,    
120.50,35.224,56742.4,32479.1,5726.4,3.52,-1.97,20.69,283.6,392.0,14.8,4.3,0.9,-0.0,n/a,OK,4.0,    
121.00,35.188,56681.1,32451.0,5729.6,3.55,-1.97,20.70,282.5,376.8,14.8,4.3,0.9,-0.0,n/a,OK,4.0,    
121.50,35.152,56620.0,32423.1,5732.7,3.57,-1.96,20.70,281.4,362.7,14.8,4.3,0.9,-0.0,n/a,OK,4.0,    
122.00,35.116,56559.2,32395.3,5735.6,3.60,-1.96,20.71,280.4,347.3,14.8,4.3,0.9,-0.0,n/a,OK,4.0,    
122.50,35.080,56498.7,32367.6,5738.4,3.63,-1.96,20.71,279.3,332.4,14.7,4.3,0.9,-0.0,n/a,OK,4.0,    
123.00,35.044,56438.3,32340.1,5741.1,3.66,-1.96,20.72,278.2,314.0,14.7,4.3,0.8,-0.0,n/a,OK,4.0,    
123.50,35.009,56378.2,32312.7,5743.7,3.69,-1.96,20.72,277.2,300.1,14.7,4.3,0.8,-0.0,n/a,OK,4.0,    
124.00,34.973,56318.4,32285.5,5746.1,3.72,-1.95,20.73,276.2,284.8,14.7,4.3,0.8,-0.0,n/a,OK,4.0,    
124.50,34.938,56258.7,32258.4,5748.4,3.75,-1.95,20.73,275.1,269.0,14.6,4.3,0.8,-0.0,n/a,OK,4.0,    
125.00,34.903,56199.3,32231.4,5750.6,3.77,-1.95,20.74,274.2,256.7,14.6,4.3,0.8,-0.0,n/a,OK,4.0,    
125.50,34.868,56140.1,32204.6,5752.7,3.80,-1.95,20.74,273.2,241.8,14.6,4.3,0.8,-0.0,n/a,OK,4.0,    
126.00,34.833,56081.1,32177.9,5754.6,3.83,-1.94,20.75,272.1,223.8,14.5,4.3,0.8,-0.0,n/a,OK,4.0,    
126.50,34.799,56022.4,32151.4,5756.4,3.86,-1.94,20.76,271.2,208.6,14.5,4.3,0.8,-0.0,n/a,OK,4.0,    
127.00,34.764,55963.8,32125.0,5758.1,3.89,-1.94,20.76,270.2,193.8,14.5,4.3,0.5,-0.0,n/a,OK,4.0,    
127.50,34.730,55905.5,32098.6,5759.7,3.91,-1.94,20.77,269.3,181.3,14.5,4.3,0.0,-0.0,n/a,OK,4.0,    
128.00,34.696,55847.4,32072.4,5761.1,3.93,-1.94,20.77,268.3,166.7,14.6,4.3,-0.6,-0.0,n/a,OK,4.0,    
128.50,34.661,55789.6,32046.3,5762.4,3.96,-1.93,20.78,267.3,148.6,14.6,4.3,-1.2,-0.0,n/a,OK,4.0,    
129.00,34.627,55731.9,32020.2,5763.6,4.01,-1.93,20.78,266.4,132.3,14.7,4.3,-1.8,-0.0,n/a,OK,4.0,    
129.50,34.594,55674.6,31994.2,5764.7,4.05,-1.93,20.79,265.4,125.2,14.8,4.3,-2.3,-0.0,n/a,OK,4.0,    
130.00,34.560,55617.5,31968.2,5765.7,4.09,-1.93,20.79,264.5,116.7,14.9,4.3,-2.8,-0.0,n/a,OK,4.0,    
130.50,34.526,55560.6,31942.1,5766.6,4.12,-1.93,20.80,263.5,113.3,15.0,4.4,-3.3,-0.0,n/a,OK,4.0,    
131.00,34.493,55504.0,31916.1,5767.5,4.16,-1.93,20.80,262.6,104.3,15.1,4.4,-3.8,-0.0,n/a,OK,4.0,    
131.50,34.459,55447.7,31890.0,5768.4,4.18,-1.92,20.81,261.7,102.4,15.3,4.4,-4.2,-0.0,n/a,OK,4.0,    
132.00,34.426,55391.7,31863.8,5769.3,4.21,-1.92,20.81,261.4,102.9,15.5,4.4,-4.6,-0.0,n/a,OK,4.0,    
132.50,34.393,55335.7,31837.4,5770.2,4.22,-1.92,20.82,261.7,111.4,15.7,4.4,-5.0,-0.0,n/a,OK,4.0,    
133.00,34.359,55279.7,31810.8,5771.1,4.22,-1.92,20.82,261.7,119.8,15.8,4.5,-5.4,-0.0,n/a,OK,4.0,    
133.50,34.326,55223.8,31784.1,5772.1,4.23,-1.92,20.83,261.4,125.9,16.1,4.5,-5.7,-0.0,n/a,OK,4.0,    
134.00,34.293,55168.2,31757.1,5773.2,4.23,-1.91,20.83,261.0,134.6,16.3,4.5,-5.9,-0.0,n/a,OK,4.0,    
134.50,34.259,55112.7,31730.0,5774.3,4.24,-1.91,20.83,260.8,137.0,16.5,4.5,-6.2,-0.0,n/a,OK,4.0,    
135.00,34.226,55057.3,31702.7,5775.5,4.24,-1.91,20.84,260.6,142.6,16.7,4.5,-6.4,-0.0,n/a,OK,4.0,    
135.50,34.193,55002.2,31675.1,5776.7,4.25,-1.91,20.84,260.3,146.5,16.9,4.5,-6.5,-0.0,n/a,OK,4.0,    
136.00,34.160,54947.1,31647.4,5778.0,4.21,-1.91,20.84,260.1,146.7,17.2,4.5,-6.6,-0.0,n/a,OK,4.0,    
136.50,34.127,54892.3,31619.4,5779.1,4.19,-1.91,20.85,259.9,126.6,17.4,4.4,-6.7,-0.0,n/a,OK,4.0,    
137.00,34.093,54837.6,31591.2,5780.1,4.20,-1.90,20.85,259.7,116.0,17.6,4.4,-6.8,-0.0,n/a,OK,4.0,    
137.50,34.060,54783.0,31562.8,5781.0,4.22,-1.90,20.85,259.5,105.9,17.9,4.4,-6.8,-0.0,n/a,OK,4.0,    
138.00,34.027,54728.6,31534.1,5781.9,4.23,-1.90,20.85,259.3,95.1,18.1,4.4,-6.8,-0.0,n/a,OK,4.0,    
138.50,33.994,54674.4,31505.2,5782.6,4.22,-1.90,20.86,259.3,87.8,18.3,4.4,-6.8,-0.0,n/a,OK,4.0,    
139.00,33.961,54620.3,31476.0,5783.3,4.21,-1.90,20.86,259.4,76.9,18.6,4.4,-6.7,-0.0,n/a,OK,4.0,    
139.50,33.927,54566.2,31446.6,5784.0,4.19,-1.89,20.86,260.3,75.0,18.8,4.3,-6.6,-0.0,n/a,OK,4.0,    
140.00,33.894,54511.9,31416.7,5784.6,4.14,-1.89,20.86,262.6,84.3,19.0,4.3,-6.5,-0.0,n/a,OK,4.0,    
140.50,33.860,54457.1,31386.2,5785.4,4.05,-1.89,20.86,265.4,105.5,19.2,4.3,-6.4,-0.0,n/a,OK,4.0,    
141.00,33.826,54401.8,31355.2,5786.3,3.96,-1.89,20.86,267.6,118.7,19.4,4.2,-6.2,-0.0,n/a,OK,4.0,    
141.50,33.791,54346.2,31323.8,5787.4,3.88,-1.89,20.86,269.1,120.0,19.6,4.1,-6.1,-0.0,n/a,OK,4.0,    
142.00,33.757,54290.6,31292.0,5788.3,3.84,-1.89,20.86,268.7,96.9,19.8,4.0,-5.9,-0.0,n/a,OK,4.0,    
142.50,33.722,54235.3,31260.1,5789.0,3.82,-1.88,20.86,268.6,63.9,20.0,3.9,-5.7,-0.0,n/a,OK,4.0,    
143.00,33.688,54179.9,31228.0,5789.4,3.81,-1.88,20.86,269.7,33.8,20.1,3.9,-5.5,-0.0,n/a,OK,4.0,    
143.50,33.653,54124.3,31195.4,5789.5,3.79,-1.88,20.86,270.6,11.1,20.3,3.8,-5.3,-0.0,n/a,OK,4.0,    
144.00,33.618,54068.8,31162.7,5789.5,3.78,-1.88,20.86,270.5,-17.9,20.5,3.7,-5.0,-0.0,n/a,OK,4.0,    
144.50,33.583,54013.4,31129.8,5789.2,3.80,-1.88,20.86,270.1,-54.6,20.6,3.7,-4.8,-0.0,n/a,OK,4.0,    
145.00,33.549,53958.2,31096.8,5788.7,3.81,-1.88,20.86,269.9,-83.1,20.8,3.6,-4.5,-0.0,n/a,OK,4.0,    
145.50,33.514,53903.1,31063.6,5787.9,3.83,-1.87,20.86,269.8,-106.6,20.9,3.6,-4.2,-0.0,n/a,OK,4.0,    
146.00,33.479,53848.1,31030.3,5786.9,3.85,-1.87,20.86,269.8,-125.0,21.0,3.6,-4.0,-0.0,n/a,OK,4.0,    
146.50,33.445,53793.2,30996.9,5785.8,3.88,-1.87,20.86,269.7,-139.6,21.1,3.6,-3.7,-0.0,n/a,OK,4.0,    
147.00,33.410,53738.4,30963.3,5784.6,3.90,-1.87,20.86,269.5,-144.9,21.2,3.6,-3.4,-0.0,n/a,OK,4.0,    
147.50,33.375,53683.7,30929.7,5783.4,3.91,-1.87,20.85,269.3,-144.5,21.3,3.6,-3.1,-0.0,n/a,OK,4.0,    
148.00,33.341,53629.1,30895.9,5782.2,3.94,-1.87,20.85,269.2,-146.2,21.4,3.6,-2.8,-0.0,n/a,OK,4.0,    
148.50,33.306,53574.6,30862.1,5781.0,3.96,-1.87,20.85,269.0,-139.0,21.5,3.7,-2.5,-0.0,n/a,OK,4.0,    
149.00,33.271,53520.1,30828.2,5779.9,3.97,-1.86,20.85,269.0,-128.3,21.6,3.7,-2.1,-0.0,n/a,OK,4.0,    
149.50,33.237,53465.8,30794.2,5778.9,3.98,-1.86,20.85,268.8,-115.9,21.6,3.7,-1.8,-0.0,n/a,OK,4.0,    
150.00,33.202,53411.5,30760.2,5778.0,3.99,-1.86,20.84,268.7,-103.2,21.6,3.8,-1.5,-0.0,n/a,OK,4.0,    
150.50,33.168,53357.2,30726.1,5777.2,3.99,-1.86,20.84,268.6,-85.4,21.7,3.8,-1.2,-0.0,n/a,OK,4.0,    
151.00,33.133,53303.0,30692.0,5776.5,4.00,-1.86,20.84,268.5,-73.2,21.7,3.9,-0.9,-0.0,n/a,OK,4.0,    
151.50,33.098,53248.9,30657.9,5775.9,4.00,-1.86,20.84,268.5,-58.6,21.7,3.9,-0.6,-0.0,n/a,OK,4.0,    
152.00,33.064,53194.7,30623.8,5775.5,4.00,-1.86,20.83,268.5,-45.8,21.7,3.9,-0.3,-0.0,n/a,OK,4.0,    
152.50,33.029,53140.6,30589.6,5775.2,3.99,-1.85,20.83,268.4,-30.9,21.7,3.9,-0.1,-0.0,n/a,OK,4.0,    
153.00,32.995,53086.5,30555.5,5775.0,3.99,-1.85,20.83,268.4,-20.5,21.7,4.0,0.2,-0.0,n/a,OK,4.0,    
153.50,32.960,53032.4,30521.3,5774.8,3.98,-1.85,20.83,268.4,-8.2,21.7,4.0,0.4,-0.0,n/a,OK,4.0,    
154.00,32.926,52978.3,30487.2,5774.8,3.98,-1.85,20.83,268.3,0.8,21.6,4.0,0.7,-0.0,n/a,OK,4.0,    
154.50,32.891,52924.1,30453.1,5774.8,3.99,-1.85,20.82,268.3,10.9,21.6,4.0,0.9,-0.0,n/a,OK,4.0,    
155.00,32.857,52870.0,30419.0,5775.0,3.99,-1.85,20.82,268.3,18.5,21.6,4.0,1.1,-0.0,n/a,OK,4.0,    
155.50,32.822,52815.8,30385.0,5775.2,3.98,-1.84,20.82,268.3,31.2,21.5,4.1,1.3,-0.0,n/a,OK,4.0,    
156.00,32.788,52761.7,30351.0,5775.5,3.97,-1.84,20.82,268.3,42.1,21.5,4.1,1.5,-0.0,n/a,OK,4.0,    
156.50,32.753,52707.5,30317.1,5775.8,3.97,-1.84,20.81,268.3,45.9,21.4,4.1,1.7,-0.0,n/a,OK,4.0,    
157.00,32.719,52653.2,30283.3,5776.3,3.96,-1.84,20.81,268.3,52.5,21.3,4.1,1.9,-0.0,n/a,OK,4.0,    
157.50,32.684,52598.9,30249.5,5776.7,3.96,-1.84,20.81,268.2,57.5,21.3,4.1,2.0,-0.0,n/a,OK,4.0,    
158.00,32.650,52544.6,30215.8,5777.2,3.95,-1.83,20.81,268.3,59.1,21.2,4.1,2.2,-0.0,n/a,OK,4.0,    
158.50,32.615,52490.3,30182.1,5777.7,3.94,-1.83,20.81,268.3,59.7,21.1,4.1,2.3,-0.0,n/a,OK,4.0,    
159.00,32.581,52435.8,30148.6,5778.2,3.93,-1.83,20.80,268.3,58.2,21.0,4.1,2.4,-0.0,n/a,OK,4.0,    
159.50,32.546,52381.4,30115.1,5778.7,3.93,-1.83,20.80,268.3,54.5,20.9,4.0,2.5,-0.0,n/a,OK,4.0,    
160.00,32.512,52326.9,30081.7,5779.1,3.93,-1.83,20.80,268.3,49.8,20.8,4.0,2.6,-0.0,n/a,OK,4.0,    
160.50,32.477,52272.3,30048.4,5779.5,3.92,-1.82,20.80,268.3,43.8,20.7,4.0,2.7,-0.0,n/a,OK,4.0,    
161.00,32.443,52217.7,30015.2,5779.8,3.92,-1.82,20.80,268.3,39.9,20.7,4.0,2.7,-0.0,n/a,OK,4.0,    
161.50,32.408,52163.0,29982.1,5780.1,3.91,-1.82,20.80,268.3,33.5,20.6,4.0,2.8,-0.0,n/a,OK,4.0,    
162.00,32.374,52108.2,29949.1,5780.4,3.92,-1.82,20.79,268.4,23.8,20.5,4.0,2.8,-0.0,n/a,OK,4.0,    
162.50,32.339,52053.5,29916.2,5780.6,3.92,-1.82,20.79,268.4,18.4,20.4,4.0,2.8,-0.0,n/a,OK,4.0,    
163.00,32.305,51998.6,29883.4,5780.7,3.92,-1.82,20.79,268.4,11.7,20.3,3.9,2.9,-0.0,n/a,OK,4.0,    
163.50,32.270,51943.7,29850.7,5780.7,3.92,-1.81,20.79,268.4,5.1,20.2,3.9,2.9,-0.0,n/a,OK,4.0,    
164.00,32.236,51888.7,29818.1,5780.8,3.92,-1.81,20.79,268.4,0.3,20.1,3.9,2.9,-0.0,n/a,OK,4.0,    
164.50,32.201,51833.7,29785.6,5780.7,3.93,-1.81,20.79,268.4,-5.6,20.0,3.9,2.8,-0.0,n/a,OK,4.0,    
165.00,32.167,51778.6,29753.2,5780.7,3.93,-1.81,20.79,268.4,-8.3,19.9,3.9,2.8,-0.0,n/a,OK,4.0,    
165.50,32.132,51723.5,29720.9,5780.6,3.93,-1.81,20.79,268.4,-10.7,19.8,3.9,2.8,-0.0,n/a,OK,4.0,    
166.00,32.098,51668.3,29688.7,5780.5,3.93,-1.80,20.79,268.4,-15.7,19.7,3.9,2.7,-0.0,n/a,OK,4.0,    
166.50,32.063,51613.0,29656.6,5780.3,3.94,-1.80,20.79,268.4,-21.4,19.6,3.9,2.6,-0.0,n/a,OK,4.0,    
167.00,32.029,51557.7,29624.6,5780.1,3.95,-1.80,20.79,268.4,-22.2,19.6,3.9,2.5,-0.0,n/a,OK,4.0,    
167.50,31.994,51502.4,29592.7,5780.0,3.94,-1.80,20.79,268.4,-18.8,19.5,3.9,2.4,-0.0,n/a,OK,4.0,    
168.00,31.960,51447.0,29560.9,5779.8,3.95,-1.80,20.79,268.5,-21.9,19.4,3.9,2.3,-0.0,n/a,OK,4.0,    
168.50,31.925,51391.5,29529.2,5779.6,3.94,-1.80,20.79,268.4,-20.9,19.3,3.9,2.2,-0.0,n/a,OK,4.0,    
169.00,31.891,51336.1,29497.5,5779.5,3.94,-1.79,20.79,268.4,-20.5,19.3,3.9,2.1,-0.0,n/a,OK,4.0,    
169.50,31.856,51280.5,29465.9,5779.3,3.94,-1.79,20.79,268.5,-18.9,19.2,3.9,2.0,-0.0,n/a,OK,4.0,    
170.00,31.822,51225.0,29434.4,5779.1,3.94,-1.79,20.79,268.4,-18.9,19.1,3.9,1.9,-0.0,n/a,OK,4.0,    
170.50,31.787,51169.4,29403.0,5779.0,3.95,-1.79,20.79,268.5,-18.6,19.1,3.9,1.8,-0.0,n/a,OK,4.0,    
171.00,31.753,51113.7,29371.6,5778.8,3.95,-1.79,20.79,268.5,-19.4,19.0,3.9,1.7,-0.0,n/a,OK,4.0,    
171.50,31.718,51058.0,29340.3,5778.7,3.95,-1.78,20.79,268.5,-16.7,19.0,3.9,1.6,-0.0,n/a,OK,4.0,    
172.00,31.684,51002.3,29309.1,5778.5,3.95,-1.78,20.79,268.5,-15.4,18.9,3.9,1.5,-0.0,n/a,OK,4.0,    
172.50,31.649,50946.6,29277.9,5778.4,3.95,-1.78,20.79,268.5,-13.7,18.9,3.9,1.4,-0.0,n/a,OK,4.0,    
173.00,31.615,50890.8,29246.8,5778.3,3.94,-1.78,20.79,268.5,-11.9,18.8,3.9,1.2,-0.0,n/a,OK,4.0,    
173.50,31.580,50835.1,29215.7,5778.2,3.94,-1.78,20.79,268.5,-11.1,18.8,3.9,1.1,-0.0,n/a,OK,4.0,    
174.00,31.546,50779.2,29184.6,5778.1,3.95,-1.78,20.80,268.5,-13.4,18.8,3.9,1.0,-0.0,n/a,OK,4.0,    
174.50,31.511,50723.4,29153.6,5778.0,3.94,-1.77,20.80,268.5,-12.9,18.8,3.9,0.8,-0.0,n/a,OK,4.0,    
175.00,31.477,50667.6,29122.6,5777.9,3.94,-1.77,20.80,268.5,-11.1,18.7,3.9,0.7,-0.0,n/a,OK,4.0,    
175.50,31.442,50611.7,29091.6,5777.8,3.94,-1.77,20.80,268.5,-13.1,18.7,3.9,0.6,-0.0,n/a,OK,4.0,    
176.00,31.408,50555.9,29060.7,5777.7,3.94,-1.77,20.80,268.5,-15.1,18.7,3.9,0.4,-0.0,n/a,OK,4.0,    
176.50,31.374,50500.0,29029.8,5777.6,3.94,-1.77,20.80,268.5,-16.0,18.7,3.9,0.3,-0.0,n/a,OK,4.0,    
177.00,31.339,50444.1,28998.9,5777.4,3.93,-1.76,20.80,268.5,-16.0,18.7,3.9,0.2,-0.0,n/a,OK,4.0,    
177.50,31.305,50388.2,28968.0,5777.3,3.94,-1.76,20.80,268.5,-17.5,18.7,3.9,0.0,-0.0,n/a,OK,4.0,    
178.00,31.270,50332.3,28937.1,5777.1,3.93,-1.76,20.80,268.5,-17.8,18.7,3.9,-0.1,-0.0,n/a,OK,4.0,    
178.50,31.236,50276.4,28906.1,5777.0,3.93,-1.76,20.80,268.5,-16.5,18.7,3.9,-0.2,-0.0,n/a,OK,4.0,    
179.00,31.201,50220.6,28875.2,5776.8,3.94,-1.76,20.81,268.5,-19.1,18.7,3.9,-0.3,-0.0,n/a,OK,4.0,    
179.50,31.167,50164.7,28844.3,5776.7,3.94,-1.75,20.81,268.5,-14.8,18.7,3.9,-0.4,-0.0,n/a,OK,4.0,    
180.00,31.132,50108.8,28813.4,5776.6,3.95,-1.75,20.81,268.5,-12.6,18.8,3.9,-0.5,-0.0,n/a,OK,4.0,    
180.50,31.098,50052.9,28782.4,5776.5,3.95,-1.75,20.81,268.5,-9.1,18.8,3.9,-0.6,-0.0,n/a,OK,4.0,    
181.00,31.063,49997.1,28751.5,5776.4,3.95,-1.75,20.81,268.5,-6.4,18.8,3.9,-0.7,-0.0,n/a,OK,4.0,    
181.50,31.029,49941.3,28720.5,5776.4,3.95,-1.75,20.81,268.5,0.5,18.8,4.0,-0.8,-0.0,n/a,OK,4.0,    
182.00,30.994,49885.4,28689.4,5776.4,3.95,-1.75,20.81,268.5,6.2,18.9,4.0,-0.9,-0.0,n/a,OK,4.0,    
182.50,30.960,49829.6,28658.4,5776.5,3.96,-1.74,20.81,268.5,8.2,18.9,4.0,-0.9,-0.0,n/a,OK,4.0,    
183.00,30.925,49773.9,28627.3,5776.6,3.95,-1.74,20.81,268.5,13.8,18.9,4.0,-1.0,-0.0,n/a,OK,4.0,    
183.50,30.891,49718.1,28596.2,5776.7,3.94,-1.74,20.82,268.5,17.8,19.0,4.0,-1.0,-0.0,n/a,OK,4.0,    
184.00,30.856,49662.3,28565.0,5776.8,3.95,-1.74,20.82,268.5,18.3,19.0,4.0,-1.1,-0.0,n/a,OK,4.0,    
184.50,30.822,49606.6,28533.8,5777.0,3.95,-1.74,20.82,268.5,19.5,19.1,4.0,-1.2,-0.0,n/a,OK,4.0,    
185.00,30.787,49550.9,28502.6,5777.1,3.94,-1.73,20.82,268.5,22.4,19.1,4.0,-1.2,-0.0,n/a,OK,4.0,    
185.50,30.753,49495.2,28471.3,5777.3,3.94,-1.73,20.82,268.5,23.1,19.1,4.0,-1.2,-0.0,n/a,OK,4.0,    
186.00,30.718,49439.6,28439.9,5777.5,3.94,-1.73,20.82,268.4,18.7,19.2,4.0,-1.2,-0.0,n/a,OK,4.0,    
186.50,30.684,49384.0,28408.6,5777.7,3.93,-1.73,20.82,268.5,22.7,19.2,4.0,-1.3,-0.0,n/a,OK,4.0,    
187.00,30.649,49328.3,28377.1,5777.8,3.93,-1.73,20.82,268.5,18.5,19.3,4.0,-1.3,-0.0,n/a,OK,4.0,    
187.50,30.615,49272.7,28345.7,5778.0,3.93,-1.72,20.82,268.5,17.5,19.3,4.0,-1.3,-0.0,n/a,OK,4.0,    
188.00,30.580,49217.2,28314.1,5778.1,3.92,-1.72,20.82,268.5,15.7,19.4,4.0,-1.3,-0.0,n/a,OK,4.0,    
188.50,30.546,49161.6,28282.6,5778.3,3.92,-1.72,20.82,268.5,13.5,19.4,3.9,-1.3,-0.0,n/a,OK,4.0,    
189.00,30.511,49106.1,28251.0,5778.3,3.92,-1.72,20.82,268.5,8.1,19.4,3.9,-1.3,-0.0,n/a,OK,4.0,    
189.50,30.477,49050.6,28219.3,5778.4,3.92,-1.72,20.82,268.5,6.1,19.5,3.9,-1.3,-0.0,n/a,OK,4.0,    
190.00,30.442,48995.2,28187.6,5778.5,3.92,-1.71,20.82,268.5,4.0,19.5,3.9,-1.2,-0.0,n/a,OK,4.0,    
190.50,30.408,48939.7,28155.8,5778.5,3.92,-1.71,20.82,268.5,2.0,19.6,3.9,-1.2,-0.0,n/a,OK,4.0,    
191.00,30.373,48884.3,28124.1,5778.5,3.92,-1.71,20.82,268.4,-2.0,19.6,3.9,-1.2,-0.0,n/a,OK,4.0,    
191.50,30.339,48828.9,28092.2,5778.4,3.92,-1.71,20.82,268.4,-5.6,19.6,3.9,-1.2,-0.0,n/a,OK,4.0,    
192.00,30.304,48773.6,28060.3,5778.4,3.92,-1.70,20.82,268.5,-5.9,19.7,3.9,-1.1,-0.0,n/a,OK,4.0,    
192.50,30.270,48718.2,28028.4,5778.3,3.93,-1.70,20.82,268.5,-9.6,19.7,3.9,-1.1,-0.0,n/a,OK,4.0,    
193.00,30.235,48662.9,27996.4,5778.2,3.93,-1.70,20.82,268.4,-10.8,19.7,3.9,-1.0,-0.0,n/a,OK,4.0,    
193.50,30.201,48607.6,27964.5,5778.1,3.93,-1.70,20.82,268.4,-10.5,19.8,3.9,-1.0,-0.0,n/a,OK,4.0,    
194.00,30.166,48552.3,27932.4,5778.0,3.93,-1.70,20.82,268.4,-12.5,19.8,3.9,-0.9,-0.0,n/a,OK,4.0,    
194.50,30.132,48497.0,27900.4,5777.9,3.93,-1.69,20.82,268.5,-12.1,19.8,3.9,-0.9,-0.0,n/a,OK,4.0,    
195.00,30.097,48441.8,27868.3,5777.8,3.93,-1.69,20.82,268.4,-11.4,19.9,3.9,-0.8,-0.0,n/a,OK,4.0,    
195.50,30.063,48386.6,27836.1,5777.7,3.93,-1.69,20.82,268.4,-12.5,19.9,3.9,-0.8,-0.0,n/a,OK,4.0,    
196.00,30.028,48331.3,27804.0,5777.6,3.93,-1.69,20.82,268.4,-13.0,19.9,3.9,-0.7,-0.0,n/a,OK,4.0,    
196.50,29.994,48276.1,27771.8,5777.5,3.94,-1.69,20.82,268.4,-11.6,19.9,3.9,-0.7,-0.0,n/a,OK,4.0,    
197.00,29.959,48221.0,27739.6,5777.4,3.94,-1.68,20.82,268.4,-12.1,19.9,3.9,-0.6,-0.0,n/a,OK,4.0,    
197.50,29.925,48165.8,27707.4,5777.3,3.94,-1.68,20.82,268.4,-11.8,20.0,3.9,-0.5,-0.0,n/a,OK,4.0,    
198.00,29.890,48110.6,27675.1,5777.2,3.93,-1.68,20.82,268.4,-9.2,20.0,3.9,-0.5,-0.0,n/a,OK,4.0,    
198.50,29.856,48055.5,27642.8,5777.2,3.94,-1.68,20.82,268.3,-11.2,20.0,3.9,-0.4,-0.0,n/a,OK,4.0,    
199.00,29.821,48000.4,27610.6,5777.1,3.94,-1.68,20.82,268.4,-12.9,20.0,3.9,-0.3,-0.0,n/a,OK,4.0,    
199.50,29.787,47945.2,27578.3,5777.0,3.94,-1.67,20.82,268.4,-10.6,20.0,3.9,-0.3,-0.0,n/a,OK,4.0,    
200.00,29.753,47890.1,27546.0,5776.9,3.94,-1.67,20.82,268.3,-8.3,20.0,3.9,-0.2,-0.0,n/a,OK,4.0,    
200.50,29.718,47835.0,27513.7,5776.8,3.93,-1.67,20.82,268.4,-6.5,20.0,3.9,-0.2,-0.0,n/a,OK,4.0,    
201.00,29.684,47779.9,27481.3,5776.8,3.93,-1.67,20.82,268.4,-6.5,20.0,3.9,-0.1,-0.0,n/a,OK,4.0,    
201.50,29.649,47724.8,27449.0,5776.7,3.93,-1.67,20.82,268.4,-7.6,20.0,3.9,-0.0,-0.0,n/a,OK,4.0,    
202.00,29.615,47669.6,27416.7,5776.7,3.93,-1.66,20.82,268.4,-7.6,20.0,3.9,0.0,-0.0,n/a,OK,4.0,    
202.50,29.580,47614.5,27384.4,5776.6,3.93,-1.66,20.82,268.3,-5.3,20.0,3.9,0.1,-0.0,n/a,OK,4.0,    
203.00,29.546,47559.4,27352.1,5776.5,3.93,-1.66,20.81,268.4,-6.7,20.0,3.9,0.1,-0.0,n/a,OK,4.0,    
203.50,29.511,47504.3,27319.7,5776.5,3.94,-1.66,20.81,268.4,-7.0,20.0,3.9,0.1,-0.0,n/a,OK,4.0,    
204.00,29.477,47449.2,27287.4,5776.4,3.94,-1.66,20.81,268.4,-4.8,20.0,3.9,0.2,-0.0,n/a,OK,4.0,    
204.50,29.442,47394.1,27255.1,5776.4,3.94,-1.65,20.81,268.3,-3.8,20.0,3.9,0.2,-0.0,n/a,OK,4.0,    
205.00,29.408,47338.9,27222.8,5776.4,3.93,-1.65,20.81,268.4,0.4,20.0,3.9,0.3,-0.0,n/a,OK,4.0,    
205.50,29.373,47283.8,27190.6,5776.4,3.93,-1.65,20.81,268.4,2.3,20.0,3.9,0.3,-0.0,n/a,OK,4.0,    
206.00,29.339,47228.7,27158.3,5776.4,3.93,-1.65,20.81,268.4,3.9,19.9,3.9,0.4,-0.0,n/a,OK,4.0,    
206.50,29.304,47173.5,27126.0,5776.4,3.94,-1.64,20.81,268.4,5.6,19.9,3.9,0.4,-0.0,n/a,OK,4.0,    
207.00,29.270,47118.4,27093.8,5776.5,3.94,-1.64,20.81,268.4,5.9,19.9,4.0,0.4,-0.0,n/a,OK,4.0,    
207.50,29.235,47063.2,27061.5,5776.6,3.94,-1.64,20.81,268.4,8.0,19.9,4.0,0.5,-0.0,n/a,OK,4.0,    
208.00,29.201,47008.0,27029.3,5776.6,3.93,-1.64,20.81,268.4,9.8,19.9,4.0,0.5,-0.0,n/a,OK,4.0,    
208.50,29.166,46952.8,26997.1,5776.7,3.94,-1.64,20.81,268.4,8.4,19.9,4.0,0.5,-0.0,n/a,OK,4.0,    
209.00,29.132,46897.7,26965.0,5776.8,3.93,-1.63,20.81,268.4,9.4,19.8,4.0,0.5,-0.0,n/a,OK,4.0,    
209.50,29.097,46842.4,26932.8,5776.9,3.93,-1.63,20.81,268.4,9.7,19.8,4.0,0.5,-0.0,n/a,OK,4.0,    
210.00,29.063,46787.2,26900.7,5776.9,3.93,-1.63,20.81,268.4,10.0,19.8,4.0,0.6,-0.0,n/a,OK,4.0,    
210.50,29.028,46732.0,26868.6,5777.0,3.93,-1.63,20.81,268.4,8.1,19.8,4.0,0.6,-0.0,n/a,OK,4.0,    
211.00,28.994,46676.8,26836.5,5777.1,3.93,-1.62,20.81,268.4,8.2,19.8,3.9,0.6,-0.0,n/a,OK,4.0,    
211.50,28.959,46621.5,26804.4,5777.1,3.93,-1.62,20.81,268.4,6.3,19.8,3.9,0.6,-0.0,n/a,OK,4.0,    
212.00,28.925,46566.3,26772.3,5777.2,3.93,-1.62,20.81,268.4,4.5,19.7,3.9,0.6,-0.0,n/a,OK,4.0,    
212.50,28.890,46511.0,26740.3,5777.2,3.92,-1.62,20.81,268.4,7.2,19.7,3.9,0.6,-0.0,n/a,OK,4.0,    
213.00,28.856,46455.7,26708.3,5777.3,3.92,-1.62,20.81,268.4,5.1,19.7,3.9,0.6,-0.0,n/a,OK,4.0,    
213.50,28.821,46400.4,26676.3,5777.3,3.92,-1.61,20.81,268.4,4.4,19.7,3.9,0.6,-0.0,n/a,OK,4.0,    
214.00,28.787,46345.1,26644.3,5777.4,3.92,-1.61,20.81,268.4,1.5,19.7,3.9,0.6,-0.0,n/a,OK,4.0,    
214.50,28.752,46289.8,26612.4,5777.4,3.92,-1.61,20.81,268.4,0.7,19.6,3.9,0.6,-0.0,n/a,OK,4.0,    
215.00,28.718,46234.4,26580.4,5777.4,3.93,-1.61,20.81,268.4,-1.7,19.6,3.9,0.5,-0.0,n/a,OK,4.0,    
215.50,28.683,46179.1,26548.5,5777.3,3.93,-1.60,20.81,268.4,-2.5,19.6,3.9,0.5,-0.0,n/a,OK,4.0,    
216.00,28.649,46123.7,26516.6,5777.3,3.92,-1.60,20.81,268.4,0.5,19.6,3.9,0.5,-0.0,n/a,OK,4.0,    
216.50,28.614,46068.4,26484.7,5777.3,3.93,-1.60,20.81,268.4,-3.8,19.6,3.9,0.5,-0.0,n/a,OK,4.0,    
217.00,28.580,46013.0,26452.9,5777.3,3.93,-1.60,20.81,268.5,-6.5,19.6,3.9,0.5,-0.0,n/a,OK,4.0,    
217.50,28.545,45957.6,26421.0,5777.2,3.93,-1.59,20.81,268.4,-4.8,19.5,3.9,0.5,-0.0,n/a,OK,4.0,    
218.00,28.511,45902.2,26389.2,5777.2,3.93,-1.59,20.81,268.4,-5.5,19.5,3.9,0.4,-0.0,n/a,OK,4.0,    
218.50,28.476,45846.8,26357.4,5777.1,3.93,-1.59,20.81,268.4,-6.0,19.5,3.9,0.4,-0.0,n/a,OK,4.0,    
219.00,28.442,45791.4,26325.6,5777.1,3.92,-1.59,20.81,268.4,-3.6,19.5,3.9,0.4,-0.0,n/a,OK,4.0,    
219.50,28.407,45736.0,26293.8,5777.1,3.93,-1.59,20.81,268.4,-6.5,19.5,3.9,0.4,-0.0,n/a,OK,4.0,    
220.00,28.373,45680.6,26262.1,5777.0,3.93,-1.58,20.81,268.4,-5.1,19.5,3.9,0.3,-0.0,n/a,OK,4.0,    
220.50,28.338,45625.1,26230.3,5777.0,3.93,-1.58,20.81,268.4,-5.4,19.5,3.9,0.3,-0.0,n/a,OK,4.0,    
221.00,28.304,45569.7,26198.6,5776.9,3.93,-1.58,20.81,268.4,-4.8,19.5,3.9,0.3,-0.0,n/a,OK,4.0,    
221.50,28.269,45514.2,26166.9,5776.9,3.93,-1.58,20.81,268.4,-4.7,19.5,3.9,0.3,-0.0,n/a,OK,4.0,    
222.00,28.235,45458.8,26135.1,5776.9,3.92,-1.57,20.81,268.4,-2.1,19.4,3.9,0.2,-0.0,n/a,OK,4.0,    
222.50,28.200,45403.3,26103.4,5776.8,3.93,-1.57,20.81,268.4,-6.0,19.4,3.9,0.2,-0.0,n/a,OK,4.0,    
223.00,28.166,45347.9,26071.7,5776.8,3.93,-1.57,20.81,268.4,-3.7,19.4,3.9,0.2,-0.0,n/a,OK,4.0,    
223.50,28.131,45292.4,26040.0,5776.8,3.93,-1.57,20.81,268.4,-5.1,19.4,3.9,0.1,-0.0,n/a,OK,4.0,    
224.00,28.097,45237.0,26008.4,5776.7,3.93,-1.56,20.81,268.4,-3.9,19.4,3.9,0.1,-0.0,n/a,OK,4.0,    
224.50,28.062,45181.5,25976.7,5776.7,3.92,-1.56,20.81,268.4,-1.6,19.4,3.9,0.1,-0.0,n/a,OK,4.0,    
225.00,28.028,45126.0,25945.0,5776.7,3.93,-1.56,20.81,268.4,-4.4,19.4,3.9,0.1,-0.0,n/a,OK,4.0,    
225.50,27.993,45070.6,25913.3,5776.6,3.93,-1.56,20.81,268.4,-3.3,19.4,3.9,0.0,-0.0,n/a,OK,4.0,    
226.00,27.959,45015.1,25881.6,5776.6,3.93,-1.56,20.81,268.4,-6.0,19.4,3.9,0.0,-0.0,n/a,OK,4.0,    
226.50,27.924,44959.7,25850.0,5776.6,3.93,-1.55,20.81,268.4,-6.1,19.4,3.9,-0.0,-0.0,n/a,OK,4.0,    
227.00,27.890,44904.2,25818.3,5776.5,3.93,-1.55,20.81,268.4,-4.3,19.4,3.9,-0.0,-0.0,n/a,OK,4.0,    
227.50,27.855,44848.7,25786.6,5776.5,3.93,-1.55,20.81,268.4,-2.8,19.4,3.9,-0.1,-0.0,n/a,OK,4.0,    
228.00,27.821,44793.3,25754.9,5776.5,3.93,-1.55,20.81,268.4,-2.6,19.4,3.9,-0.1,-0.0,n/a,OK,4.0,    
228.50,27.786,44737.8,25723.2,5776.5,3.93,-1.54,20.81,268.4,-3.2,19.4,3.9,-0.1,-0.0,n/a,OK,4.0,    
229.00,27.752,44682.3,25691.5,5776.4,3.94,-1.54,20.81,268.4,-3.5,19.4,3.9,-0.1,-0.0,n/a,OK,4.0,    
229.50,27.717,44626.9,25659.9,5776.4,3.93,-1.54,20.81,268.4,-1.1,19.4,3.9,-0.1,-0.0,n/a,OK,4.0,    
230.00,27.683,44571.4,25628.2,5776.4,3.93,-1.54,20.81,268.4,2.4,19.4,3.9,-0.2,-0.0,n/a,OK,4.0,    
230.50,27.648,44516.0,25596.5,5776.4,3.93,-1.53,20.81,268.4,3.9,19.5,3.9,-0.2,-0.0,n/a,OK,4.0,    
231.00,27.614,44460.5,25564.8,5776.5,3.93,-1.53,20.81,268.4,3.8,19.5,3.9,-0.2,-0.0,n/a,OK,4.0,    
231.50,27.579,44405.1,25533.0,5776.5,3.93,-1.53,20.81,268.4,0.8,19.5,3.9,-0.2,-0.0,n/a,OK,4.0,    
232.00,27.545,44349.6,25501.3,5776.5,3.93,-1.53,20.81,268.4,2.9,19.5,3.9,-0.2,-0.0,n/a,OK,4.0,    
232.50,27.510,44294.2,25469.6,5776.5,3.93,-1.52,20.81,268.4,4.3,19.5,3.9,-0.2,-0.0,n/a,OK,4.0,    
233.00,27.476,44238.8,25437.8,5776.6,3.93,-1.52,20.81,268.4,4.6,19.5,3.9,-0.2,-0.0,n/a,OK,4.0,    
233.50,27.441,44183.4,25406.1,5776.6,3.93,-1.52,20.81,268.4,2.3,19.5,3.9,-0.2,-0.0,n/a,OK,4.0,    
234.00,27.407,44127.9,25374.3,5776.6,3.93,-1.52,20.81,268.4,4.4,19.5,3.9,-0.3,-0.0,n/a,OK,4.0,    
234.50,27.372,44072.5,25342.6,5776.7,3.92,-1.51,20.81,268.4,6.1,19.5,3.9,-0.3,-0.0,n/a,OK,4.0,    
235.00,27.338,44017.1,25310.8,5776.7,3.92,-1.51,20.81,268.4,4.2,19.5,3.9,-0.3,-0.0,n/a,OK,4.0,    
235.50,27.303,43961.7,25279.0,5776.8,3.92,-1.51,20.81,268.4,4.3,19.5,3.9,-0.3,-0.0,n/a,OK,4.0,    
236.00,27.269,43906.3,25247.2,5776.8,3.93,-1.51,20.81,268.4,1.6,19.5,3.9,-0.3,-0.0,n/a,OK,4.0,    
236.50,27.234,43850.9,25215.4,5776.8,3.92,-1.50,20.82,268.4,2.0,19.5,3.9,-0.3,-0.0,n/a,OK,4.0,    
237.00,27.200,43795.5,25183.6,5776.8,3.92,-1.50,20.82,268.4,1.7,19.6,3.9,-0.3,-0.0,n/a,OK,4.0,    
237.50,27.166,43740.1,25151.8,5776.8,3.92,-1.50,20.82,268.4,2.8,19.6,3.9,-0.3,-0.0,n/a,OK,4.0,    
238.00,27.131,43684.7,25119.9,5776.8,3.92,-1.50,20.82,268.4,2.3,19.6,3.9,-0.3,-0.0,n/a,OK,4.0,    
238.50,27.097,43629.3,25088.1,5776.9,3.92,-1.49,20.82,268.4,-0.6,19.6,3.9,-0.3,-0.0,n/a,OK,4.0,    
239.00,27.062,43574.0,25056.2,5776.9,3.92,-1.49,20.82,268.4,0.3,19.6,3.9,-0.3,-0.0,n/a,OK,4.0,    
239.50,27.028,43518.6,25024.4,5776.9,3.92,-1.49,20.82,268.4,0.4,19.6,3.9,-0.3,-0.0,n/a,OK,4.0,    
240.00,26.993,43463.2,24992.5,5776.9,3.92,-1.49,20.82,268.4,0.3,19.6,3.9,-0.2,-0.0,n/a,OK,4.0,    
240.50,26.959,43407.9,24960.6,5776.9,3.93,-1.48,20.82,268.4,-3.4,19.6,3.9,-0.2,-0.0,n/a,OK,4.0,    
241.00,26.924,43352.5,24928.7,5776.8,3.92,-1.48,20.82,268.4,0.5,19.6,3.9,-0.2,-0.0,n/a,OK,4.0,    
241.50,26.890,43297.2,24896.8,5776.8,3.92,-1.48,20.82,268.4,-0.2,19.6,3.9,-0.2,-0.0,n/a,OK,4.0,    
242.00,26.855,43241.8,24864.9,5776.8,3.92,-1.48,20.82,268.4,-4.1,19.6,3.9,-0.2,-0.0,n/a,OK,4.0,    
242.50,26.821,43186.5,24833.0,5776.8,3.92,-1.47,20.82,268.4,-1.6,19.6,3.9,-0.2,-0.0,n/a,OK,4.0,    
243.00,26.786,43131.1,24801.1,5776.8,3.93,-1.47,20.82,268.4,-3.4,19.7,3.9,-0.2,-0.0,n/a,OK,4.0,    
243.50,26.752,43075.8,24769.2,5776.8,3.92,-1.47,20.82,268.4,-0.4,19.7,3.9,-0.2,-0.0,n/a,OK,4.0,    
244.00,26.717,43020.5,24737.2,5776.7,3.92,-1.47,20.82,268.4,-2.0,19.7,3.9,-0.2,-0.0,n/a,OK,4.0,    
244.50,26.683,42965.1,24705.3,5776.7,3.92,-1.46,20.82,268.4,-3.9,19.7,3.9,-0.1,-0.0,n/a,OK,4.0,    
245.00,26.648,42909.8,24673.4,5776.7,3.92,-1.46,20.82,268.4,-1.1,19.7,3.9,-0.1,-0.0,n/a,OK,4.0,    
245.50,26.614,42854.5,24641.4,5776.7,3.92,-1.46,20.82,268.4,-3.4,19.7,3.9,-0.1,-0.0,n/a,OK,4.0,    
246.00,26.579,42799.1,24609.5,5776.7,3.92,-1.45,20.82,268.4,-0.9,19.7,3.9,-0.1,-0.0,n/a,OK,4.0,    
246.50,26.545,42743.8,24577.5,5776.6,3.92,-1.45,20.82,268.4,-3.3,19.7,3.9,-0.1,-0.0,n/a,OK,4.0,    
247.00,26.510,42688.5,24545.5,5776.6,3.92,-1.45,20.81,268.4,-1.6,19.7,3.9,-0.1,-0.0,n/a,OK,4.0,    
247.50,26.476,42633.2,24513.6,5776.6,3.92,-1.45,20.81,268.4,-2.6,19.7,3.9,-0.1,-0.0,n/a,OK,4.0,    
248.00,26.441,42577.9,24481.6,5776.6,3.92,-1.44,20.81,268.4,-0.1,19.7,3.9,-0.0,-0.0,n/a,OK,4.0,    
248.50,26.407,42522.6,24449.6,5776.6,3.92,-1.44,20.81,268.4,-1.4,19.7,3.9,-0.0,-0.0,n/a,OK,4.0,    
249.00,26.372,42467.2,24417.7,5776.5,3.93,-1.44,20.81,268.4,-4.1,19.7,3.9,-0.0,-0.0,n/a,OK,4.0,    
249.50,26.338,42411.9,24385.7,5776.5,3.92,-1.44,20.81,268.4,-0.3,19.7,3.9,-0.0,-0.0,n/a,OK,4.0,    
250.00,26.303,42356.6,24353.7,5776.5,3.92,-1.43,20.81,268.4,-2.6,19.7,3.9,-0.0,-0.0,n/a,OK,4.0,    
250.50,26.269,42301.3,24321.8,5776.5,3.92,-1.43,20.81,268.4,-2.8,19.7,3.9,0.0,-0.0,n/a,OK,4.0,    
251.00,26.234,42246.0,24289.8,5776.5,3.92,-1.43,20.81,268.4,-1.8,19.7,3.9,0.0,-0.0,n/a,OK,4.0,    
251.50,26.200,42190.7,24257.8,5776.5,3.92,-1.43,20.81,268.4,-1.0,19.7,3.9,0.0,-0.0,n/a,OK,4.0,    
252.00,26.165,42135.4,24225.8,5776.4,3.92,-1.42,20.81,268.4,-2.7,19.7,3.9,0.0,-0.0,n/a,OK,4.0,    
252.50,26.131,42080.1,24193.9,5776.4,3.92,-1.42,20.81,268.4,0.6,19.7,3.9,0.1,-0.0,n/a,OK,4.0,    
253.00,26.096,42024.8,24161.9,5776.4,3.92,-1.42,20.81,268.4,1.5,19.7,3.9,0.1,-0.0,n/a,OK,4.0,    
253.50,26.062,41969.5,24129.9,5776.4,3.92,-1.41,20.81,268.4,-1.4,19.7,3.9,0.1,-0.0,n/a,OK,4.0,    
254.00,26.027,41914.1,24098.0,5776.4,3.92,-1.41,20.81,268.4,-0.1,19.7,3.9,0.1,-0.0,n/a,OK,4.0,    
254.50,25.993,41858.8,24066.0,5776.4,3.92,-1.41,20.81,268.4,-0.1,19.7,3.9,0.1,-0.0,n/a,OK,4.0,    
255.00,25.958,41803.5,24034.1,5776.4,3.92,-1.41,20.81,268.4,-0.0,19.7,3.9,0.1,-0.0,n/a,OK,4.0,    
255.50,25.924,41748.2,24002.1,5776.4,3.92,-1.40,20.81,268.3,3.1,19.7,3.9,0.1,-0.0,n/a,OK,4.0,    
256.00,25.889,41692.9,23970.2,5776.4,3.92,-1.40,20.81,268.4,3.9,19.7,3.9,0.1,-0.0,n/a,OK,4.0,    
256.50,25.855,41637.6,23938.2,5776.5,3.92,-1.40,20.81,268.4,1.1,19.7,3.9,0.1,-0.0,n/a,OK,4.0,    
257.00,25.820,41582.3,23906.3,5776.5,3.93,-1.39,20.81,268.4,0.5,19.7,3.9,0.1,-0.0,n/a,OK,4.0,    
257.50,25.786,41526.9,23874.3,5776.5,3.92,-1.39,20.81,268.4,4.2,19.7,3.9,0.1,-0.0,n/a,OK,4.0,    
258.00,25.751,41471.6,23842.4,5776.5,3.92,-1.39,20.81,268.4,1.3,19.7,3.9,0.1,-0.0,n/a,OK,4.0,    
258.50,25.717,41416.3,23810.5,5776.5,3.92,-1.39,20.81,268.4,2.8,19.7,3.9,0.1,-0.0,n/a,OK,4.0,    
259.00,25.682,41361.0,23778.5,5776.5,3.92,-1.38,20.81,268.4,2.4,19.6,3.9,0.1,-0.0,n/a,OK,4.0,    
259.50,25.648,41305.6,23746.6,5776.6,3.92,-1.38,20.81,268.4,3.0,19.6,3.9,0.1,-0.0,n/a,OK,4.0,    
260.00,25.613,41250.3,23714.7,5776.6,3.91,-1.38,20.81,268.4,6.0,19.6,3.9,0.1,-0.0,n/a,OK,4.0,    
260.50,25.579,41195.0,23682.8,5776.6,3.92,-1.37,20.81,268.4,0.9,19.6,3.9,0.1,-0.0,n/a,OK,4.0,    
261.00,25.544,41139.7,23650.9,5776.6,3.93,-1.37,20.81,268.4,-2.7,19.6,3.9,0.1,-0.0,n/a,OK,4.0,    
261.50,25.510,41084.3,23619.0,5776.6,3.92,-1.37,20.81,268.4,-1.7,19.6,3.9,0.1,-0.0,n/a,OK,4.0,    
262.00,25.475,41029.0,23587.1,5776.6,3.91,-1.37,20.81,268.4,3.5,19.6,3.9,0.1,-0.0,n/a,OK,4.0,    
262.50,25.441,40973.6,23555.2,5776.6,3.92,-1.36,20.81,268.4,0.1,19.6,3.9,0.1,-0.0,n/a,OK,4.0,    
263.00,25.406,40918.3,23523.3,5776.6,3.92,-1.36,20.81,268.4,-0.1,19.6,3.9,0.1,-0.0,n/a,OK,4.0,    
263.50,25.372,40862.9,23491.4,5776.6,3.92,-1.36,20.81,268.4,-0.3,19.6,3.9,0.1,-0.0,n/a,OK,4.0,    
264.00,25.337,40807.6,23459.5,5776.6,3.92,-1.35,20.81,268.4,-0.6,19.6,3.9,0.1,-0.0,n/a,OK,4.0,    
264.50,25.303,40752.2,23427.7,5776.6,3.92,-1.35,20.81,268.4,-4.1,19.6,3.9,0.1,-0.0,n/a,OK,4.0,    
265.00,25.268,40696.9,23395.8,5776.6,3.92,-1.35,20.81,268.4,-2.0,19.6,3.9,0.1,-0.0,n/a,OK,4.0,    
265.50,25.234,40641.5,23363.9,5776.6,3.92,-1.35,20.81,268.4,-0.8,19.6,3.9,0.1,-0.0,n/a,OK,4.0,    
266.00,25.199,40586.2,23332.0,5776.6,3.92,-1.34,20.81,268.4,0.5,19.6,3.9,0.1,-0.0,n/a,OK,4.0,    
266.50,25.165,40530.8,23300.2,5776.6,3.92,-1.34,20.81,268.4,0.7,19.6,3.9,0.1,-0.0,n/a,OK,4.0,    
267.00,25.130,40475.5,23268.3,5776.6,3.91,-1.34,20.81,268.4,0.7,19.6,3.9,0.1,-0.0,n/a,OK,4.0,    
267.50,25.096,40420.1,23236.5,5776.6,3.92,-1.33,20.81,268.4,-2.2,19.6,3.9,0.1,-0.0,n/a,OK,4.0,    
268.00,25.061,40364.7,23204.6,5776.5,3.92,-1.33,20.81,268.4,-3.6,19.6,3.9,0.1,-0.0,n/a,OK,4.0,    
268.50,25.027,40309.4,23172.8,5776.5,3.92,-1.33,20.81,268.4,-0.9,19.6,3.9,0.1,-0.0,n/a,OK,4.0,    
269.00,24.992,40254.0,23140.9,5776.5,3.92,-1.33,20.81,268.4,-4.2,19.6,3.9,0.1,-0.0,n/a,OK,4.0,    
269.50,24.958,40198.6,23109.1,5776.5,3.92,-1.32,20.81,268.4,-2.0,19.6,3.9,0.1,-0.0,n/a,OK,4.0,    
270.00,24.923,40143.3,23077.2,5776.5,3.92,-1.32,20.81,268.4,-1.8,19.6,3.9,0.1,-0.0,n/a,OK,4.0,    
270.50,24.889,40087.9,23045.4,5776.5,3.92,-1.32,20.81,268.4,0.5,19.6,3.9,0.1,-0.0,n/a,OK,4.0,    
271.00,24.854,40032.5,23013.5,5776.5,3.92,-1.31,20.81,268.4,-1.7,19.6,3.9,0.0,-0.0,n/a,OK,4.0,    
271.50,24.820,39977.1,22981.7,5776.5,3.92,-1.31,20.81,268.4,0.5,19.6,3.9,0.0,-0.0,n/a,OK,4.0,    
272.00,24.786,39921.8,22949.8,5776.5,3.92,-1.31,20.81,268.4,-1.4,19.6,3.9,0.0,-0.0,n/a,OK,4.0,    
272.50,24.751,39866.4,22918.0,5776.5,3.92,-1.30,20.81,268.4,0.1,19.6,3.9,0.0,-0.0,n/a,OK,4.0,    
273.00,24.717,39811.0,22886.2,5776.5,3.92,-1.30,20.81,268.4,-0.7,19.6,3.9,0.0,-0.0,n/a,OK,4.0,    
273.50,24.682,39755.7,22854.3,5776.4,3.92,-1.30,20.81,268.4,-1.4,19.6,3.9,0.0,-0.0,n/a,OK,4.0,    
274.00,24.648,39700.3,22822.5,5776.4,3.92,-1.29,20.81,268.4,-0.0,19.6,3.9,0.0,-0.0,n/a,OK,4.0,    
274.50,24.613,39644.9,22790.7,5776.4,3.92,-1.29,20.81,268.4,-0.2,19.6,3.9,-0.2,-0.0,n/a,OK,4.0,    
275.00,24.579,39589.5,22758.8,5776.4,3.93,-1.29,20.81,268.4,-0.1,19.8,3.9,-3.9,-0.0,n/a,OK,4.0,    
275.50,24.544,39534.3,22726.8,5776.5,3.97,-1.29,20.81,268.4,7.0,20.2,4.0,-6.9,-0.0,n/a,OK,4.0,    
276.00,24.510,39479.2,22694.5,5776.6,4.01,-1.28,20.81,268.3,32.4,20.4,4.1,-7.2,-0.0,n/a,OK,4.0,    
276.50,24.475,39424.2,22662.0,5777.0,4.03,-1.28,20.81,268.2,58.6,20.5,4.2,-5.9,-0.0,n/a,OK,4.0,    
277.00,24.441,39369.3,22629.3,5777.6,4.00,-1.28,20.81,268.2,80.3,20.6,4.2,-4.1,-0.0,n/a,OK,4.0,    
277.50,24.406,39314.5,22596.5,5778.3,3.96,-1.27,20.81,268.2,90.6,20.7,4.1,-2.8,-0.0,n/a,OK,4.0,    
278.00,24.372,39259.8,22563.5,5779.0,3.92,-1.27,20.81,268.2,91.9,20.7,4.1,-2.0,-0.0,n/a,OK,4.0,    
278.50,24.337,39205.1,22530.5,5779.8,3.89,-1.27,20.81,268.2,80.1,20.8,4.1,-1.4,-0.0,n/a,OK,4.0,    
279.00,24.303,39150.4,22497.4,5780.4,3.87,-1.26,20.80,268.3,65.8,20.8,4.0,-1.0,-0.0,n/a,OK,4.0,    
279.50,24.268,39095.8,22464.3,5780.9,3.85,-1.26,20.80,268.3,48.4,20.9,3.9,-0.6,-0.0,n/a,OK,4.0,    
280.00,24.234,39041.1,22431.1,5781.2,3.85,-1.26,20.80,268.3,23.9,20.9,3.9,-0.4,-0.0,n/a,OK,4.0,    
280.50,24.199,38986.5,22397.9,5781.3,3.84,-1.25,20.80,268.3,2.0,20.9,3.8,-0.3,-0.0,n/a,OK,4.0,    
281.00,24.165,38931.9,22364.7,5781.2,3.84,-1.25,20.80,268.3,-14.8,20.9,3.8,-0.3,-0.0,n/a,OK,4.0,    
281.50,24.130,38877.3,22331.5,5781.0,3.84,-1.25,20.79,268.3,-31.7,20.9,3.8,-0.3,-0.0,n/a,OK,4.0,    
282.00,24.096,38822.7,22298.3,5780.7,3.86,-1.24,20.79,268.3,-49.5,20.9,3.8,-0.3,-0.0,n/a,OK,4.0,    
282.50,24.061,38768.1,22265.0,5780.2,3.87,-1.24,20.79,268.3,-61.0,20.9,3.7,-0.3,-0.0,n/a,OK,4.0,    
283.00,24.027,38713.5,22231.8,5779.7,3.88,-1.24,20.79,268.3,-69.9,20.9,3.7,-0.3,-0.0,n/a,OK,4.0,    
283.50,23.992,38658.9,22198.5,5779.1,3.89,-1.23,20.79,268.3,-72.5,20.9,3.7,-0.2,-0.0,n/a,OK,4.0,    
284.00,23.958,38604.3,22165.2,5778.5,3.91,-1.23,20.78,268.3,-77.7,20.9,3.8,-0.2,-0.0,n/a,OK,4.0,    
284.50,23.923,38549.8,22131.9,5777.8,3.92,-1.23,20.78,268.3,-74.0,20.9,3.8,-0.1,-0.0,n/a,OK,4.0,    
285.00,23.889,38495.2,22098.7,5777.2,3.93,-1.22,20.78,268.3,-71.2,20.9,3.8,-0.1,-0.0,n/a,OK,4.0,    
285.50,23.854,38440.6,22065.4,5776.7,3.93,-1.22,20.78,268.3,-63.9,20.9,3.8,-0.1,-0.0,n/a,OK,4.0,    
286.00,23.820,38386.1,22032.1,5776.2,3.95,-1.22,20.78,268.2,-57.6,20.9,3.8,-0.0,-0.0,n/a,OK,4.0,    
286.50,23.785,38331.5,21998.8,5775.7,3.95,-1.22,20.77,268.3,-47.2,20.9,3.9,-0.0,-0.0,n/a,OK,4.0,    
287.00,23.751,38277.0,21965.5,5775.4,3.96,-1.21,20.77,268.3,-39.8,20.9,3.9,-0.0,-0.0,n/a,OK,4.0,    
287.50,23.716,38222.4,21932.2,5775.1,3.96,-1.21,20.77,268.2,-27.9,20.9,3.9,-0.0,-0.0,n/a,OK,4.0,    
288.00,23.682,38167.9,21898.9,5774.9,3.95,-1.21,20.77,268.2,-17.7,20.9,3.9,0.0,-0.0,n/a,OK,4.0,    
288.50,23.647,38113.3,21865.6,5774.8,3.95,-1.20,20.77,268.2,-7.7,20.9,3.9,0.0,-0.0,n/a,OK,4.0,    
289.00,23.613,38058.8,21832.4,5774.8,3.95,-1.20,20.76,268.2,1.6,20.9,4.0,0.0,-0.0,n/a,OK,4.0,    
289.50,23.578,38004.2,21799.1,5774.8,3.94,-1.20,20.76,268.2,10.2,20.9,4.0,0.0,-0.0,n/a,OK,4.0,    
290.00,23.544,37949.7,21765.8,5774.9,3.95,-1.19,20.76,268.2,12.6,20.9,4.0,0.0,-0.0,n/a,OK,4.0,    
290.50,23.509,37895.1,21732.5,5775.0,3.93,-1.19,20.76,268.2,23.5,20.9,4.0,0.0,-0.0,n/a,OK,4.0,    
291.00,23.475,37840.6,21699.2,5775.2,3.93,-1.19,20.75,268.2,24.9,20.9,4.0,0.0,-0.0,n/a,OK,4.0,    
291.50,23.440,37786.0,21665.9,5775.4,3.92,-1.18,20.75,268.2,27.0,20.9,4.0,-0.0,-0.0,n/a,OK,4.0,    
292.00,23.406,37731.5,21632.6,5775.7,3.92,-1.18,20.75,268.2,29.7,20.9,4.0,-0.0,-0.0,n/a,OK,4.0,    
292.50,23.371,37677.0,21599.3,5775.9,3.91,-1.17,20.75,268.2,29.2,20.9,4.0,-0.0,-0.0,n/a,OK,4.0,    
293.00,23.337,37622.4,21566.1,5776.2,3.91,-1.17,20.75,268.2,27.4,20.9,4.0,0.0,-0.0,n/a,OK,4.0,    
293.50,23.302,37567.9,21532.8,5776.4,3.91,-1.17,20.74,268.2,25.6,20.9,4.0,0.0,-0.0,n/a,OK,4.0,    
294.00,23.268,37513.3,21499.5,5776.6,3.90,-1.16,20.74,268.2,23.2,20.9,3.9,0.0,-0.0,n/a,OK,4.0,    
294.50,23.233,37458.8,21466.2,5776.8,3.89,-1.16,20.74,268.2,20.8,20.9,3.9,0.0,-0.0,n/a,OK,4.0,    
295.00,23.199,37404.2,21432.9,5776.9,3.90,-1.16,20.74,268.3,13.2,20.9,3.9,0.0,-0.0,n/a,OK,4.0,    
295.50,23.164,37349.6,21399.6,5777.0,3.89,-1.15,20.73,268.2,11.0,20.9,3.9,0.0,-0.0,n/a,OK,4.0,    
296.00,23.130,37295.1,21366.3,5777.1,3.89,-1.15,20.73,268.2,6.7,20.9,3.9,0.0,-0.0,n/a,OK,4.0,    
296.50,23.095,37240.5,21333.0,5777.1,3.90,-1.15,20.73,268.3,0.5,20.9,3.9,0.0,-0.0,n/a,OK,4.0,    
297.00,23.061,37186.0,21299.7,5777.1,3.90,-1.14,20.73,268.2,-1.2,20.9,3.9,0.0,-0.0,n/a,OK,4.0,    
297.50,23.026,37131.4,21266.4,5777.1,3.90,-1.14,20.73,268.2,-6.1,20.9,3.9,0.0,-0.0,n/a,OK,4.0,    
298.00,22.992,37076.9,21233.2,5777.0,3.90,-1.14,20.72,268.3,-6.6,20.9,3.9,-0.0,-0.0,n/a,OK,4.0,    
298.50,22.957,37022.3,21199.9,5777.0,3.90,-1.13,20.72,268.3,-8.0,20.9,3.9,-0.0,-0.0,n/a,OK,4.0,    
