#Time,Rho,X,Z,Alt,AoA,GSE,LUE,Vtot,Vy,Gamma,Pitch,Roll,Yaw,Step,Grade,Points,Details
0.00,3.342,6307.5,-737.9,1322.9,9.66,0.18,-15.87,124.8,-501.2,26.2,7.5,-4.1,-0.0,X0,OK,4.0,    
0.50,3.329,6282.9,-727.7,1319.0,9.52,0.19,-15.80,125.0,-454.5,25.9,7.5,-4.0,-0.0,X0,OK,4.0,    
1.00,3.315,6258.3,-717.6,1315.3,9.38,0.19,-15.74,125.3,-414.5,25.6,7.6,-4.1,-0.0,X0,OK,4.0,    
1.50,3.301,6233.5,-707.7,1312.0,9.28,0.20,-15.67,125.3,-378.9,25.2,7.6,-4.2,-0.0,X0,OK,4.0,    
2.00,3.287,6208.7,-697.9,1309.0,9.21,0.20,-15.61,125.2,-344.9,24.9,7.7,-4.0,-0.0,X0,OK,4.0,    
2.50,3.273,6183.9,-688.3,1306.3,9.03,0.21,-15.55,125.0,-314.4,24.6,7.6,-3.8,-0.0,X0,OK,4.0,    
3.00,3.259,6159.0,-678.9,1303.7,8.71,0.22,-15.48,125.0,-298.8,24.4,7.4,-3.8,-0.0,X0,OK,4.0,    
3.50,3.245,6134.1,-669.7,1301.3,8.33,0.23,-15.42,125.0,-293.5,24.1,7.0,-3.9,-0.0,X0,OK,4.0,    
4.00,3.231,6109.2,-660.6,1298.8,8.25,0.24,-15.36,124.9,-307.8,23.8,6.9,-4.0,-0.0,X0,OK,4.0,    
4.50,3.217,6084.2,-651.7,1296.2,8.35,0.25,-15.31,124.8,-312.7,23.5,7.0,-4.2,-0.0,X0,OK,4.0,    
5.00,3.203,6059.2,-642.9,1293.6,8.45,0.25,-15.25,124.8,-308.4,23.1,7.1,-4.3,-0.0,X0,OK,4.0,    
5.50,3.189,6034.2,-634.4,1291.0,8.45,0.26,-15.19,124.7,-306.4,22.8,7.1,-4.2,-0.0,X0,OK,4.0,    
6.00,3.176,6009.1,-626.0,1288.5,8.31,0.27,-15.14,124.7,-308.7,22.5,6.9,-4.4,-0.0,X0,OK,4.0,    
6.50,3.162,5984.0,-617.9,1285.8,8.19,0.28,-15.08,124.6,-326.6,22.2,6.7,-4.5,-0.0,X0,OK,4.0,    
7.00,3.148,5958.8,-609.9,1283.0,8.12,0.29,-15.03,124.7,-342.9,22.0,6.6,-3.8,-0.0,X0,OK,4.0,    
7.50,3.134,5933.6,-602.1,1280.1,8.08,0.30,-14.98,124.6,-352.5,22.0,6.5,-2.0,-0.0,X0,OK,4.0,    
8.00,3.120,5908.4,-594.4,1277.1,8.09,0.30,-14.93,124.7,-363.9,22.1,6.5,-0.2,-0.0,X0,OK,4.0,    
8.50,3.106,5883.2,-586.6,1274.1,8.08,0.31,-14.88,124.6,-369.0,22.1,6.5,0.4,-0.0,X0,OK,4.0,    
9.00,3.092,5858.0,-578.9,1271.0,8.06,0.32,-14.83,124.5,-385.3,22.0,6.4,0.2,-0.0,X0,OK,4.0,    
9.50,3.078,5832.8,-571.2,1267.7,7.98,0.33,-14.78,124.4,-400.9,21.9,6.2,-0.2,-0.0,X0,OK,4.0,    
10.00,3.064,5807.7,-563.5,1264.3,7.79,0.33,-14.73,124.3,-424.6,21.8,5.9,-0.7,-0.0,X0,OK,4.0,    
10.50,3.050,5782.5,-555.9,1260.6,7.75,0.34,-14.68,124.2,-460.5,21.7,5.8,-1.1,-0.0,X0,OK,4.0,    
11.00,3.036,5757.4,-548.4,1256.6,7.89,0.34,-14.63,124.1,-495.4,21.7,5.8,-1.2,-0.0,X0,OK,4.0,    
11.50,3.022,5732.3,-540.9,1252.4,8.09,0.35,-14.57,124.0,-517.9,21.6,5.9,-1.1,-0.0,X0,OK,4.0,    
12.00,3.008,5707.2,-533.4,1248.0,8.18,0.35,-14.52,123.9,-534.3,21.6,5.9,-1.0,-0.0,X0,OK,4.0,    
12.50,2.994,5682.2,-526.0,1243.5,8.15,0.36,-14.47,123.8,-552.9,21.5,5.8,-0.9,-0.0,X0,OK,4.0,    
13.00,2.981,5657.1,-518.6,1238.8,8.08,0.36,-14.42,123.8,-576.3,21.4,5.6,-0.9,-0.0,X0,OK,4.0,    
13.50,2.967,5632.1,-511.3,1233.9,8.09,0.36,-14.37,123.7,-606.8,21.3,5.4,-0.9,-0.0,X0,OK,4.0,    
14.00,2.953,5607.0,-504.0,1228.7,8.19,0.36,-14.32,123.8,-631.7,21.2,5.4,-1.1,-0.0,X0,OK,4.0,    
14.50,2.939,5581.9,-496.8,1223.4,8.31,0.36,-14.27,123.7,-645.0,21.1,5.5,-1.3,-0.0,X0,OK,4.0,    
15.00,2.925,5556.8,-489.6,1217.9,8.45,0.37,-14.22,123.7,-661.0,20.9,5.5,-1.3,-0.0,X0,OK,4.0,    
15.50,2.911,5531.8,-482.5,1212.4,8.50,0.37,-14.16,123.7,-670.6,20.8,5.6,-1.3,-0.0,X0,OK,4.0,    
16.00,2.897,5506.7,-475.5,1206.8,8.51,0.37,-14.11,123.7,-679.9,20.7,5.5,-1.4,-0.0,X0,OK,4.0,    
16.50,2.884,5481.5,-468.5,1201.1,8.51,0.37,-14.06,123.7,-688.6,20.7,5.5,-1.5,-0.0,X0,OK,4.0,    
17.00,2.870,5456.4,-461.6,1195.3,8.56,0.37,-14.01,123.7,-699.7,20.7,5.5,-1.4,-0.0,X0,OK,4.0,    
17.50,2.856,5431.3,-454.7,1189.4,8.63,0.37,-13.96,123.7,-705.8,20.8,5.6,-1.2,-0.0,X0,OK,4.0,    
18.00,2.842,5406.2,-447.9,1183.5,8.71,0.36,-13.91,123.5,-711.5,20.8,5.6,-0.9,-0.0,X0,OK,4.0,    
18.50,2.828,5381.1,-441.2,1177.6,8.76,0.36,-13.86,123.4,-714.7,20.8,5.6,-0.7,-0.0,X0,OK,4.0,    
19.00,2.814,5356.0,-434.4,1171.6,8.78,0.36,-13.81,123.3,-721.0,20.8,5.6,-0.6,-0.0,X0,OK,4.0,    
19.50,2.801,5330.9,-427.7,1165.5,8.85,0.36,-13.76,123.2,-731.8,20.6,5.6,-1.2,-0.0,X0,OK,4.0,    
20.00,2.787,5305.9,-421.1,1159.4,8.96,0.36,-13.71,123.2,-735.1,20.2,5.7,-2.7,-0.0,X0,OK,4.0,    
20.50,2.773,5280.8,-414.5,1153.3,9.11,0.36,-13.66,123.1,-736.9,19.7,5.9,-4.6,-0.0,X0,OK,4.0,    
21.00,2.759,5255.8,-408.2,1147.1,9.20,0.36,-13.61,123.0,-735.7,19.2,6.0,-6.0,-0.0,X0,OK,4.0,    
21.50,2.746,5230.7,-402.1,1141.0,9.17,0.35,-13.57,122.9,-734.4,18.7,5.9,-6.1,-0.0,X0,OK,4.0,    
22.00,2.732,5205.6,-396.3,1134.9,9.14,0.35,-13.53,122.8,-742.8,18.4,5.9,-5.4,-0.0,X0,OK,4.0,    
22.50,2.718,5180.5,-390.6,1128.6,9.14,0.35,-13.48,122.7,-748.3,18.1,5.8,-4.6,-0.0,X0,OK,4.0,    
23.00,2.704,5155.3,-385.2,1122.4,9.20,0.35,-13.44,122.6,-750.9,17.8,5.9,-4.1,-0.0,X0,OK,4.0,    
23.50,2.691,5130.2,-379.9,1116.1,9.16,0.35,-13.41,122.5,-753.9,17.5,5.8,-3.9,-0.0,X0,OK,4.0,    
24.00,2.677,5105.0,-374.8,1109.8,8.92,0.34,-13.37,122.5,-758.8,17.1,5.5,-4.1,-0.0,X0,OK,4.0,    
24.50,2.663,5079.9,-369.8,1103.4,8.60,0.34,-13.33,122.4,-783.7,16.8,5.1,-4.4,-0.0,X0,OK,4.0,    
25.00,2.649,5054.7,-365.1,1096.8,8.36,0.34,-13.30,122.5,-817.2,16.5,4.7,-4.7,-0.0,X0,OK,4.0,    
25.50,2.636,5029.4,-360.5,1089.8,8.43,0.33,-13.27,122.6,-851.8,16.2,4.6,-4.7,-0.0,X0,OK,4.0,    
26.00,2.622,5004.1,-356.2,1082.6,8.73,0.33,-13.24,122.7,-873.1,15.8,4.8,-4.7,-0.0,X0,OK,4.0,    
26.50,2.608,4978.8,-352.0,1075.3,8.85,0.32,-13.21,122.7,-877.9,15.5,5.0,-4.6,-0.0,X0,OK,4.0,    
27.00,2.594,4953.5,-348.0,1068.0,8.57,0.32,-13.19,122.7,-887.0,15.2,4.6,-4.4,-0.0,X0,OK,4.0,    
27.50,2.580,4928.1,-344.2,1060.5,8.16,0.31,-13.16,122.8,-920.4,15.0,4.1,-4.4,-0.0,X0,OK,4.0,    
28.00,2.566,4902.7,-340.6,1052.6,8.03,0.30,-13.14,123.1,-956.8,14.7,3.8,-4.3,-0.0,X0,OK,4.0,    
28.50,2.553,4877.2,-337.1,1044.5,8.26,0.29,-13.12,123.3,-988.2,14.3,3.9,-4.3,-0.0,X0,OK,4.0,    
29.00,2.539,4851.6,-333.8,1036.2,8.57,0.28,-13.10,123.4,-1001.2,13.9,4.1,-4.4,-0.0,X0,OK,4.0,    
29.50,2.525,4826.0,-330.7,1027.9,8.70,0.27,-13.09,123.5,-1002.3,13.6,4.3,-4.5,-0.0,X0,OK,4.0,    
30.00,2.511,4800.3,-327.8,1019.6,8.48,0.26,-13.07,123.5,-1000.2,13.2,4.1,-4.6,-0.0,X0,OK,4.0,    
30.50,2.497,4774.6,-325.1,1011.1,8.22,0.25,-13.06,123.7,-1019.8,12.9,3.7,-4.6,-0.0,X0,OK,4.0,    
31.00,2.483,4748.9,-322.6,1002.6,8.16,0.24,-13.05,124.0,-1042.9,12.6,3.6,-4.6,-0.0,X0,OK,4.0,    
31.50,2.469,4723.0,-320.3,993.8,8.30,0.23,-13.05,124.2,-1055.0,12.2,3.7,-4.5,-0.0,X0,OK,4.0,    
32.00,2.455,4697.1,-318.1,985.0,8.36,0.22,-13.04,124.5,-1048.4,11.9,3.8,-4.5,-0.0,X0,OK,4.0,    
32.50,2.441,4671.1,-316.2,976.3,8.18,0.20,-13.04,124.7,-1046.8,11.6,3.6,-4.5,-0.0,X0,OK,4.0,    
33.00,2.427,4645.0,-314.4,967.6,7.90,0.19,-13.04,125.0,-1054.1,11.3,3.3,-4.5,-0.0,X0,OK,4.0,    
33.50,2.413,4618.9,-312.8,958.7,7.84,0.18,-13.04,125.4,-1068.4,11.0,3.2,-4.4,-0.0,X0,OK,4.0,    
34.00,2.398,4592.6,-311.4,949.8,7.96,0.17,-13.05,125.7,-1068.1,10.7,3.4,-4.4,-0.0,X0,OK,4.0,    
34.50,2.384,4566.3,-310.2,941.0,8.09,0.15,-13.05,125.9,-1056.6,10.3,3.5,-4.4,-0.0,X0,OK,4.0,    
35.00,2.370,4539.9,-309.2,932.2,8.10,0.14,-13.06,126.1,-1038.2,10.0,3.6,-4.4,-0.0,X0,OK,4.0,    
35.50,2.356,4513.4,-308.3,923.6,8.00,0.13,-13.08,126.3,-1024.0,9.7,3.6,-4.5,-0.0,X0,OK,4.0,    
36.00,2.341,4486.9,-307.7,915.1,7.87,0.12,-13.09,126.5,-1015.9,9.4,3.5,-4.5,-0.0,X0,OK,4.0,    
36.50,2.327,4460.3,-307.3,906.7,7.76,0.11,-13.11,126.7,-1002.5,9.0,3.5,-4.5,-0.0,X0,OK,4.0,    
37.00,2.313,4433.7,-307.0,898.4,7.78,0.09,-13.13,126.9,-991.3,8.6,3.5,-5.1,-0.0,X0,OK,4.0,    
37.50,2.298,4407.0,-306.9,890.2,7.82,0.08,-13.16,127.0,-972.0,8.2,3.7,-5.5,0.0,X0,OK,4.0,    
38.00,2.284,4380.3,-307.2,882.2,7.80,0.07,-13.18,127.2,-954.8,7.8,3.7,-5.5,0.0,X0,OK,4.0,    
38.50,2.269,4353.6,-307.6,874.3,7.70,0.06,-13.21,127.4,-935.0,7.4,3.7,-5.3,0.0,X0,OK,4.0,    
39.00,2.255,4326.7,-308.3,866.6,7.56,0.05,-13.25,127.7,-915.1,7.1,3.6,-5.1,0.0,X0,OK,4.0,    
39.50,2.241,4299.8,-309.2,859.0,7.47,0.05,-13.29,128.0,-897.7,6.7,3.6,-5.0,0.0,X0,OK,4.0,    
40.00,2.226,4272.8,-310.3,851.6,7.42,0.04,-13.33,128.2,-874.4,6.4,3.7,-4.9,0.0,X0,OK,4.0,    
40.50,2.212,4245.8,-311.6,844.4,7.42,0.03,-13.38,128.4,-853.5,6.0,3.8,-5.0,0.0,X0,OK,4.0,    
41.00,2.197,4218.8,-313.2,837.4,7.49,0.02,-13.42,128.5,-825.0,5.6,4.0,-5.0,0.0,X0,OK,4.0,    
41.50,2.183,4191.7,-314.9,830.7,7.55,0.02,-13.48,128.7,-786.8,5.2,4.2,-5.1,0.0,X0,OK,4.0,    
42.00,2.168,4164.6,-316.9,824.3,7.53,0.01,-13.53,128.7,-751.0,4.9,4.3,-5.1,0.0,X0,OK,4.0,    
42.50,2.154,4137.5,-319.2,818.2,7.37,0.01,-13.59,128.8,-716.6,4.5,4.3,-5.1,0.0,X0,OK,4.0,    
43.00,2.139,4110.3,-321.7,812.3,7.22,0.01,-13.66,128.9,-691.7,4.2,4.2,-5.1,0.0,X0,OK,4.0,    
43.50,2.125,4083.2,-324.3,806.6,7.12,0.01,-13.73,129.0,-671.5,3.8,4.2,-5.0,0.0,X0,OK,4.0,    
44.00,2.110,4056.1,-327.3,801.1,7.08,0.01,-13.80,129.1,-654.0,3.5,4.3,-4.4,0.0,X0,OK,4.0,    
44.50,2.096,4028.9,-330.4,795.7,7.05,0.01,-13.88,129.1,-630.3,3.4,4.4,-3.1,0.0,X0,OK,4.0,    
45.00,2.081,4001.8,-333.6,790.6,7.00,0.01,-13.96,129.1,-606.4,3.2,4.4,-2.2,0.0,X0,OK,4.0,    
45.50,2.067,3974.7,-337.0,785.6,6.97,0.01,-14.04,129.0,-588.3,3.1,4.5,-1.9,0.0,X0,OK,4.0,    
46.00,2.053,3947.6,-340.4,780.7,7.05,0.01,-14.12,128.9,-569.6,2.9,4.6,-2.0,0.0,X0,OK,4.0,    
46.50,2.038,3920.6,-343.9,776.1,7.12,0.01,-14.21,128.6,-545.2,2.7,4.8,-2.4,0.0,X0,OK,4.0,    
47.00,2.024,3893.6,-347.6,771.6,7.05,0.02,-14.30,128.4,-528.1,2.6,4.8,-2.8,0.0,X0,OK,4.0,    
47.50,2.010,3866.7,-351.3,767.3,6.88,0.02,-14.40,128.3,-521.2,2.4,4.7,-2.8,0.0,X0,OK,4.0,    
48.00,1.995,3839.9,-355.2,762.9,6.75,0.03,-14.49,128.2,-525.6,2.3,4.5,-2.8,0.0,X0,OK,4.0,    
48.50,1.981,3813.1,-359.2,758.5,6.71,0.03,-14.59,128.1,-528.8,2.1,4.5,-2.6,0.0,X0,OK,4.0,    
49.00,1.967,3786.3,-363.3,754.1,6.76,0.04,-14.69,128.0,-537.7,1.9,4.5,-2.5,0.0,X0,OK,4.0,    
49.50,1.953,3759.6,-367.5,749.6,6.82,0.04,-14.80,127.9,-542.2,1.7,4.5,-2.5,0.0,X0,OK,4.0,    
50.00,1.939,3732.9,-371.7,745.1,6.82,0.04,-14.90,127.7,-544.0,1.5,4.5,-2.5,0.0,X0,OK,4.0,    
50.50,1.925,3706.3,-376.1,740.5,6.81,0.05,-15.02,127.5,-554.0,1.3,4.5,-2.5,0.0,X0,OK,4.0,    
51.00,1.911,3679.7,-380.6,735.8,6.79,0.05,-15.13,127.3,-570.1,1.1,4.4,-2.6,0.0,X0,OK,4.0,    
51.50,1.897,3653.3,-385.2,731.0,6.81,0.05,-15.25,127.1,-585.7,0.9,4.3,-2.2,0.0,X0,OK,4.0,    
52.00,1.883,3626.8,-389.9,726.1,6.86,0.05,-15.37,126.9,-600.3,0.8,4.3,-2.1,0.0,X0,OK,4.0,    
52.50,1.869,3600.5,-394.6,721.0,6.91,0.05,-15.49,126.7,-616.2,0.6,4.3,-2.2,0.0,X0,OK,4.0,    
53.00,1.855,3574.2,-399.4,715.8,6.97,0.05,-15.61,126.6,-635.4,0.5,4.2,-2.4,0.0,X0,OK,4.0,    
53.50,1.842,3547.9,-404.4,710.4,6.98,0.05,-15.74,126.5,-648.2,0.4,4.2,-2.2,0.0,X0,OK,4.0,    
54.00,1.828,3521.7,-409.4,705.0,7.04,0.05,-15.88,126.4,-668.1,0.3,4.2,-1.4,0.0,X0,OK,4.0,    
54.50,1.814,3495.5,-414.5,699.3,7.21,0.05,-16.01,126.4,-680.1,0.3,4.3,-0.7,0.0,X0,OK,4.0,    
55.00,1.801,3469.4,-419.6,693.7,7.42,0.05,-16.15,126.5,-679.0,0.3,4.5,0.0,0.0,X0,OK,4.0,    
55.50,1.787,3443.2,-424.8,688.0,7.57,0.05,-16.29,126.5,-670.6,0.4,4.7,1.1,0.0,X0,OK,4.0,    
56.00,1.773,3417.0,-429.9,682.5,7.58,0.04,-16.43,126.5,-658.3,0.6,4.8,1.8,0.0,X0,OK,4.0,    
56.50,1.760,3390.8,-434.9,677.0,7.58,0.04,-16.58,126.4,-647.3,0.7,4.8,1.9,0.0,X0,OK,4.0,    
57.00,1.746,3364.6,-439.9,671.7,7.65,0.04,-16.72,126.3,-638.8,0.8,4.9,1.6,0.0,X0,OK,4.0,    
57.50,1.732,3338.4,-444.8,666.4,7.77,0.04,-16.86,126.3,-631.1,0.9,5.1,1.3,0.0,X0,OK,4.0,    
58.00,1.719,3312.2,-449.7,661.2,7.85,0.04,-17.01,126.2,-618.9,1.3,5.2,2.7,0.0,X0,OK,4.0,    
58.50,1.705,3286.0,-454.5,656.1,7.83,0.04,-17.16,126.1,-609.7,2.0,5.2,6.4,0.0,X0,OK,4.0,    
59.00,1.691,3259.8,-459.0,651.0,7.71,0.04,-17.30,126.0,-602.7,2.9,5.1,9.9,-0.0,X0,OK,4.0,    
59.50,1.678,3233.6,-463.0,646.0,7.68,0.04,-17.44,126.0,-607.0,3.7,5.0,11.2,-0.0,X0,OK,4.0,    
60.00,1.664,3207.3,-466.6,640.9,7.76,0.04,-17.58,125.9,-614.8,4.4,5.1,11.2,-0.0,X0,OK,4.0,    
60.50,1.650,3181.0,-469.8,635.8,7.90,0.04,-17.71,125.8,-616.9,5.2,5.2,11.3,-0.0,X0,OK,4.0,    
61.00,1.636,3154.7,-472.6,630.6,7.97,0.04,-17.83,125.7,-616.7,6.1,5.2,11.9,-0.0,X0,OK,4.0,    
61.50,1.623,3128.3,-474.9,625.5,7.99,0.04,-17.94,125.7,-620.0,7.1,5.2,12.5,-0.0,X0,OK,4.0,    
62.00,1.609,3102.0,-476.6,620.3,8.01,0.04,-18.05,125.6,-625.4,8.1,5.2,12.7,-0.0,X0,OK,4.0,    
62.50,1.595,3075.6,-477.8,615.0,8.07,0.04,-18.15,125.5,-629.6,9.1,5.2,12.6,-0.0,X0,OK,4.0,    
63.00,1.581,3049.3,-478.5,609.8,8.21,0.04,-18.24,125.4,-636.3,10.1,5.3,12.4,-0.0,X0,OK,4.0,    
63.50,1.567,3023.0,-478.7,604.5,8.29,0.04,-18.33,125.4,-633.8,11.0,5.4,12.4,-0.0,X0,OK,4.0,    
64.00,1.553,2996.7,-478.3,599.2,8.33,0.04,-18.40,125.3,-629.6,12.0,5.4,12.4,-0.0,X0,OK,4.0,    
64.50,1.539,2970.4,-477.4,594.0,8.32,0.04,-18.47,125.2,-630.3,12.9,5.4,12.7,-0.0,X0,OK,4.0,    
65.00,1.525,2944.1,-475.9,588.7,8.32,0.04,-18.52,125.2,-632.9,13.9,5.4,13.0,-0.0,X0,OK,4.0,    
65.50,1.511,2917.9,-473.9,583.4,8.33,0.04,-18.57,125.1,-635.2,14.8,5.4,13.1,-0.0,X0,OK,4.0,    
66.00,1.496,2891.8,-471.4,578.1,8.42,0.04,-18.60,125.0,-638.7,15.8,5.5,13.1,-0.0,X0,OK,4.0,    
66.50,1.482,2865.7,-468.3,572.8,8.45,0.04,-18.63,124.9,-638.8,16.7,5.5,13.0,-0.0,X0,OK,4.0,    
67.00,1.468,2839.7,-464.6,567.5,8.47,0.04,-18.64,124.9,-637.3,17.6,5.5,12.8,-0.0,X0,OK,4.0,    
67.50,1.454,2813.8,-460.4,562.2,8.48,0.04,-18.65,124.8,-639.5,18.5,5.5,12.7,-0.0,X0,OK,4.0,    
68.00,1.440,2788.0,-455.7,556.8,8.52,0.04,-18.64,124.8,-642.3,19.5,5.6,12.7,-0.0,X0,OK,4.0,    
68.50,1.426,2762.3,-450.4,551.5,8.55,0.04,-18.62,124.7,-640.8,20.4,5.6,12.7,-0.0,X0,OK,4.0,    
69.00,1.411,2736.7,-444.6,546.1,8.57,0.04,-18.59,124.7,-646.0,21.4,5.6,12.8,-0.0,X0,OK,4.0,    
69.50,1.397,2711.2,-438.2,540.7,8.56,0.04,-18.54,124.6,-643.8,22.4,5.6,12.8,-0.0,X0,OK,4.0,    
70.00,1.383,2685.8,-431.4,535.4,8.58,0.04,-18.48,124.6,-646.8,23.3,5.6,12.9,-0.0,X0,OK,4.0,    
70.50,1.369,2660.5,-423.9,530.0,8.64,0.04,-18.41,124.5,-649.5,24.3,5.6,12.9,-0.0,X0,OK,4.0,    
71.00,1.355,2635.4,-416.0,524.5,8.79,0.04,-18.33,124.5,-657.0,25.1,5.8,12.3,-0.0,X0,OK,4.0,    
71.50,1.341,2610.5,-407.5,519.1,9.02,0.04,-18.23,124.5,-646.8,25.7,6.1,10.1,-0.0,X0,OK,4.0,    
72.00,1.327,2585.7,-398.6,513.8,9.13,0.04,-18.12,124.3,-618.2,26.0,6.4,7.1,-0.0,X0,OK,4.0,    
72.50,1.313,2561.0,-389.5,508.8,8.99,0.04,-18.00,124.2,-587.9,26.4,6.4,5.8,-0.0,X0,OK,4.0,    
73.00,1.299,2536.3,-380.1,503.9,8.79,0.04,-17.88,124.1,-569.2,27.0,6.2,6.5,-0.0,X0,OK,4.0,    
73.50,1.285,2511.8,-370.4,499.2,8.71,0.05,-17.74,124.0,-567.4,27.9,6.1,8.9,-0.0,X0,OK,4.0,    
74.00,1.271,2487.5,-360.4,494.5,8.72,0.05,-17.59,124.0,-565.2,28.7,6.1,10.2,-0.0,X0,OK,4.0,    
74.50,1.257,2463.3,-349.9,489.8,8.80,0.05,-17.43,123.9,-564.7,29.3,6.2,10.0,-0.0,X0,OK,4.0,    
75.00,1.244,2439.3,-339.0,485.1,8.91,0.06,-17.25,123.9,-560.7,29.7,6.4,8.6,-0.0,X0,OK,4.0,    
75.50,1.230,2415.4,-327.8,480.5,8.94,0.06,-17.06,123.7,-548.9,30.0,6.5,7.1,-0.0,X0,OK,4.0,    
76.00,1.216,2391.6,-316.3,475.9,8.84,0.07,-16.87,123.6,-536.1,30.5,6.4,6.7,-0.0,X0,OK,4.0,    
76.50,1.203,2368.0,-304.6,471.5,8.75,0.07,-16.66,123.6,-535.4,31.2,6.3,7.9,-0.0,X0,OK,4.0,    
77.00,1.189,2344.5,-292.6,467.0,8.71,0.07,-16.43,123.5,-540.9,31.9,6.3,8.7,-0.0,X0,OK,4.0,    
77.50,1.176,2321.1,-280.2,462.5,8.77,0.08,-16.20,123.5,-547.4,32.5,6.3,8.8,-0.0,X0,OK,4.0,    
78.00,1.163,2297.9,-267.5,457.9,8.87,0.08,-15.95,123.4,-550.9,33.1,6.4,8.1,-0.0,X0,OK,4.0,    
78.50,1.149,2274.9,-254.5,453.3,8.91,0.09,-15.68,123.3,-547.5,33.6,6.4,7.6,-0.0,X0,OK,4.0,    
79.00,1.136,2252.0,-241.3,448.8,8.85,0.09,-15.40,123.2,-547.3,34.3,6.4,7.9,-0.0,X0,OK,4.0,    
79.50,1.123,2229.3,-227.7,444.2,8.81,0.09,-15.11,123.2,-555.1,34.9,6.3,8.0,-0.0,X0,OK,4.0,    
80.00,1.110,2206.7,-213.8,439.5,8.88,0.09,-14.80,123.2,-563.6,35.3,6.3,7.2,-0.0,X0,OK,4.0,    
80.50,1.098,2184.3,-199.7,434.8,8.93,0.10,-14.48,123.1,-559.2,35.7,6.4,6.4,-0.0,X0,OK,4.0,    
81.00,1.085,2162.0,-185.3,430.1,8.95,0.10,-14.15,123.1,-560.9,36.2,6.5,6.2,-0.0,X0,OK,4.0,    
81.50,1.072,2139.8,-170.7,425.5,8.95,0.10,-13.80,123.0,-562.7,36.5,6.5,5.6,-0.0,X0,OK,4.0,    
82.00,1.060,2117.8,-155.9,420.8,8.99,0.10,-13.43,123.0,-566.7,36.7,6.5,4.2,-0.0,X0,OK,4.0,    
82.50,1.047,2095.9,-140.9,416.0,9.08,0.10,-13.05,123.0,-565.4,36.7,6.6,2.0,-0.0,X0,OK,4.0,    
83.00,1.035,2074.0,-125.8,411.3,9.17,0.10,-12.66,122.9,-560.7,36.4,6.7,-1.0,-0.0,X0,OK,4.0,    
83.50,1.022,2052.1,-110.8,406.7,9.17,0.10,-12.27,122.8,-549.9,35.9,6.7,-4.0,-0.0,X0,OK,4.0,    
84.00,1.010,2030.1,-95.9,402.1,9.10,0.10,-11.87,122.7,-547.2,35.5,6.7,-5.2,-0.0,X0,OK,4.0,    
84.50,0.998,2008.1,-81.3,397.6,9.06,0.10,-11.46,122.6,-552.3,35.3,6.6,-4.3,-0.0,X0,OK,4.0,    
85.00,0.985,1986.0,-66.8,393.0,9.09,0.10,-11.05,122.6,-553.9,35.4,6.6,-1.8,-0.0,X0,OK,4.0,    
85.50,0.973,1963.9,-52.3,388.4,9.12,0.10,-10.63,122.6,-553.0,35.5,6.7,0.4,-0.0,X0,OK,4.0,    
86.00,0.961,1941.9,-37.7,383.8,9.15,0.10,-10.20,122.5,-550.0,35.3,6.7,0.5,-0.0,X0,OK,4.0,    
86.50,0.949,1919.9,-23.2,379.2,9.18,0.10,-9.76,122.4,-547.4,35.0,6.8,-0.4,-0.0,X0,OK,4.0,    
87.00,0.937,1897.8,-8.7,374.6,9.23,0.10,-9.31,122.4,-550.9,34.6,6.8,-2.1,-0.0,X0,OK,4.0,    
87.50,0.925,1875.8,5.7,370.0,9.26,0.10,-8.85,122.3,-549.4,33.9,6.7,-5.2,-0.0,X0,OK,4.0,    
88.00,0.913,1853.6,19.9,365.4,9.25,0.10,-8.39,122.2,-554.4,33.2,6.7,-7.3,-0.0,X0,OK,4.0,    
88.50,0.901,1831.3,33.7,360.8,9.25,0.10,-7.93,122.2,-560.5,32.7,6.6,-7.9,-0.0,X0,OK,4.0,    
89.00,0.889,1808.9,47.3,356.1,9.29,0.10,-7.46,122.1,-565.7,31.8,6.6,-10.1,-0.0,X0,OK,4.0,    
89.50,0.877,1786.4,60.6,351.3,9.35,0.10,-6.99,122.0,-582.4,30.9,6.6,-12.0,-0.0,X0,OK,4.0,    
90.00,0.865,1763.6,73.3,346.4,9.39,0.09,-6.53,122.0,-598.5,29.8,6.5,-13.2,-0.0,X0,OK,4.0,    
90.50,0.853,1740.6,85.6,341.4,9.46,0.09,-6.07,122.3,-616.7,28.5,6.4,-14.3,-0.0,X0,OK,4.0,    
91.00,0.841,1717.3,97.4,336.2,9.54,0.08,-5.61,123.0,-615.5,27.3,6.5,-14.8,-0.0,X0,OK,4.0,    
91.50,0.828,1693.6,108.6,331.1,9.61,0.08,-5.16,123.6,-605.2,25.9,6.6,-15.0,-0.0,X0,OK,4.0,    
92.00,0.816,1669.5,119.3,326.2,9.66,0.08,-4.72,123.9,-587.4,24.6,6.7,-15.4,-0.0,X0,OK,4.0,    
92.50,0.803,1645.1,129.3,321.3,9.68,0.08,-4.28,124.2,-566.7,23.2,6.7,-15.9,-0.0,X0,OK,4.0,    
93.00,0.790,1620.5,138.7,316.7,9.67,0.08,-3.86,124.5,-549.0,21.9,6.8,-16.5,-0.0,X0,OK,4.0,    
93.50,0.777,1595.6,147.5,312.2,9.66,0.09,-3.44,124.7,-528.5,20.5,6.8,-16.9,-0.0,X0,OK,4.0,    
94.00,0.764,1570.3,155.4,307.9,9.66,0.09,-3.04,125.0,-504.7,19.1,6.9,-17.3,-0.0,X0,OK,4.0,    
94.50,0.751,1544.9,162.7,303.8,9.70,0.10,-2.66,125.2,-489.9,17.9,7.1,-16.9,-0.0,X0,OK,4.0,    
95.00,0.738,1519.3,169.1,299.8,9.59,0.12,-2.29,124.8,-465.0,17.4,7.2,-13.6,-0.0,X0,OK,4.0,    
95.50,0.724,1493.7,175.0,296.0,9.19,0.13,-1.93,123.9,-435.8,17.1,7.1,-9.7,-0.0,X0,OK,4.0,    
96.00,0.711,1468.3,180.5,292.4,8.71,0.15,-1.58,123.2,-438.8,16.6,6.6,-7.9,-0.0,X0,OK,4.0,    
96.50,0.698,1443.0,185.6,288.7,8.33,0.17,-1.22,122.9,-465.6,15.9,6.1,-7.8,-0.0,X0,OK,4.0,    
97.00,0.685,1417.7,190.4,284.6,8.20,0.18,-0.88,122.7,-509.4,15.2,5.8,-8.3,-0.0,X0,OK,4.0,    
97.50,0.672,1392.4,194.7,280.2,8.21,0.19,-0.53,122.4,-550.3,14.9,5.7,-6.7,-0.0,X0,OK,4.0,    
98.00,0.658,1367.1,198.7,275.5,8.24,0.20,-0.19,122.1,-578.5,14.6,5.6,-5.2,-0.0,XX,OK,4.0,    
98.50,0.645,1341.9,202.5,270.5,8.33,0.20,0.15,121.9,-612.6,14.3,5.5,-4.8,-0.0,XX,OK,4.0,    
99.00,0.632,1316.7,206.1,265.3,8.37,0.20,0.50,121.7,-642.5,13.8,5.4,-5.5,-0.0,XX,OK,4.0,    
99.50,0.619,1291.5,209.5,259.8,8.39,0.20,0.86,121.5,-682.6,13.2,5.2,-7.5,-0.0,XX,OK,4.0,(LUROS)X    
100.00,0.606,1266.3,212.5,253.9,8.39,0.19,1.21,121.4,-728.4,12.4,5.0,-9.9,-0.0,XX,OK,4.0,(LUROS)X    
100.50,0.593,1241.2,215.1,247.7,8.50,0.17,1.55,121.3,-779.4,11.6,4.8,-11.3,-0.0,XX,(OK),3.0,LUROSX    
101.00,0.580,1216.0,217.3,241.0,8.81,0.15,1.89,121.2,-825.9,10.7,4.9,-12.1,-0.0,XX,(OK),3.0,LUROSX    
101.50,0.567,1190.8,219.0,233.9,9.20,0.12,2.22,121.2,-859.2,9.5,5.1,-13.1,-0.0,XX,(OK),3.0,(SLO)LUROSX    
102.00,0.553,1165.6,220.1,226.7,9.52,0.08,2.53,121.0,-889.7,8.3,5.2,-13.5,-0.0,XX,(OK),3.0,(SLO)LUROSX    
102.50,0.540,1140.5,220.8,219.1,9.69,0.04,2.84,120.7,-919.0,7.0,5.2,-13.7,-0.0,XX,(OK),3.0,SLOLUROSX    
103.00,0.527,1115.5,220.8,211.3,9.84,-0.01,3.12,120.4,-953.1,5.6,5.1,-14.3,-0.0,XX,(OK),3.0,SLOLUROSX    
103.50,0.514,1090.5,220.3,203.2,10.04,-0.06,3.39,120.2,-995.9,4.0,5.0,-15.1,-0.0,XX,--,2.0,_SLOLUROS_X    
104.00,0.501,1065.6,219.1,194.8,10.41,-0.12,3.63,120.0,-1034.3,2.5,5.1,-15.9,-0.0,XX,--,2.0,_SLOLUROS_X    
104.50,0.487,1040.8,217.2,186.0,11.01,-0.19,3.84,120.3,-1064.7,1.0,5.4,-16.8,-0.0,IM,--,2.0,_SLOLUROS_X    
105.00,0.474,1015.9,214.6,177.1,11.57,-0.27,4.02,121.3,-1065.1,0.7,5.9,-18.3,-0.0,IM,--,2.0,_SLOLUROS_X _SLOLUR_IM   
105.50,0.460,990.7,211.1,168.3,11.89,-0.35,4.16,122.2,-1046.7,2.3,6.4,-19.5,-0.0,IM,--,2.0,_SLOLUROS_X _SLOLUR_IM   
106.00,0.446,965.5,206.6,159.7,11.94,-0.42,4.26,122.8,-1018.1,3.7,6.7,-18.7,-0.0,IM,--,2.0,_SLOLUROS_X _SLO_(LO)_LUR_IM   
106.50,0.433,940.4,201.4,151.4,11.98,-0.50,4.30,122.8,-971.9,4.6,7.0,-15.2,-0.0,IM,--,2.0,_SLOLUROS_X _SLO_(LO)_LUR_IM   
107.00,0.419,915.4,195.4,143.5,11.98,-0.57,4.31,122.2,-915.4,5.2,7.4,-11.3,-0.0,IM,--,2.0,_SLOLUROS_X _SLO_(LO)_LUR_IM   
107.50,0.405,890.6,189.1,136.1,11.85,-0.63,4.28,121.6,-862.4,6.0,7.5,-10.3,-0.0,IM,--,2.0,_SLOLUROS_X _SLO_(LO)_LUR_IM   
108.00,0.391,866.1,182.2,129.1,11.67,-0.70,4.21,121.3,-829.5,6.9,7.5,-10.5,-0.0,IM,--,2.0,_SLOLUROS_X _SLO_LO_LUR_IM   
108.50,0.377,841.7,174.9,122.3,11.40,-0.76,4.09,121.5,-804.6,7.4,7.5,-8.6,-0.0,IM,--,2.0,_SLOLUROS_X _SLO_LO_LUR_IM   
109.00,0.364,817.3,167.0,115.7,11.11,-0.82,3.94,122.6,-754.5,7.2,7.6,-4.0,-0.0,IM,--,2.0,_SLOLUROS_X _SLO_LO_LUR_IM   
109.50,0.350,792.6,158.9,109.7,10.82,-0.86,3.76,123.7,-680.3,6.5,7.8,2.1,-0.0,IM,--,2.0,_SLOLUROS_X _SLO_LO_LUR_IM   
110.00,0.336,767.7,150.9,104.4,10.65,-0.90,3.57,123.7,-602.4,5.9,8.1,5.0,-0.0,IM,--,2.0,_SLOLUROS_X _SLO_LO_LUR_IM   
110.50,0.322,742.8,143.0,99.6,10.66,-0.92,3.39,123.8,-530.2,6.1,8.4,2.1,-0.0,IM,--,2.0,_SLOLUROS_X _SLO_LO_LUR_IM   
111.00,0.307,717.8,135.1,95.6,10.38,-0.93,3.18,124.5,-437.1,6.9,8.3,-3.9,-0.0,IM,--,2.0,_SLOLUROS_X _SLOLOLUR_IM   
111.50,0.293,692.7,126.8,92.2,9.48,-0.91,2.93,125.1,-370.5,7.5,7.7,-7.4,-0.0,IM,--,2.0,_SLOLUROS_X _SLOLOLUR_IM   
112.00,0.279,667.6,118.1,89.3,8.55,-0.88,2.62,125.1,-352.4,7.3,7.0,-5.6,0.0,IM,--,2.0,_SLOLUROS_X _SLOLOLUR_IM   
112.50,0.265,642.5,109.2,86.4,8.21,-0.85,2.25,125.5,-335.8,6.9,6.7,-1.2,0.0,IM,--,2.0,_SLOLUROS_X _SLOLOLUR_IM   
113.00,0.250,617.2,100.3,83.7,8.32,-0.81,1.85,126.3,-297.3,6.5,7.0,3.4,-0.0,IM,--,2.0,_SLOLUROS_X _SLOLOLUR_IM   
113.50,0.236,591.9,91.5,81.4,8.46,-0.75,1.43,125.9,-258.7,6.0,7.4,7.7,-0.0,IC,--,2.0,_SLOLUROS_X _SLOLOLUR_IM   
114.00,0.222,566.6,83.0,79.3,8.29,-0.67,1.00,124.8,-242.0,5.4,7.4,10.3,-0.0,IC,--,2.0,_SLOLUROS_X _SLOLOLUR_IM  LOLURIC 
114.50,0.208,541.6,75.0,77.3,7.94,-0.59,0.57,124.1,-261.1,4.9,6.9,10.5,-0.0,IC,--,2.0,_SLOLUROS_X _SLOLOLUR_IM  LOLURIC 
115.00,0.194,516.5,67.3,74.9,7.52,-0.51,0.13,123.9,-310.3,4.2,6.2,10.8,-0.0,IC,--,2.0,_SLOLUROS_X _SLOLOLUR_IM  LOLURIC 
115.50,0.180,491.4,59.9,72.1,7.22,-0.45,-0.32,123.8,-381.5,2.6,5.5,14.3,-0.0,IC,--,2.0,_SLOLUROS_X _SLOLOLUR_IM  LOLURIC 
116.00,0.166,466.2,53.1,68.5,7.28,-0.40,-0.76,123.7,-472.7,0.4,5.0,19.4,-0.0,IC,--,2.0,_SLOLUROS_X _SLOLOLUR_IM  (F)LOLUR DLIC 
116.50,0.152,440.9,47.0,64.1,7.88,-0.39,-1.12,123.6,-587.4,1.5,5.0,20.9,-0.0,IC,--,2.0,_SLOLUROS_X _SLOLOLUR_IM  (F)LOLUR DLIC 
117.00,0.138,415.4,41.9,58.9,8.94,-0.42,-1.38,123.6,-661.2,2.3,5.9,15.7,-0.0,IC,--,2.0,_SLOLUROS_X _SLOLOLUR_IM  (F)LOLUR DLIC 
117.50,0.124,389.9,37.4,53.3,9.75,-0.48,-1.57,123.7,-654.5,2.1,6.8,6.5,-0.0,IC,--,2.0,_SLOLUROS_X _SLOLOLUR_IM  (F)LOLUR DLIC 
118.00,0.110,364.1,33.0,48.1,9.45,-0.52,-1.77,124.9,-584.8,1.5,6.9,2.5,0.0,IC,--,2.0,_SLOLUROS_X _SLOLOLUR_IM  SLOLOLUL DLIC 
118.50,0.095,338.2,28.5,43.5,8.61,-0.53,-2.02,125.6,-531.0,2.3,6.3,4.2,0.0,IC,--,2.0,_SLOLUROS_X _SLOLOLUR_IM  SLOLOLUL DLIC 
119.00,0.081,312.0,24.4,39.2,8.39,-0.52,-2.23,126.1,-515.2,2.8,6.1,4.1,0.0,IC,--,2.0,_SLOLUROS_X _SLOLOLUR_IM  SLOLOLUL DLIC 
119.50,0.067,285.6,20.5,35.0,8.55,-0.48,-2.43,126.3,-472.5,2.9,6.5,2.4,0.0,IC,--,2.0,_SLOLUROS_X _SLOLOLUR_IM  SLOLOLUL DLIC 
120.00,0.052,259.3,16.7,31.3,8.78,-0.40,-2.65,125.9,-422.0,2.9,6.9,1.1,0.0,IC,--,2.0,_SLOLUROS_X _SLOLOLUR_IM  SLOLOLUL DLIC 
120.50,0.038,233.1,13.0,27.9,8.43,-0.24,-2.94,125.1,-388.6,2.9,6.7,2.0,0.0,AR,--,2.0,_SLOLUROS_X _SLOLOLUR_IM  SLOLOLUL DLIC 
121.00,0.024,207.2,9.4,24.7,7.40,-0.01,-3.30,124.2,-408.8,3.0,5.6,3.1,-0.0,AR,--,2.0,_SLOLUROS_X _SLOLOLUR_IM  SLOLOLUL DLIC LULAR
121.50,0.010,181.4,6.0,20.9,6.34,0.25,-3.75,123.9,-493.3,2.9,4.2,3.2,-0.0,AR,--,2.0,_SLOLUROS_X _SLOLOLUR_IM  SLOLOLUL DLIC LULAR
122.00,-0.005,155.4,2.7,16.5,5.51,0.53,-4.45,126.1,-589.7,2.9,3.1,2.9,-0.0,AR,--,2.0,_SLOLUROS_X _SLOLOLUR_IM  SLOLOLUL DLIC LULAR
122.50,-0.019,128.6,-0.7,11.3,5.73,0.97,-5.89,129.8,-613.6,2.9,3.2,2.2,-0.0,AR,--,2.0,_SLOLUROS_X _SLOLOLUR_IM  SLOLOLUL DLIC LULAR
123.00,-0.034,100.9,-4.0,6.6,6.51,3.49,-12.09,132.8,-497.4,3.1,4.5,1.9,-0.0,AR,--,2.0,_SLOLUROS_X _SLOLOLUR_IM  SLOLOLUL DLIC LULAR
123.50,-0.049,72.5,-7.3,3.3,7.67,1.09,-169.87,134.8,-253.2,3.3,6.7,1.8,-0.0,AR,--,2.0,_SLOLUROS_X _SLOLOLUR_IM  SLOLOLUL DLIC LULAR
124.00,-0.065,43.8,-10.6,3.2,8.20,-2.13,-178.75,135.8,109.2,3.4,8.7,1.6,-0.0,AR,--,2.0,_SLOLUROS_X _SLOLOLUR_IM  SLOLOLUL DLIC LULAR
124.50,-0.080,16.6,-13.6,4.3,8.15,-2.40,179.62,114.6,205.2,3.6,9.2,1.4,-0.0,AR,--,2.0,_SLOLUROS_X _SLOLOLUR_IM  SLOLOLUL DLIC LULAR
125.00,-0.090,-2.7,-15.8,4.9,9.41,-2.53,179.12,82.2,-145.6,4.0,8.5,0.8,-0.0,AR,--,2.0,_SLOLUROS_X _SLOLOLUR_IM  SLOLOLUL DLIC LULAR
125.50,-0.097,-15.5,-17.3,0.5,10.46,-3.42,178.88,75.5,-426.0,4.2,7.4,0.6,-0.0,AR,--,2.0,_SLOLUROS_X _SLOLOLUR_IM  SLOLOLUL DLIC LULAR
126.00,-0.105,-29.2,-18.7,-0.2,8.28,-3.53,178.66,74.5,-348.1,4.3,5.7,0.2,-0.0,AR,--,2.0,_SLOLUROS_X _SLOLOLUR_IM  SLOLOLUL DLIC LULAR
