#Time,Rho,X,Z,Alt,AoA,GSE,LUE,Vtot,Vy,Gamma,Pitch,Roll,Yaw,Step,Grade,Points,Details
0.00,34.967,60338.8,23937.4,17214.7,1.27,1.13,12.53,692.3,-10248.5,12.0,-7.0,-0.7,-0.0,n/a,OK,4.0,    
0.50,34.875,60179.4,23876.8,17129.3,1.25,1.12,12.54,691.1,-10243.0,12.0,-7.0,-0.7,-0.0,n/a,OK,4.0,    
1.00,34.783,60020.3,23816.3,17044.0,1.25,1.11,12.54,689.9,-10232.2,12.0,-7.1,-0.8,-0.0,n/a,OK,4.0,    
1.50,34.691,59861.5,23755.9,16958.8,1.24,1.09,12.54,688.7,-10216.9,12.0,-7.1,-0.8,-0.0,n/a,OK,4.0,    
2.00,34.600,59703.0,23695.5,16873.7,1.23,1.08,12.54,687.6,-10204.7,12.0,-7.1,-0.8,-0.0,n/a,OK,4.0,    
2.50,34.508,59544.9,23635.2,16788.7,1.22,1.07,12.54,686.4,-10189.7,12.0,-7.1,-0.7,-0.0,n/a,OK,4.0,    
3.00,34.417,59387.0,23575.0,16703.8,1.23,1.06,12.55,685.2,-10178.7,12.0,-7.1,-0.7,-0.0,n/a,OK,4.0,    
3.50,34.326,59229.4,23514.8,16619.0,1.24,1.05,12.55,684.1,-10169.9,12.1,-7.1,-0.6,-0.0,n/a,OK,4.0,    
4.00,34.235,59072.1,23454.6,16534.3,1.26,1.04,12.55,682.9,-10164.6,12.1,-7.0,-0.5,-0.0,n/a,OK,4.0,    
4.50,34.144,58915.1,23394.5,16449.6,1.26,1.03,12.55,681.8,-10162.2,12.0,-7.0,-0.4,-0.0,n/a,OK,4.0,    
5.00,34.054,58758.3,23334.5,16365.0,1.25,1.02,12.55,680.7,-10156.4,12.0,-7.0,-0.4,-0.0,n/a,OK,4.0,    
5.50,33.963,58601.9,23274.6,16280.3,1.24,1.01,12.56,679.5,-10148.9,12.0,-7.0,-0.5,-0.0,n/a,OK,4.0,    
6.00,33.873,58445.8,23214.7,16195.8,1.23,0.99,12.56,678.4,-10136.7,12.0,-7.1,-0.5,-0.0,n/a,OK,4.0,    
6.50,33.783,58289.9,23154.9,16111.4,1.22,0.98,12.56,677.3,-10126.5,12.0,-7.1,-0.6,-0.0,n/a,OK,4.0,    
7.00,33.693,58134.3,23095.1,16027.1,1.21,0.97,12.56,676.2,-10111.0,12.0,-7.1,-0.6,-0.0,n/a,OK,4.0,    
7.50,33.603,57979.0,23035.4,15942.9,1.20,0.96,12.56,675.1,-10095.5,12.0,-7.1,-0.6,-0.0,n/a,OK,4.0,    
8.00,33.513,57824.0,22975.7,15858.8,1.21,0.95,12.57,674.0,-10086.1,12.0,-7.1,-0.7,-0.0,n/a,OK,4.0,    
8.50,33.424,57669.2,22916.1,15774.8,1.23,0.94,12.57,672.9,-10078.9,12.0,-7.1,-0.7,-0.0,n/a,OK,4.0,    
9.00,33.335,57514.8,22856.6,15690.8,1.23,0.92,12.57,671.8,-10064.2,12.0,-7.1,-0.6,-0.0,n/a,OK,4.0,    
9.50,33.245,57360.6,22797.1,15607.0,1.22,0.91,12.57,670.8,-10050.7,12.0,-7.1,-0.6,-0.0,n/a,OK,4.0,    
10.00,33.156,57206.6,22737.6,15523.3,1.22,0.90,12.57,669.7,-10038.4,12.0,-7.1,-0.6,-0.0,n/a,OK,4.0,    
10.50,33.067,57053.0,22678.2,15439.7,1.22,0.89,12.57,668.7,-10016.6,12.0,-7.1,-0.6,-0.0,n/a,OK,4.0,    
11.00,32.978,56899.6,22618.9,15356.3,1.22,0.88,12.58,667.6,-9995.4,12.0,-7.1,-0.6,-0.0,n/a,OK,4.0,    
11.50,32.890,56746.5,22559.6,15273.2,1.21,0.86,12.58,666.6,-9968.1,12.0,-7.1,-0.6,-0.0,n/a,OK,4.0,    
12.00,32.801,56593.6,22500.4,15190.2,1.19,0.85,12.58,665.5,-9937.7,12.0,-7.1,-0.6,-0.0,n/a,OK,4.0,    
12.50,32.713,56441.0,22441.2,15107.5,1.19,0.84,12.58,664.5,-9911.2,12.1,-7.1,-0.5,-0.0,n/a,OK,4.0,    
13.00,32.625,56288.6,22382.0,15025.0,1.20,0.83,12.58,663.4,-9883.6,12.1,-7.1,-0.4,-0.0,n/a,OK,4.0,    
13.50,32.537,56136.5,22322.9,14942.7,1.22,0.82,12.58,662.4,-9866.5,12.1,-7.1,-0.3,-0.0,n/a,OK,4.0,    
14.00,32.449,55984.7,22263.9,14860.6,1.22,0.80,12.58,661.4,-9843.5,12.0,-7.1,-0.3,-0.0,n/a,OK,4.0,    
14.50,32.361,55833.1,22205.0,14778.6,1.20,0.79,12.58,660.4,-9823.5,12.1,-7.1,-0.3,-0.0,n/a,OK,4.0,    
15.00,32.273,55681.7,22146.0,14696.9,1.19,0.78,12.59,659.4,-9804.4,12.1,-7.1,-0.2,-0.0,n/a,OK,4.0,    
15.50,32.185,55530.6,22087.2,14615.2,1.21,0.77,12.59,658.4,-9784.8,12.1,-7.1,-0.2,-0.0,n/a,OK,4.0,    
16.00,32.098,55379.8,22028.4,14533.7,1.22,0.76,12.59,657.3,-9773.0,12.1,-7.1,-0.1,-0.0,n/a,OK,4.0,    
16.50,32.011,55229.2,21969.7,14452.4,1.21,0.74,12.59,656.4,-9753.5,12.1,-7.1,-0.0,-0.0,n/a,OK,4.0,    
17.00,31.924,55078.8,21911.0,14371.2,1.19,0.73,12.59,655.3,-9734.2,12.0,-7.1,-0.1,-0.0,n/a,OK,4.0,    
17.50,31.837,54928.7,21852.5,14290.1,1.19,0.72,12.59,654.3,-9715.5,12.1,-7.1,-0.1,-0.0,n/a,OK,4.0,    
18.00,31.750,54778.9,21794.0,14209.2,1.19,0.71,12.59,653.4,-9695.9,12.1,-7.1,-0.1,-0.0,n/a,OK,4.0,    
18.50,31.663,54629.2,21735.5,14128.5,1.19,0.69,12.59,652.4,-9679.5,12.1,-7.1,-0.1,-0.0,n/a,OK,4.0,    
19.00,31.576,54479.8,21677.1,14047.9,1.18,0.68,12.59,651.4,-9664.5,12.1,-7.1,-0.0,-0.0,n/a,OK,4.0,    
19.50,31.490,54330.7,21618.8,13967.4,1.18,0.67,12.60,650.5,-9649.4,12.1,-7.1,-0.0,-0.0,n/a,OK,4.0,    
20.00,31.404,54181.8,21560.5,13887.1,1.18,0.66,12.60,649.6,-9631.9,12.1,-7.1,-0.0,-0.0,n/a,OK,4.0,    
20.50,31.317,54033.1,21502.3,13806.9,1.17,0.64,12.60,648.6,-9617.8,12.1,-7.1,-0.1,-0.0,n/a,OK,4.0,    
21.00,31.231,53884.6,21444.2,13726.8,1.17,0.63,12.60,647.7,-9600.2,12.1,-7.1,-0.0,-0.0,n/a,OK,4.0,    
21.50,31.145,53736.4,21386.1,13646.8,1.17,0.62,12.60,646.8,-9587.5,12.1,-7.1,0.0,-0.0,n/a,OK,4.0,    
22.00,31.060,53588.4,21328.1,13567.0,1.17,0.61,12.60,645.8,-9572.5,12.1,-7.1,0.1,-0.0,n/a,OK,4.0,    
22.50,30.974,53440.6,21270.1,13487.3,1.17,0.59,12.60,645.0,-9560.1,12.1,-7.1,0.1,-0.0,n/a,OK,4.0,    
23.00,30.888,53293.0,21212.2,13407.7,1.16,0.58,12.60,644.1,-9545.4,12.1,-7.1,0.1,-0.0,n/a,OK,4.0,    
23.50,30.803,53145.7,21154.4,13328.2,1.15,0.57,12.60,643.1,-9534.0,12.1,-7.1,0.1,-0.0,n/a,OK,4.0,    
24.00,30.717,52998.6,21096.7,13248.8,1.16,0.55,12.60,642.3,-9524.2,12.1,-7.1,0.1,-0.0,n/a,OK,4.0,    
24.50,30.632,52851.7,21039.0,13169.4,1.16,0.54,12.60,641.4,-9514.3,12.1,-7.1,0.0,-0.0,n/a,OK,4.0,    
25.00,30.547,52705.0,20981.3,13090.2,1.16,0.53,12.61,640.5,-9507.0,12.1,-7.1,0.0,-0.0,n/a,OK,4.0,    
25.50,30.462,52558.5,20923.7,13011.0,1.15,0.52,12.61,639.7,-9498.7,12.1,-7.1,0.1,-0.0,n/a,OK,4.0,    
26.00,30.377,52412.2,20866.2,12931.9,1.15,0.50,12.61,638.8,-9485.4,12.1,-7.1,0.1,-0.0,n/a,OK,4.0,    
26.50,30.293,52266.2,20808.8,12852.9,1.16,0.49,12.61,638.0,-9479.0,12.1,-7.1,0.1,-0.0,n/a,OK,4.0,    
27.00,30.208,52120.3,20751.4,12773.9,1.15,0.48,12.61,637.2,-9469.8,12.1,-7.1,0.1,-0.0,n/a,OK,4.0,    
27.50,30.123,51974.7,20694.0,12695.0,1.15,0.46,12.61,636.3,-9461.2,12.1,-7.1,0.1,-0.0,n/a,OK,4.0,    
28.00,30.039,51829.2,20636.7,12616.2,1.15,0.45,12.61,635.6,-9448.2,12.1,-7.1,0.2,-0.0,n/a,OK,4.0,    
28.50,29.955,51684.0,20579.5,12537.5,1.15,0.44,12.61,634.7,-9439.3,12.1,-7.1,0.2,-0.0,n/a,OK,4.0,    
29.00,29.870,51538.9,20522.4,12458.9,1.14,0.42,12.61,634.0,-9427.4,12.1,-7.1,0.2,-0.0,n/a,OK,4.0,    
29.50,29.786,51394.0,20465.2,12380.4,1.14,0.41,12.61,633.3,-9413.5,12.1,-7.1,0.3,-0.0,n/a,OK,4.0,    
30.00,29.702,51249.3,20408.2,12302.0,1.15,0.39,12.61,632.5,-9407.7,12.1,-7.1,0.3,-0.0,n/a,OK,4.0,    
30.50,29.619,51104.8,20351.2,12223.6,1.16,0.38,12.61,631.8,-9390.9,12.1,-7.1,-0.0,-0.0,n/a,OK,4.0,    
31.00,29.535,50960.5,20294.2,12145.5,1.17,0.37,12.61,631.1,-9353.8,12.2,-7.0,-1.3,-0.0,n/a,OK,4.0,    
31.50,29.451,50816.3,20237.2,12067.7,1.18,0.35,12.61,630.4,-9310.3,12.3,-7.0,-2.9,-0.0,n/a,OK,4.0,    
32.00,29.367,50672.4,20180.2,11990.4,1.18,0.34,12.61,629.6,-9257.6,12.4,-7.0,-4.6,-0.0,n/a,OK,4.0,    
32.50,29.284,50528.7,20122.9,11913.4,1.18,0.33,12.61,628.9,-9201.0,12.5,-6.9,-6.3,-0.0,n/a,OK,4.0,    
33.00,29.200,50385.2,20065.5,11837.0,1.18,0.31,12.61,628.3,-9145.2,12.6,-6.9,-8.0,-0.0,n/a,OK,4.0,    
33.50,29.117,50242.0,20007.7,11761.0,1.18,0.30,12.61,627.6,-9092.5,12.8,-6.8,-9.5,-0.0,n/a,OK,4.0,    
34.00,29.034,50099.2,19949.6,11685.4,1.17,0.28,12.61,626.9,-9048.5,13.0,-6.8,-10.5,-0.0,n/a,OK,4.0,    
34.50,28.951,49956.6,19891.2,11610.1,1.16,0.27,12.61,626.3,-9028.8,13.0,-6.8,-5.0,-0.0,n/a,OK,4.0,    
35.00,28.868,49814.2,19832.7,11534.9,1.14,0.26,12.61,625.7,-9021.5,12.9,-6.8,1.8,-0.0,n/a,OK,4.0,    
35.50,28.785,49672.0,19774.3,11459.7,1.12,0.24,12.61,625.1,-9016.3,12.8,-6.8,4.3,-0.0,n/a,OK,4.0,    
36.00,28.702,49529.8,19716.2,11384.7,1.13,0.23,12.61,624.6,-8994.9,12.7,-6.8,4.9,-0.0,n/a,OK,4.0,    
36.50,28.619,49387.6,19658.2,11309.8,1.13,0.22,12.61,624.0,-8972.3,12.7,-6.8,4.8,-0.0,n/a,OK,4.0,    
37.00,28.536,49245.6,19600.5,11235.1,1.13,0.20,12.60,623.4,-8956.0,12.6,-6.8,4.6,-0.0,n/a,OK,4.0,    
37.50,28.453,49103.6,19542.9,11160.5,1.13,0.19,12.60,622.9,-8941.1,12.6,-6.8,4.3,-0.0,n/a,OK,4.0,    
38.00,28.371,48961.7,19485.4,11086.1,1.11,0.17,12.60,622.4,-8926.2,12.5,-6.8,3.1,-0.0,n/a,OK,4.0,    
38.50,28.288,48819.9,19428.2,11011.7,1.11,0.16,12.60,621.9,-8918.7,12.5,-6.8,1.0,-0.0,n/a,OK,4.0,    
39.00,28.205,48678.2,19370.9,10937.4,1.10,0.15,12.60,621.4,-8914.2,12.6,-6.8,-0.0,-0.0,n/a,OK,4.0,    
39.50,28.123,48536.7,19313.7,10863.2,1.09,0.13,12.60,620.9,-8907.6,12.6,-6.8,-0.3,-0.0,n/a,OK,4.0,    
40.00,28.041,48395.2,19256.5,10789.0,1.09,0.12,12.60,620.5,-8903.7,12.6,-6.8,-0.4,-0.0,n/a,OK,4.0,    
40.50,27.958,48253.9,19199.3,10714.8,1.09,0.10,12.60,620.1,-8897.6,12.6,-6.8,-0.4,-0.0,n/a,OK,4.0,    
41.00,27.876,48112.6,19142.1,10640.7,1.09,0.09,12.60,619.6,-8886.6,12.6,-6.8,-0.3,-0.0,n/a,OK,4.0,    
41.50,27.794,47971.5,19085.0,10566.7,1.08,0.07,12.60,619.2,-8875.8,12.6,-6.8,-0.3,-0.0,n/a,OK,4.0,    
42.00,27.712,47830.5,19027.8,10492.7,1.08,0.06,12.60,618.9,-8867.8,12.6,-6.8,-0.4,-0.0,n/a,OK,4.0,    
42.50,27.630,47689.6,18970.7,10418.9,1.08,0.05,12.59,618.5,-8860.0,12.7,-6.8,-0.5,-0.0,n/a,OK,4.0,    
43.00,27.547,47548.8,18913.5,10345.1,1.07,0.03,12.59,618.2,-8848.9,12.7,-6.8,-0.5,-0.0,n/a,OK,4.0,    
43.50,27.465,47408.0,18856.4,10271.4,1.07,0.02,12.59,617.8,-8842.7,12.7,-6.8,-0.5,-0.0,n/a,OK,4.0,    
44.00,27.383,47267.4,18799.2,10197.7,1.06,0.00,12.59,617.5,-8832.8,12.7,-6.8,-0.5,-0.0,n/a,OK,4.0,    
44.50,27.302,47126.8,18742.0,10124.1,1.06,-0.01,12.59,617.2,-8825.2,12.7,-6.8,-0.5,-0.0,n/a,OK,4.0,    
45.00,27.220,46986.4,18684.8,10050.6,1.05,-0.03,12.59,616.9,-8815.0,12.7,-6.8,-0.5,-0.0,n/a,OK,4.0,    
45.50,27.138,46846.0,18627.6,9977.2,1.07,-0.04,12.59,616.7,-8799.0,12.8,-6.8,-0.8,-0.0,n/a,OK,4.0,    
46.00,27.056,46705.7,18570.3,9904.0,1.07,-0.06,12.59,616.4,-8765.5,12.8,-6.8,-1.6,-0.0,n/a,OK,4.0,    
46.50,26.974,46565.4,18513.0,9831.1,1.07,-0.07,12.58,616.1,-8733.0,12.9,-6.8,-2.5,-0.0,n/a,OK,4.0,    
47.00,26.892,46425.3,18455.5,9758.5,1.06,-0.09,12.58,615.9,-8696.3,12.9,-6.7,-3.3,-0.0,n/a,OK,4.0,    
47.50,26.811,46285.3,18397.9,9686.1,1.07,-0.10,12.58,615.6,-8664.9,13.0,-6.7,-4.1,-0.0,n/a,OK,4.0,    
48.00,26.729,46145.4,18340.2,9614.1,1.07,-0.12,12.58,615.4,-8628.9,13.1,-6.7,-4.9,-0.0,n/a,OK,4.0,    
48.50,26.647,46005.7,18282.2,9542.4,1.07,-0.13,12.58,615.2,-8584.6,13.2,-6.6,-5.7,-0.0,n/a,OK,4.0,    
49.00,26.566,45866.0,18224.0,9471.0,1.07,-0.15,12.57,614.9,-8543.6,13.3,-6.6,-6.4,-0.0,n/a,OK,4.0,    
49.50,26.484,45726.6,18165.6,9399.9,1.06,-0.16,12.57,614.7,-8512.3,13.4,-6.6,-6.8,-0.0,n/a,OK,4.0,    
50.00,26.402,45587.3,18106.9,9329.0,1.05,-0.18,12.57,614.5,-8503.3,13.5,-6.6,-6.6,-0.0,n/a,OK,4.0,    
50.50,26.321,45448.1,18047.9,9258.2,1.05,-0.19,12.56,614.3,-8490.4,13.6,-6.6,-6.5,-0.0,n/a,OK,4.0,    
51.00,26.239,45309.1,17988.7,9187.5,1.04,-0.21,12.56,614.1,-8476.8,13.7,-6.6,-6.5,-0.0,n/a,OK,4.0,    
51.50,26.158,45170.3,17929.2,9117.0,1.04,-0.22,12.55,613.9,-8462.7,13.8,-6.6,-6.5,-0.0,n/a,OK,4.0,    
52.00,26.076,45031.6,17869.5,9046.5,1.03,-0.24,12.55,613.8,-8452.0,14.0,-6.6,-6.6,-0.0,n/a,OK,4.0,    
52.50,25.995,44893.1,17809.5,8976.1,1.03,-0.25,12.54,613.6,-8443.2,14.1,-6.6,-6.6,-0.0,n/a,OK,4.0,    
53.00,25.913,44754.7,17749.2,8905.8,1.03,-0.27,12.54,613.4,-8436.2,14.2,-6.6,-6.6,-0.0,n/a,OK,4.0,    
53.50,25.832,44616.4,17688.7,8835.5,1.02,-0.28,12.53,613.3,-8425.5,14.3,-6.6,-6.6,-0.0,n/a,OK,4.0,    
54.00,25.750,44478.4,17627.9,8765.4,1.02,-0.30,12.52,613.1,-8415.0,14.4,-6.6,-6.6,-0.0,n/a,OK,4.0,    
54.50,25.669,44340.4,17566.9,8695.3,1.02,-0.31,12.52,613.0,-8410.2,14.5,-6.6,-6.6,-0.0,n/a,OK,4.0,    
55.00,25.588,44202.6,17505.6,8625.2,1.01,-0.33,12.51,612.9,-8404.4,14.6,-6.6,-6.6,-0.0,n/a,OK,4.0,    
55.50,25.506,44065.0,17444.0,8555.2,1.01,-0.35,12.50,612.8,-8401.7,14.7,-6.6,-6.6,-0.0,n/a,OK,4.0,    
56.00,25.425,43927.5,17382.1,8485.2,1.01,-0.36,12.49,612.6,-8392.1,14.8,-6.6,-6.6,-0.0,n/a,OK,4.0,    
56.50,25.344,43790.1,17320.0,8415.3,1.01,-0.38,12.49,612.5,-8390.2,14.9,-6.6,-6.6,-0.0,n/a,OK,4.0,    
57.00,25.262,43652.9,17257.6,8345.4,1.00,-0.39,12.48,612.4,-8384.5,15.0,-6.6,-6.6,-0.0,n/a,OK,4.0,    
57.50,25.181,43515.9,17195.0,8275.5,1.00,-0.41,12.47,612.3,-8381.4,15.1,-6.6,-6.6,-0.0,n/a,OK,4.0,    
58.00,25.100,43379.0,17132.1,8205.7,1.00,-0.43,12.46,612.2,-8377.2,15.2,-6.6,-6.6,-0.0,n/a,OK,4.0,    
58.50,25.019,43242.2,17068.9,8135.9,1.00,-0.44,12.45,612.1,-8373.0,15.3,-6.6,-6.6,-0.0,n/a,OK,4.0,    
59.00,24.937,43105.6,17005.4,8066.2,1.00,-0.46,12.44,612.0,-8369.0,15.5,-6.6,-6.6,-0.0,n/a,OK,4.0,    
59.50,24.856,42969.1,16941.7,7996.4,1.00,-0.47,12.42,611.9,-8368.4,15.6,-6.6,-6.6,-0.0,n/a,OK,4.0,    
60.00,24.775,42832.7,16877.8,7926.7,0.99,-0.49,12.41,611.9,-8364.2,15.7,-6.6,-6.6,-0.0,n/a,OK,4.0,    
60.50,24.694,42696.5,16813.5,7857.0,0.99,-0.51,12.40,611.8,-8358.9,15.8,-6.6,-6.6,-0.0,n/a,OK,4.0,    
61.00,24.613,42560.4,16749.0,7787.4,0.99,-0.52,12.39,611.8,-8353.4,15.9,-6.6,-6.6,-0.0,n/a,OK,4.0,    
61.50,24.532,42424.5,16684.2,7717.8,0.99,-0.54,12.37,611.7,-8351.8,16.0,-6.6,-6.6,-0.0,n/a,OK,4.0,    
62.00,24.451,42288.7,16619.2,7648.2,0.98,-0.56,12.36,611.6,-8350.0,16.1,-6.6,-6.6,-0.0,n/a,OK,4.0,    
62.50,24.370,42153.1,16553.8,7578.6,0.98,-0.58,12.35,611.5,-8348.1,16.2,-6.6,-6.6,-0.0,n/a,OK,4.0,    
63.00,24.288,42017.6,16488.3,7509.1,0.98,-0.59,12.33,611.5,-8341.9,16.3,-6.6,-6.6,-0.0,n/a,OK,4.0,    
63.50,24.207,41882.2,16422.4,7439.5,0.98,-0.61,12.32,611.4,-8342.3,16.4,-6.6,-6.6,-0.0,n/a,OK,4.0,    
64.00,24.126,41747.0,16356.3,7370.0,0.98,-0.63,12.30,611.4,-8338.4,16.5,-6.6,-6.6,-0.0,n/a,OK,4.0,    
64.50,24.045,41611.9,16289.9,7300.6,0.97,-0.64,12.29,611.3,-8333.8,16.6,-6.6,-6.5,-0.0,n/a,OK,4.0,    
65.00,23.964,41476.9,16223.3,7231.1,0.97,-0.66,12.27,611.3,-8332.3,16.7,-6.6,-5.9,-0.0,n/a,OK,4.0,    
65.50,23.883,41342.1,16156.4,7161.7,0.97,-0.68,12.25,611.2,-8328.4,16.8,-6.6,-4.8,-0.0,n/a,OK,4.0,    
66.00,23.803,41207.4,16089.3,7092.3,0.97,-0.70,12.24,611.2,-8328.7,16.9,-6.6,-3.6,-0.0,n/a,OK,4.0,    
66.50,23.722,41072.7,16022.1,7022.9,0.96,-0.72,12.22,611.2,-8328.9,16.9,-6.6,-3.1,-0.0,n/a,OK,4.0,    
67.00,23.641,40938.1,15954.7,6953.5,0.96,-0.73,12.20,611.1,-8327.5,17.0,-6.6,-3.5,-0.0,n/a,OK,4.0,    
67.50,23.560,40803.7,15887.2,6884.1,0.95,-0.75,12.18,611.1,-8327.1,17.0,-6.6,-3.9,-0.0,n/a,OK,4.0,    
68.00,23.479,40669.3,15819.5,6814.7,0.95,-0.77,12.16,611.1,-8327.9,17.1,-6.6,-4.0,-0.0,n/a,OK,4.0,    
68.50,23.398,40535.0,15751.6,6745.3,0.96,-0.79,12.14,611.0,-8326.9,17.2,-6.6,-4.0,-0.0,n/a,OK,4.0,    
69.00,23.317,40400.8,15683.6,6675.9,0.95,-0.81,12.12,611.0,-8321.1,17.2,-6.6,-3.8,-0.0,n/a,OK,4.0,    
69.50,23.236,40266.6,15615.4,6606.6,0.95,-0.83,12.10,611.0,-8320.2,17.3,-6.6,-3.2,-0.0,n/a,OK,4.0,    
70.00,23.155,40132.6,15547.1,6537.2,0.95,-0.84,12.08,611.0,-8319.2,17.3,-6.6,-2.9,-0.0,n/a,OK,4.0,    
70.50,23.075,39998.6,15478.6,6467.9,0.95,-0.86,12.06,611.0,-8318.1,17.4,-6.6,-2.8,-0.0,n/a,OK,4.0,    
71.00,22.994,39864.6,15410.0,6398.6,0.94,-0.88,12.04,610.9,-8317.6,17.4,-6.6,-2.4,-0.0,n/a,OK,4.0,    
71.50,22.913,39730.8,15341.3,6329.3,0.94,-0.90,12.02,610.9,-8318.6,17.4,-6.6,-1.2,-0.0,n/a,OK,4.0,    
72.00,22.832,39597.0,15272.6,6260.0,0.93,-0.92,12.00,610.9,-8320.0,17.4,-6.6,0.2,-0.0,n/a,OK,4.0,    
72.50,22.751,39463.1,15203.9,6190.7,0.95,-0.94,11.98,610.9,-8308.5,17.4,-6.6,1.1,-0.0,n/a,OK,4.0,    
73.00,22.671,39329.3,15135.1,6121.6,0.96,-0.96,11.96,610.9,-8274.0,17.4,-6.5,1.3,-0.0,n/a,OK,4.0,    
73.50,22.590,39195.4,15066.4,6052.8,0.97,-0.98,11.94,610.8,-8226.4,17.4,-6.5,1.2,-0.0,n/a,OK,4.0,    
74.00,22.509,39061.6,14997.7,5984.5,0.98,-1.00,11.91,610.7,-8157.7,17.4,-6.4,1.2,-0.0,n/a,OK,4.0,    
74.50,22.428,38927.7,14929.0,5916.9,0.99,-1.02,11.89,610.6,-8071.0,17.4,-6.3,1.2,-0.0,n/a,OK,4.0,    
75.00,22.347,38793.8,14860.4,5850.0,1.00,-1.04,11.87,610.5,-7973.9,17.4,-6.2,1.2,-0.0,n/a,OK,4.0,    
75.50,22.267,38659.9,14791.7,5784.0,1.03,-1.06,11.85,610.5,-7846.8,17.4,-6.1,1.1,-0.0,n/a,OK,4.0,    
76.00,22.186,38525.9,14723.1,5719.3,1.05,-1.08,11.83,610.3,-7681.9,17.3,-5.9,0.9,-0.0,n/a,OK,4.0,    
76.50,22.105,38392.0,14654.5,5656.0,1.06,-1.09,11.80,610.1,-7495.9,17.3,-5.7,0.8,-0.0,n/a,OK,4.0,    
77.00,22.024,38258.0,14585.9,5594.3,1.07,-1.11,11.78,609.9,-7303.9,17.3,-5.5,0.7,-0.0,n/a,OK,4.0,    
77.50,21.943,38124.0,14517.3,5534.2,1.07,-1.13,11.76,609.7,-7102.5,17.3,-5.3,0.7,-0.0,n/a,OK,4.0,    
78.00,21.863,37990.0,14448.7,5475.9,1.09,-1.14,11.73,609.5,-6891.5,17.3,-5.1,0.7,-0.0,n/a,OK,4.0,    
78.50,21.782,37856.0,14380.1,5419.4,1.09,-1.16,11.71,609.2,-6661.3,17.3,-4.9,0.7,-0.0,n/a,OK,4.0,    
79.00,21.701,37722.0,14311.6,5364.8,1.09,-1.17,11.69,608.9,-6429.2,17.3,-4.7,0.7,-0.0,n/a,OK,4.0,    
79.50,21.620,37588.1,14243.0,5312.1,1.10,-1.19,11.66,608.6,-6196.9,17.3,-4.5,0.7,-0.0,n/a,OK,4.0,    
80.00,21.540,37454.1,14174.5,5261.4,1.10,-1.20,11.64,608.2,-5960.9,17.3,-4.3,0.7,-0.0,n/a,OK,4.0,    
80.50,21.459,37320.1,14106.1,5212.7,1.10,-1.22,11.62,607.9,-5731.5,17.3,-4.1,0.7,-0.0,n/a,OK,4.0,    
81.00,21.378,37186.2,14037.6,5165.9,1.10,-1.23,11.59,607.5,-5495.4,17.3,-3.9,0.6,-0.0,n/a,OK,4.0,    
81.50,21.297,37052.4,13969.1,5121.0,1.10,-1.24,11.57,607.1,-5259.4,17.3,-3.7,0.4,-0.0,n/a,OK,4.0,    
82.00,21.217,36918.5,13900.7,5078.2,1.09,-1.25,11.54,606.7,-5018.7,17.3,-3.5,0.3,-0.0,n/a,OK,4.0,    
82.50,21.136,36784.8,13832.3,5037.3,1.09,-1.26,11.52,606.3,-4782.8,17.3,-3.2,0.2,-0.0,n/a,OK,4.0,    
83.00,21.056,36651.1,13763.9,4998.4,1.10,-1.27,11.50,605.8,-4547.7,17.3,-3.0,0.1,-0.0,n/a,OK,4.0,    
83.50,20.975,36517.4,13695.5,4961.4,1.10,-1.28,11.47,605.4,-4307.1,17.3,-2.8,-0.0,-0.0,n/a,OK,4.0,    
84.00,20.895,36383.9,13627.2,4926.4,1.10,-1.28,11.45,605.0,-4080.9,17.3,-2.6,-0.1,-0.0,n/a,OK,4.0,    
84.50,20.814,36250.4,13558.8,4893.3,1.04,-1.29,11.42,604.5,-3877.6,17.3,-2.5,-0.1,-0.0,n/a,OK,4.0,    
85.00,20.734,36117.0,13490.4,4861.4,0.95,-1.29,11.39,604.0,-3783.7,17.3,-2.5,-0.1,-0.0,n/a,OK,4.0,    
85.50,20.653,35983.8,13422.1,4830.0,0.93,-1.30,11.37,603.6,-3772.9,17.3,-2.5,-0.2,-0.0,n/a,OK,4.0,    
86.00,20.573,35851.0,13354.0,4798.7,0.95,-1.31,11.34,598.1,-3712.1,17.3,-2.4,-0.3,-0.0,n/a,OK,4.0,    
86.50,20.494,35720.2,13286.8,4768.2,0.97,-1.31,11.32,588.2,-3616.2,17.3,-2.4,-0.3,-0.0,n/a,OK,4.0,    
87.00,20.417,35591.4,13220.6,4738.4,0.97,-1.32,11.29,581.3,-3530.1,17.3,-2.4,-0.3,-0.0,n/a,OK,4.0,    
87.50,20.340,35464.0,13155.1,4709.3,0.97,-1.32,11.27,575.5,-3461.2,17.3,-2.3,-0.3,-0.0,n/a,OK,4.0,    
88.00,20.264,35337.9,13090.1,4680.8,1.01,-1.33,11.24,569.5,-3354.7,17.3,-2.2,-0.3,-0.0,n/a,OK,4.0,    
88.50,20.189,35213.3,13025.9,4653.3,1.03,-1.33,11.21,563.3,-3242.6,17.3,-2.1,-0.3,-0.0,n/a,OK,4.0,    
89.00,20.115,35090.1,12962.3,4626.8,1.04,-1.34,11.19,557.1,-3109.9,17.3,-2.0,-0.3,-0.0,n/a,OK,4.0,    
89.50,20.041,34968.3,12899.4,4601.4,1.05,-1.34,11.16,551.3,-2980.1,17.4,-1.9,-0.2,-0.0,n/a,OK,4.0,    
90.00,19.968,34847.8,12837.2,4576.8,0.99,-1.34,11.14,545.6,-2934.7,17.4,-2.0,-0.2,-0.0,n/a,OK,4.0,    
90.50,19.896,34728.6,12775.5,4552.5,1.03,-1.35,11.11,540.2,-2887.6,17.4,-1.9,-0.2,-0.0,n/a,OK,4.0,    
91.00,19.825,34610.6,12714.4,4528.6,1.04,-1.35,11.09,535.0,-2861.9,17.4,-1.9,-0.2,-0.0,n/a,OK,4.0,    
91.50,19.755,34493.8,12653.9,4504.9,1.02,-1.36,11.06,530.0,-2824.0,17.4,-1.9,-0.2,-0.0,n/a,OK,4.0,    
92.00,19.685,34378.1,12594.0,4481.4,1.05,-1.36,11.03,525.2,-2797.1,17.4,-1.8,-0.2,-0.0,n/a,OK,4.0,    
92.50,19.616,34263.5,12534.5,4458.2,1.04,-1.36,11.01,520.6,-2780.6,17.4,-1.9,-0.2,-0.0,n/a,OK,4.0,    
93.00,19.547,34149.9,12475.6,4435.1,1.03,-1.37,10.98,516.2,-2753.6,17.3,-1.9,-0.1,-0.0,n/a,OK,4.0,    
93.50,19.479,34037.4,12417.1,4412.2,1.02,-1.37,10.96,512.0,-2747.0,17.3,-1.9,-0.1,-0.0,n/a,OK,4.0,    
94.00,19.412,33925.8,12359.2,4389.4,1.03,-1.37,10.93,508.0,-2731.3,17.4,-1.9,-0.1,-0.0,n/a,OK,4.0,    
94.50,19.345,33815.1,12301.6,4366.6,1.03,-1.38,10.91,504.1,-2733.2,17.4,-1.9,-0.1,-0.0,n/a,OK,4.0,    
95.00,19.279,33705.3,12244.5,4343.9,1.05,-1.38,10.88,500.3,-2730.7,17.4,-1.9,-0.1,-0.0,n/a,OK,4.0,    
95.50,19.213,33596.4,12187.8,4321.1,1.05,-1.38,10.85,496.6,-2740.4,17.4,-1.9,-0.1,-0.0,n/a,OK,4.0,    
96.00,19.148,33488.3,12131.5,4298.2,1.08,-1.39,10.83,493.1,-2741.1,17.4,-1.9,-0.1,-0.0,n/a,OK,4.0,    
96.50,19.083,33381.1,12075.6,4275.4,1.07,-1.39,10.80,489.6,-2742.1,17.3,-2.0,-0.1,-0.0,n/a,OK,4.0,    
97.00,19.019,33274.6,12020.0,4252.5,1.08,-1.40,10.78,486.2,-2753.3,17.3,-2.0,-0.1,-0.0,n/a,OK,4.0,    
97.50,18.955,33168.9,11964.9,4229.5,1.14,-1.40,10.75,482.9,-2766.9,17.3,-2.0,-0.1,-0.0,n/a,OK,4.0,    
98.00,18.892,33064.0,11910.1,4206.4,1.17,-1.41,10.73,479.7,-2775.2,17.3,-2.0,-0.1,-0.0,n/a,OK,4.0,    
98.50,18.829,32959.8,11855.7,4183.3,1.21,-1.41,10.70,476.6,-2776.7,17.2,-2.0,-0.1,-0.0,n/a,OK,4.0,    
99.00,18.766,32856.4,11801.6,4160.2,1.20,-1.42,10.67,473.5,-2755.3,17.2,-2.1,-0.1,-0.0,n/a,OK,4.0,    
99.50,18.704,32753.6,11747.8,4137.3,1.24,-1.42,10.65,470.5,-2734.6,17.2,-2.1,-0.1,-0.0,n/a,OK,4.0,    
100.00,18.643,32651.5,11694.4,4114.7,1.24,-1.42,10.62,467.6,-2708.4,17.2,-2.1,-0.1,-0.0,n/a,OK,4.0,    
100.50,18.582,32550.1,11641.3,4092.2,1.25,-1.43,10.60,464.7,-2677.0,17.2,-2.1,-0.1,0.0,n/a,OK,4.0,    
101.00,18.521,32449.4,11588.5,4070.0,1.28,-1.43,10.57,461.9,-2654.7,17.2,-2.0,-0.1,0.0,n/a,OK,4.0,    
101.50,18.460,32349.3,11536.0,4048.0,1.30,-1.44,10.54,459.1,-2633.5,17.1,-2.0,-0.1,0.0,n/a,OK,4.0,    
102.00,18.400,32249.8,11483.8,4026.1,1.33,-1.44,10.52,456.4,-2620.8,17.2,-2.0,-0.1,0.0,n/a,OK,4.0,    
102.50,18.341,32150.9,11431.9,4004.3,1.34,-1.45,10.49,453.7,-2611.4,17.2,-2.0,-0.1,0.0,n/a,OK,4.0,    
103.00,18.281,32052.7,11380.3,3982.5,1.34,-1.45,10.46,451.1,-2605.7,17.1,-2.0,-0.1,0.0,n/a,OK,4.0,    
103.50,18.222,31955.1,11329.0,3960.8,1.33,-1.46,10.44,448.6,-2599.7,17.1,-2.0,-0.1,0.0,n/a,OK,4.0,    
104.00,18.164,31858.1,11278.0,3939.2,1.36,-1.46,10.41,446.1,-2596.2,17.1,-2.0,-0.1,0.0,n/a,OK,4.0,    
104.50,18.105,31761.6,11227.2,3917.6,1.39,-1.47,10.38,443.7,-2589.8,17.1,-2.0,-0.1,0.0,n/a,OK,4.0,    
105.00,18.047,31665.7,11176.7,3896.0,1.43,-1.47,10.36,441.2,-2588.8,17.1,-2.0,-0.1,0.0,n/a,OK,4.0,    
105.50,17.990,31570.4,11126.5,3874.4,1.46,-1.47,10.33,438.9,-2591.4,17.1,-2.0,-0.1,0.0,n/a,OK,4.0,    
106.00,17.933,31475.6,11076.5,3852.8,1.45,-1.48,10.30,436.5,-2602.8,17.1,-2.0,-0.1,0.0,n/a,OK,4.0,    
106.50,17.876,31381.3,11026.8,3831.0,1.48,-1.48,10.28,434.2,-2619.2,17.1,-2.0,-0.1,0.0,n/a,OK,4.0,    
107.00,17.819,31287.6,10977.3,3809.2,1.47,-1.49,10.25,431.9,-2632.9,17.1,-2.0,-0.2,0.0,n/a,OK,4.0,    
107.50,17.763,31194.4,10928.1,3787.1,1.48,-1.50,10.22,429.7,-2658.0,17.0,-2.0,-0.1,0.0,n/a,OK,4.0,    
108.00,17.707,31101.7,10879.1,3764.9,1.47,-1.50,10.20,427.6,-2682.3,17.0,-2.0,-0.1,0.0,n/a,OK,4.0,    
108.50,17.651,31009.6,10830.3,3742.4,1.53,-1.51,10.17,425.4,-2719.8,17.0,-2.0,-0.1,0.0,n/a,OK,4.0,    
109.00,17.596,30917.9,10781.8,3719.6,1.57,-1.51,10.14,423.3,-2750.0,17.0,-2.0,-0.1,0.0,n/a,OK,4.0,    
109.50,17.541,30826.7,10733.5,3696.6,1.54,-1.52,10.12,421.2,-2762.9,17.0,-2.0,-0.1,0.0,n/a,OK,4.0,    
110.00,17.486,30736.0,10685.5,3673.5,1.56,-1.52,10.09,419.2,-2782.2,17.0,-2.0,-0.2,0.0,n/a,OK,4.0,    
110.50,17.431,30645.8,10637.7,3650.2,1.60,-1.53,10.06,417.1,-2800.0,16.9,-2.0,-0.2,0.0,n/a,OK,4.0,    
111.00,17.377,30556.1,10590.1,3626.9,1.60,-1.54,10.03,415.2,-2808.1,16.9,-2.0,-0.2,0.0,n/a,OK,4.0,    
111.50,17.323,30466.9,10542.7,3603.5,1.61,-1.54,10.01,413.2,-2797.3,16.9,-2.0,-0.1,0.0,n/a,OK,4.0,    
112.00,17.270,30378.0,10495.5,3580.3,1.60,-1.55,9.98,411.3,-2780.2,16.9,-2.1,-0.2,0.0,n/a,OK,4.0,    
112.50,17.216,30289.7,10448.5,3557.1,1.66,-1.56,9.95,409.3,-2782.5,16.9,-2.0,-0.1,0.0,n/a,OK,4.0,    
113.00,17.163,30201.7,10401.7,3534.0,1.67,-1.56,9.92,407.4,-2767.5,16.9,-2.0,-0.2,0.0,n/a,OK,4.0,    
113.50,17.110,30114.3,10355.2,3511.0,1.65,-1.57,9.90,405.6,-2752.5,16.9,-2.0,-0.1,0.0,n/a,OK,4.0,    
114.00,17.058,30027.2,10308.8,3488.0,1.68,-1.58,9.87,403.7,-2750.2,16.9,-2.0,-0.1,0.0,n/a,OK,4.0,    
114.50,17.005,29940.6,10262.6,3465.2,1.68,-1.58,9.84,401.9,-2737.8,16.8,-2.0,-0.1,0.0,n/a,OK,4.0,    
115.00,16.953,29854.4,10216.7,3442.4,1.71,-1.59,9.81,400.1,-2737.4,16.8,-2.0,-0.1,0.0,n/a,OK,4.0,    
115.50,16.901,29768.6,10170.9,3419.6,1.75,-1.60,9.78,398.4,-2730.9,16.8,-2.0,-0.1,0.0,n/a,OK,4.0,    
116.00,16.850,29683.2,10125.3,3396.8,1.77,-1.60,9.75,396.6,-2726.7,16.8,-2.0,-0.1,0.0,n/a,OK,4.0,    
116.50,16.798,29598.3,10079.9,3374.1,1.68,-1.61,9.73,394.9,-2722.2,16.8,-2.1,0.4,0.0,n/a,OK,4.0,    
117.00,16.747,29513.7,10034.7,3351.2,1.74,-1.62,9.70,393.2,-2804.1,16.8,-2.2,1.5,0.0,n/a,OK,4.0,    
117.50,16.696,29429.5,9989.8,3327.8,1.86,-1.63,9.67,391.5,-2785.6,16.7,-2.1,1.4,0.0,n/a,OK,4.0,    
118.00,16.646,29345.6,9945.0,3304.6,1.71,-1.63,9.64,389.9,-2815.4,16.7,-2.3,1.1,0.0,n/a,OK,4.0,    
118.50,16.595,29262.2,9900.5,3280.6,1.73,-1.64,9.61,388.3,-2934.8,16.7,-2.4,1.0,0.0,n/a,OK,4.0,    
119.00,16.545,29179.1,9856.2,3255.8,1.74,-1.65,9.58,386.8,-3035.8,16.6,-2.5,0.9,0.0,n/a,OK,4.0,    
119.50,16.495,29096.3,9812.1,3230.1,1.66,-1.66,9.56,385.3,-3150.0,16.6,-2.8,0.9,0.0,n/a,OK,4.0,    
120.00,16.446,29013.9,9768.2,3203.3,1.78,-1.67,9.53,383.9,-3276.8,16.5,-3.0,0.9,0.0,n/a,OK,4.0,    
120.50,16.396,28931.9,9724.5,3175.6,1.76,-1.68,9.50,382.5,-3361.7,16.4,-3.1,0.9,0.0,n/a,OK,4.0,    
121.00,16.347,28850.2,9680.9,3147.2,1.71,-1.69,9.47,381.1,-3462.7,16.4,-3.3,0.9,0.0,n/a,OK,4.0,    
121.50,16.298,28768.8,9637.6,3118.0,1.85,-1.70,9.44,379.8,-3526.8,16.5,-3.3,0.8,0.0,n/a,OK,4.0,    
122.00,16.249,28687.6,9594.4,3088.6,2.03,-1.71,9.41,378.5,-3520.5,16.4,-3.2,0.8,0.0,n/a,OK,4.0,    
122.50,16.200,28606.8,9551.4,3059.3,2.05,-1.72,9.38,377.1,-3527.9,16.4,-3.1,0.7,0.0,n/a,OK,4.0,    
123.00,16.151,28526.3,9508.6,3029.9,2.06,-1.74,9.36,375.8,-3526.4,16.3,-3.1,0.8,0.0,n/a,OK,4.0,    
123.50,16.103,28446.1,9466.0,3000.6,1.99,-1.75,9.33,374.5,-3519.1,16.3,-3.2,0.8,0.0,n/a,OK,4.0,    
124.00,16.055,28366.2,9423.5,2971.2,1.99,-1.76,9.30,373.3,-3519.7,16.2,-3.2,0.7,0.0,n/a,OK,4.0,    
124.50,16.007,28286.5,9381.1,2941.9,2.04,-1.77,9.27,372.0,-3521.1,16.1,-3.1,0.5,0.0,n/a,OK,4.0,    
125.00,15.959,28207.1,9339.0,2912.5,2.05,-1.78,9.24,370.7,-3528.9,16.1,-3.1,0.5,0.0,n/a,OK,4.0,    
125.50,15.911,28128.1,9296.9,2883.1,2.07,-1.80,9.21,369.5,-3539.8,16.1,-3.1,0.5,0.0,n/a,OK,4.0,    
126.00,15.864,28049.2,9255.1,2853.5,2.14,-1.81,9.18,368.4,-3559.7,16.1,-3.1,0.5,0.0,n/a,OK,4.0,    
126.50,15.816,27970.7,9213.3,2823.8,2.24,-1.82,9.15,367.1,-3536.6,16.0,-3.0,0.5,0.0,n/a,OK,4.0,    
127.00,15.769,27892.4,9171.7,2794.7,2.22,-1.83,9.12,365.9,-3470.8,16.0,-2.9,0.5,0.0,n/a,OK,4.0,    
127.50,15.722,27814.4,9130.3,2766.0,2.32,-1.85,9.09,364.7,-3393.2,15.9,-2.7,0.5,0.0,n/a,OK,4.0,    
128.00,15.675,27736.7,9089.0,2738.3,2.34,-1.86,9.07,363.4,-3263.6,15.9,-2.5,0.5,0.0,n/a,OK,4.0,    
128.50,15.629,27659.2,9047.8,2711.5,2.38,-1.87,9.04,362.2,-3167.5,15.9,-2.4,0.5,0.0,n/a,OK,4.0,    
129.00,15.582,27582.0,9006.8,2685.5,2.44,-1.88,9.01,360.9,-3068.8,15.9,-2.2,0.5,0.0,n/a,OK,4.0,    
129.50,15.536,27505.1,8966.0,2660.3,2.46,-1.89,8.98,359.6,-2972.8,15.8,-2.0,0.5,0.0,n/a,OK,4.0,    
130.00,15.490,27428.4,8925.3,2635.8,2.35,-1.90,8.95,358.3,-2899.5,15.8,-2.0,0.5,0.0,n/a,OK,4.0,    
130.50,15.444,27352.0,8884.7,2611.9,2.35,-1.91,8.92,357.0,-2841.5,15.8,-1.9,0.5,0.0,n/a,OK,4.0,    
131.00,15.398,27275.9,8844.3,2588.4,2.28,-1.92,8.89,355.8,-2814.0,15.8,-2.0,0.5,0.0,n/a,OK,4.0,    
131.50,15.352,27200.1,8804.1,2564.9,2.27,-1.93,8.86,354.6,-2825.6,15.8,-2.0,0.5,0.0,n/a,OK,4.0,    
132.00,15.307,27124.6,8764.0,2541.3,2.29,-1.94,8.83,353.3,-2825.8,15.7,-2.0,0.5,0.0,n/a,OK,4.0,    
132.50,15.261,27049.3,8724.0,2517.8,2.28,-1.95,8.80,352.1,-2805.7,15.7,-2.1,0.5,0.0,n/a,OK,4.0,    
133.00,15.216,26974.3,8684.2,2494.4,2.17,-1.96,8.77,351.0,-2841.1,15.7,-2.3,0.5,0.0,n/a,OK,4.0,    
133.50,15.171,26899.6,8644.6,2470.5,2.30,-1.97,8.74,349.8,-2878.0,15.7,-2.2,0.5,0.0,n/a,OK,4.0,    
134.00,15.126,26825.1,8605.1,2446.6,2.32,-1.98,8.71,348.7,-2861.1,15.7,-2.2,0.5,0.0,n/a,OK,4.0,    
134.50,15.082,26750.9,8565.7,2422.7,2.27,-1.99,8.68,347.5,-2879.6,15.6,-2.3,0.5,0.0,n/a,OK,4.0,    
135.00,15.037,26676.9,8526.5,2398.6,2.32,-2.00,8.65,346.4,-2888.1,15.6,-2.2,0.5,0.0,n/a,OK,4.0,    
135.50,14.993,26603.3,8487.3,2374.6,2.34,-2.01,8.62,345.3,-2878.0,15.5,-2.2,0.5,0.0,n/a,OK,4.0,    
136.00,14.949,26529.8,8448.4,2350.7,2.40,-2.02,8.59,344.2,-2874.1,15.5,-2.2,0.5,0.0,n/a,OK,4.0,    
136.50,14.905,26456.6,8409.5,2326.8,2.50,-2.03,8.56,343.1,-2845.5,15.4,-2.0,0.5,0.0,n/a,OK,4.0,    
137.00,14.861,26383.7,8370.8,2303.3,2.51,-2.04,8.53,341.9,-2790.5,15.4,-1.9,0.5,0.0,n/a,OK,4.0,    
137.50,14.817,26311.0,8332.2,2280.3,2.56,-2.05,8.50,340.8,-2730.9,15.4,-1.7,0.5,0.0,n/a,OK,4.0,    
138.00,14.773,26238.6,8293.8,2257.8,2.56,-2.06,8.46,339.7,-2665.0,15.3,-1.6,0.4,0.0,n/a,OK,4.0,    
138.50,14.730,26166.4,8255.5,2235.7,2.47,-2.07,8.43,338.5,-2643.9,15.3,-1.7,0.4,0.0,n/a,OK,4.0,    
139.00,14.687,26094.4,8217.3,2213.7,2.52,-2.08,8.40,337.4,-2633.3,15.3,-1.7,0.4,0.0,n/a,OK,4.0,    
139.50,14.644,26022.8,8179.2,2192.0,2.73,-2.09,8.37,336.3,-2551.2,15.3,-1.4,0.4,0.0,n/a,OK,4.0,    
140.00,14.601,25951.3,8141.3,2171.3,2.83,-2.10,8.34,335.1,-2424.3,15.3,-1.1,0.4,0.0,n/a,OK,4.0,    
140.50,14.558,25880.1,8103.5,2151.7,2.90,-2.11,8.31,333.9,-2273.5,15.3,-0.8,0.4,0.0,n/a,OK,4.0,    
141.00,14.515,25809.2,8065.9,2133.4,2.93,-2.12,8.28,332.6,-2109.8,15.3,-0.5,0.4,0.0,n/a,OK,4.0,    
141.50,14.473,25738.6,8028.4,2116.4,2.89,-2.13,8.25,331.3,-1959.7,15.3,-0.3,0.4,0.0,n/a,OK,4.0,    
142.00,14.431,25668.2,7991.0,2100.6,2.87,-2.13,8.22,330.0,-1835.8,15.2,-0.2,0.4,0.0,n/a,OK,4.0,    
142.50,14.388,25598.1,7953.8,2085.8,2.89,-2.14,8.19,328.6,-1718.7,15.2,0.0,0.4,0.0,n/a,OK,4.0,    
143.00,14.347,25528.3,7916.7,2071.9,2.93,-2.14,8.15,327.4,-1610.3,15.2,0.2,0.4,0.0,n/a,OK,4.0,    
143.50,14.305,25458.8,7879.8,2058.9,2.99,-2.15,8.12,326.0,-1498.5,15.2,0.5,0.3,0.0,n/a,OK,4.0,    
144.00,14.263,25389.6,7843.1,2046.9,2.98,-2.15,8.09,324.6,-1367.5,15.2,0.7,0.4,0.0,n/a,OK,4.0,    
144.50,14.222,25320.7,7806.4,2036.0,2.98,-2.15,8.06,323.2,-1262.7,15.2,0.8,0.3,0.0,n/a,OK,4.0,    
145.00,14.181,25252.1,7770.0,2025.9,2.98,-2.16,8.03,321.8,-1168.6,15.2,1.0,0.3,0.0,n/a,OK,4.0,    
145.50,14.140,25183.9,7733.7,2016.4,2.97,-2.16,8.00,320.4,-1102.8,15.1,1.1,0.4,0.0,n/a,OK,4.0,    
146.00,14.099,25116.0,7697.6,2007.6,3.06,-2.16,7.96,319.0,-1007.9,15.1,1.3,0.4,0.0,n/a,OK,4.0,    
146.50,14.058,25048.3,7661.6,1999.5,3.05,-2.16,7.93,317.6,-922.7,15.1,1.5,0.4,0.0,n/a,OK,4.0,    
147.00,14.018,24981.0,7625.7,1992.2,3.13,-2.16,7.90,316.1,-824.1,15.1,1.7,0.4,0.0,n/a,OK,4.0,    
147.50,13.978,24914.1,7590.1,1985.8,3.15,-2.16,7.87,314.6,-709.8,15.1,1.9,0.4,0.0,n/a,OK,4.0,    
148.00,13.938,24847.5,7554.6,1980.3,3.12,-2.16,7.84,313.1,-611.9,15.1,2.1,0.4,0.0,n/a,OK,4.0,    
148.50,13.898,24781.2,7519.3,1975.5,3.00,-2.16,7.80,311.6,-551.5,15.1,2.0,0.4,0.0,n/a,OK,4.0,    
149.00,13.858,24715.2,7484.2,1970.9,2.91,-2.16,7.77,310.2,-551.2,15.1,2.0,0.4,0.0,n/a,OK,4.0,    
149.50,13.819,24649.6,7449.2,1966.3,2.95,-2.16,7.74,308.8,-549.7,15.1,2.0,0.4,0.0,n/a,OK,4.0,    
150.00,13.780,24584.3,7414.3,1961.7,2.99,-2.16,7.71,307.4,-553.4,15.1,2.0,0.4,0.0,n/a,OK,4.0,    
150.50,13.741,24519.4,7379.7,1957.1,3.02,-2.16,7.68,306.0,-558.6,15.0,2.0,0.4,0.0,n/a,OK,4.0,    
151.00,13.702,24454.7,7345.2,1952.5,3.10,-2.16,7.64,304.5,-538.2,15.0,2.1,0.4,0.0,n/a,OK,4.0,    
151.50,13.663,24390.4,7310.8,1948.1,3.15,-2.16,7.61,303.1,-505.4,15.0,2.2,0.4,0.0,n/a,OK,4.0,    
152.00,13.625,24326.4,7276.7,1944.1,3.17,-2.16,7.58,301.7,-466.6,15.0,2.3,0.4,0.0,n/a,OK,4.0,    
152.50,13.587,24262.7,7242.6,1940.3,3.15,-2.16,7.55,300.3,-441.8,15.0,2.3,0.4,0.0,n/a,OK,4.0,    
153.00,13.549,24199.4,7208.8,1936.6,3.11,-2.16,7.51,298.9,-444.7,15.0,2.2,0.4,0.0,n/a,OK,4.0,    
153.50,13.511,24136.4,7175.1,1932.9,3.12,-2.16,7.48,297.6,-455.8,15.0,2.3,0.4,0.0,n/a,OK,4.0,    
154.00,13.473,24073.7,7141.5,1929.0,3.15,-2.15,7.45,296.2,-466.5,15.0,2.3,0.4,0.0,n/a,OK,4.0,    
154.50,13.436,24011.2,7108.1,1925.1,3.19,-2.15,7.42,294.9,-482.2,15.0,2.3,0.4,0.0,n/a,OK,4.0,    
155.00,13.398,23949.1,7074.9,1921.0,3.35,-2.15,7.38,293.6,-482.0,15.0,2.4,0.4,0.0,n/a,OK,4.0,    
155.50,13.361,23887.3,7041.8,1917.3,3.57,-2.15,7.35,292.2,-405.2,15.0,2.8,0.3,0.0,n/a,OK,4.0,    
156.00,13.324,23825.9,7008.8,1914.3,3.59,-2.15,7.32,290.8,-315.3,14.9,3.0,0.4,0.0,n/a,OK,4.0,    
156.50,13.288,23764.7,6976.1,1912.0,3.60,-2.15,7.29,289.3,-238.0,14.9,3.1,0.8,0.0,n/a,OK,4.0,    
157.00,13.251,23703.9,6943.5,1910.3,3.64,-2.15,7.25,287.9,-156.0,14.8,3.3,2.1,0.0,n/a,OK,4.0,    
157.50,13.215,23643.4,6911.1,1909.3,3.70,-2.14,7.22,286.4,-78.4,14.7,3.5,3.5,0.0,n/a,OK,4.0,    
158.00,13.179,23583.1,6879.1,1909.0,3.75,-2.14,7.19,284.9,-2.2,14.5,3.7,4.8,0.0,n/a,OK,4.0,    
158.50,13.143,23523.2,6847.4,1909.3,3.77,-2.13,7.16,283.4,76.8,14.3,3.9,5.9,0.0,n/a,OK,4.0,    
159.00,13.107,23463.4,6816.1,1910.2,3.79,-2.13,7.13,281.8,140.9,14.0,4.0,7.0,0.0,n/a,OK,4.0,    
159.50,13.072,23403.9,6785.2,1911.6,3.81,-2.13,7.09,280.3,197.6,13.7,4.1,8.0,0.0,n/a,OK,4.0,    
160.00,13.037,23344.7,6754.8,1913.4,3.83,-2.12,7.06,278.8,241.9,13.4,4.2,8.9,0.0,n/a,OK,4.0,    
160.50,13.001,23285.6,6724.9,1915.6,3.84,-2.12,7.04,277.2,274.4,13.1,4.3,9.7,0.0,n/a,OK,4.0,    
161.00,12.966,23226.7,6695.5,1918.0,3.84,-2.11,7.01,275.6,302.8,12.7,4.4,9.8,0.0,n/a,OK,4.0,    
161.50,12.932,23168.1,6666.6,1920.6,3.81,-2.10,6.98,274.1,319.4,12.4,4.4,9.3,0.0,n/a,OK,4.0,    
162.00,12.897,23109.7,6638.2,1923.3,3.80,-2.10,6.95,272.6,320.0,12.1,4.4,9.0,0.0,n/a,OK,4.0,    
162.50,12.863,23051.4,6610.3,1925.9,3.81,-2.09,6.93,271.0,309.8,11.8,4.4,9.1,0.0,n/a,OK,4.0,    
163.00,12.829,22993.4,6582.9,1928.4,3.83,-2.09,6.90,269.6,281.7,11.5,4.4,9.2,0.0,n/a,OK,4.0,    
163.50,12.795,22935.6,6555.9,1930.6,3.84,-2.08,6.88,268.1,245.5,11.2,4.3,9.2,0.0,n/a,OK,4.0,    
164.00,12.761,22878.0,6529.5,1932.5,3.87,-2.08,6.86,266.6,204.8,10.9,4.3,9.2,0.0,n/a,OK,4.0,    
164.50,12.727,22820.6,6503.4,1934.1,3.87,-2.07,6.83,265.6,175.6,10.6,4.2,9.2,0.0,n/a,OK,4.0,    
165.00,12.693,22763.2,6477.8,1935.4,3.87,-2.07,6.81,265.8,146.6,10.3,4.2,9.2,0.0,n/a,OK,4.0,    
165.50,12.660,22705.5,6452.5,1936.5,3.86,-2.06,6.79,265.9,121.3,10.0,4.1,9.2,0.0,n/a,OK,4.0,    
166.00,12.626,22647.8,6427.6,1937.4,3.85,-2.06,6.77,265.2,96.7,9.7,4.1,9.2,0.0,n/a,OK,4.0,    
166.50,12.592,22590.1,6403.0,1938.1,3.86,-2.05,6.75,264.4,68.0,9.4,4.0,9.2,0.0,n/a,OK,4.0,    
167.00,12.559,22532.5,6378.9,1938.6,3.89,-2.05,6.73,263.6,33.9,9.1,4.0,9.2,0.0,n/a,OK,4.0,    
167.50,12.526,22475.0,6355.2,1938.7,3.92,-2.05,6.72,263.0,3.8,8.8,3.9,9.2,0.0,n/a,OK,4.0,    
168.00,12.492,22417.4,6331.9,1938.7,3.94,-2.04,6.70,262.5,-21.5,8.6,3.9,8.2,0.0,n/a,OK,4.0,    
168.50,12.459,22359.9,6308.9,1938.4,3.96,-2.04,6.69,262.0,-42.5,8.5,3.9,5.9,0.0,n/a,OK,4.0,    
169.00,12.426,22302.4,6286.2,1938.0,3.94,-2.03,6.67,261.5,-54.5,8.4,3.8,3.6,0.0,n/a,OK,4.0,    
169.50,12.393,22245.0,6263.6,1937.4,3.94,-2.03,6.65,260.9,-87.8,8.4,3.8,2.4,0.0,n/a,OK,4.0,    
170.00,12.359,22187.6,6241.2,1936.5,3.98,-2.03,6.64,260.5,-125.7,8.2,3.7,2.9,0.0,n/a,OK,4.0,    
170.50,12.326,22130.4,6219.0,1935.4,4.03,-2.02,6.63,260.0,-145.7,8.1,3.7,3.5,0.0,n/a,OK,4.0,    
171.00,12.294,22073.2,6196.9,1934.1,4.07,-2.02,6.61,259.5,-157.7,8.0,3.7,3.8,0.0,n/a,OK,4.0,    
171.50,12.261,22016.1,6175.1,1932.8,4.08,-2.02,6.60,258.9,-159.2,7.8,3.8,3.8,0.0,n/a,OK,4.0,    
172.00,12.228,21959.1,6153.4,1931.5,4.12,-2.02,6.58,258.0,-162.4,7.7,3.8,3.7,0.0,n/a,OK,4.0,    
172.50,12.195,21902.3,6132.0,1930.1,4.18,-2.01,6.57,257.2,-160.4,7.6,3.9,3.6,0.0,n/a,OK,4.0,    
173.00,12.163,21845.6,6110.7,1928.8,4.24,-2.01,6.56,256.5,-161.5,7.5,3.9,3.6,0.0,n/a,OK,4.0,    
173.50,12.130,21789.1,6089.6,1927.5,4.28,-2.01,6.54,255.8,-149.1,7.3,4.0,3.6,0.0,n/a,OK,4.0,    
174.00,12.098,21732.7,6068.8,1926.3,4.31,-2.00,6.53,255.1,-132.0,7.2,4.1,3.6,0.0,n/a,OK,4.0,    
174.50,12.066,21676.4,6048.1,1925.2,4.36,-2.00,6.52,254.3,-113.8,7.1,4.2,3.6,0.0,n/a,OK,4.0,    
175.00,12.033,21620.2,6027.6,1924.4,4.41,-2.00,6.51,253.6,-95.2,6.9,4.3,3.6,0.0,n/a,OK,4.0,    
175.50,12.001,21564.2,6007.4,1923.7,4.44,-1.99,6.50,252.8,-69.3,6.8,4.3,3.6,0.0,n/a,OK,4.0,    
176.00,11.969,21508.4,5987.3,1923.2,4.46,-1.99,6.49,252.0,-39.6,6.7,4.4,3.6,0.0,n/a,OK,4.0,    
176.50,11.937,21452.7,5967.4,1923.0,4.48,-1.99,6.48,251.2,-16.5,6.6,4.5,3.6,0.0,n/a,OK,4.0,    
177.00,11.906,21397.1,5947.7,1923.0,4.50,-1.98,6.46,250.5,10.0,6.4,4.5,3.6,0.0,n/a,OK,4.0,    
177.50,11.874,21341.7,5928.3,1923.1,4.53,-1.98,6.45,249.6,27.8,6.3,4.6,3.6,0.0,n/a,OK,4.0,    
178.00,11.842,21286.4,5909.0,1923.4,4.55,-1.97,6.45,248.8,41.2,6.2,4.6,3.6,0.0,n/a,OK,4.0,    
178.50,11.811,21231.3,5889.9,1923.8,4.56,-1.97,6.44,248.0,54.4,6.0,4.7,3.6,0.0,n/a,OK,4.0,    
179.00,11.780,21176.3,5871.0,1924.3,4.58,-1.97,6.43,247.2,60.6,5.9,4.7,3.6,0.0,n/a,OK,4.0,    
179.50,11.749,21121.6,5852.3,1924.8,4.59,-1.96,6.42,246.4,68.5,5.8,4.7,3.6,0.0,n/a,OK,4.0,    
180.00,11.717,21067.0,5833.9,1925.4,4.60,-1.96,6.41,245.4,72.2,5.7,4.8,3.6,0.0,n/a,OK,4.0,    
180.50,11.686,21012.5,5815.6,1926.0,4.61,-1.95,6.40,244.8,67.6,5.6,4.8,3.6,0.0,n/a,OK,4.0,    
181.00,11.656,20958.1,5797.5,1926.6,4.60,-1.95,6.39,245.0,74.0,5.4,4.8,3.6,0.0,n/a,OK,4.0,    
181.50,11.625,20903.5,5779.5,1927.2,4.61,-1.94,6.39,245.4,79.7,5.3,4.8,3.6,0.0,n/a,OK,4.0,    
182.00,11.594,20848.9,5761.6,1927.9,4.60,-1.94,6.38,245.6,84.6,5.2,4.8,3.6,0.0,n/a,OK,4.0,    
182.50,11.562,20794.1,5743.8,1928.6,4.56,-1.93,6.37,245.4,89.5,5.1,4.8,3.6,0.0,n/a,OK,4.0,    
183.00,11.531,20739.4,5726.2,1929.4,4.53,-1.93,6.37,245.4,85.1,4.9,4.8,3.6,0.0,n/a,OK,4.0,    
183.50,11.500,20684.6,5708.8,1930.0,4.51,-1.92,6.36,245.5,78.0,4.9,4.7,2.5,0.0,n/a,OK,4.0,    
184.00,11.469,20629.8,5691.4,1930.6,4.49,-1.92,6.36,245.5,64.0,5.0,4.7,-0.4,0.0,n/a,OK,4.0,    
184.50,11.438,20574.9,5674.0,1931.1,4.44,-1.91,6.35,245.6,41.7,5.1,4.6,-1.9,0.0,n/a,OK,4.0,    
185.00,11.407,20520.1,5656.5,1931.3,4.42,-1.91,6.34,245.7,11.9,5.1,4.5,-1.2,0.0,n/a,OK,4.0,    
185.50,11.376,20465.2,5639.0,1931.3,4.42,-1.91,6.34,245.8,-10.5,5.0,4.5,-0.3,0.0,n/a,OK,4.0,    
186.00,11.345,20410.4,5621.4,1931.1,4.44,-1.90,6.33,245.8,-32.0,5.0,4.4,0.0,0.0,n/a,OK,4.0,    
186.50,11.314,20355.5,5603.9,1930.8,4.46,-1.90,6.33,245.9,-48.2,5.1,4.4,-0.0,0.0,n/a,OK,4.0,    
187.00,11.283,20300.6,5586.4,1930.3,4.47,-1.89,6.32,245.8,-62.2,5.1,4.4,-0.1,0.0,n/a,OK,4.0,    
187.50,11.252,20245.7,5568.9,1929.8,4.47,-1.89,6.31,245.9,-67.4,5.1,4.4,-0.2,0.0,n/a,OK,4.0,    
188.00,11.221,20190.8,5551.3,1929.2,4.48,-1.89,6.31,246.0,-77.0,5.1,4.4,-0.2,0.0,n/a,OK,4.0,    
188.50,11.190,20135.9,5533.7,1928.5,4.51,-1.88,6.30,246.0,-85.6,5.1,4.4,-0.2,0.0,n/a,OK,4.0,    
189.00,11.159,20081.0,5516.2,1927.8,4.51,-1.88,6.29,246.0,-77.5,5.1,4.4,-0.2,0.0,n/a,OK,4.0,    
189.50,11.127,20026.1,5498.6,1927.2,4.53,-1.87,6.29,246.0,-74.4,5.2,4.4,-0.2,0.0,n/a,OK,4.0,    
190.00,11.096,19971.2,5481.0,1926.5,4.55,-1.87,6.28,246.0,-75.4,5.2,4.4,-0.2,0.0,n/a,OK,4.0,    
190.50,11.065,19916.3,5463.3,1926.0,4.55,-1.87,6.27,246.0,-65.5,5.2,4.4,-0.2,0.0,n/a,OK,4.0,    
191.00,11.034,19861.4,5445.7,1925.5,4.56,-1.86,6.27,246.0,-55.9,5.2,4.5,-0.2,0.0,n/a,OK,4.0,    
191.50,11.003,19806.6,5428.1,1925.0,4.57,-1.86,6.26,245.9,-46.7,5.2,4.5,-0.2,0.0,n/a,OK,4.0,    
192.00,10.972,19751.7,5410.4,1924.7,4.57,-1.85,6.25,246.0,-36.4,5.2,4.5,-0.2,0.0,n/a,OK,4.0,    
192.50,10.941,19696.8,5392.8,1924.4,4.58,-1.85,6.25,246.0,-27.4,5.2,4.5,-0.2,0.0,n/a,OK,4.0,    
193.00,10.910,19641.9,5375.1,1924.2,4.59,-1.84,6.24,245.9,-16.9,5.2,4.6,-0.2,0.0,n/a,OK,4.0,    
193.50,10.879,19587.1,5357.4,1924.1,4.59,-1.84,6.23,245.9,-10.5,5.2,4.6,-0.2,0.0,n/a,OK,4.0,    
194.00,10.848,19532.2,5339.8,1924.1,4.58,-1.83,6.23,245.8,0.4,5.2,4.6,-0.2,0.0,n/a,OK,4.0,    
194.50,10.817,19477.4,5322.1,1924.1,4.57,-1.83,6.22,245.8,7.5,5.2,4.6,-0.2,0.0,n/a,OK,4.0,    
195.00,10.785,19422.6,5304.4,1924.2,4.56,-1.82,6.21,245.8,17.6,5.3,4.6,-0.2,0.0,n/a,OK,4.0,    
195.50,10.754,19367.8,5286.6,1924.4,4.56,-1.82,6.20,245.9,23.1,5.3,4.6,-0.2,0.0,n/a,OK,4.0,    
196.00,10.723,19312.9,5268.9,1924.6,4.55,-1.81,6.20,245.9,30.4,5.3,4.6,-0.2,0.0,n/a,OK,4.0,    
196.50,10.692,19258.1,5251.2,1924.8,4.54,-1.81,6.19,245.9,32.5,5.3,4.6,-0.2,0.0,n/a,OK,4.0,    
197.00,10.661,19203.3,5233.4,1925.1,4.54,-1.80,6.18,245.8,30.4,5.3,4.6,-0.2,0.0,n/a,OK,4.0,    
197.50,10.630,19148.5,5215.6,1925.3,4.53,-1.80,6.17,245.8,27.6,5.3,4.6,-0.2,0.0,n/a,OK,4.0,    
198.00,10.599,19093.7,5197.9,1925.6,4.52,-1.79,6.17,245.8,24.0,5.3,4.6,-0.2,0.0,n/a,OK,4.0,    
198.50,10.568,19038.9,5180.1,1925.8,4.51,-1.79,6.16,245.8,21.1,5.3,4.6,-0.2,0.0,n/a,OK,4.0,    
199.00,10.537,18984.1,5162.3,1925.9,4.51,-1.78,6.15,245.8,19.8,5.3,4.6,-0.2,0.0,n/a,OK,4.0,    
199.50,10.506,18929.3,5144.5,1926.1,4.50,-1.78,6.14,245.9,19.1,5.3,4.6,-0.2,0.0,n/a,OK,4.0,    
200.00,10.475,18874.5,5126.7,1926.2,4.50,-1.77,6.13,246.0,16.7,5.3,4.6,-0.2,0.0,n/a,OK,4.0,    
200.50,10.444,18819.7,5108.8,1926.4,4.49,-1.77,6.13,246.0,16.9,5.3,4.6,-0.2,0.0,n/a,OK,4.0,    
201.00,10.413,18764.9,5091.0,1926.5,4.49,-1.76,6.12,246.0,17.6,5.4,4.6,-0.2,0.0,n/a,OK,4.0,    
201.50,10.381,18710.0,5073.1,1926.6,4.50,-1.76,6.11,246.0,14.3,5.4,4.6,-0.2,0.0,n/a,OK,4.0,    
202.00,10.350,18655.2,5055.2,1926.8,4.50,-1.75,6.10,246.1,12.0,5.4,4.6,-0.2,0.0,n/a,OK,4.0,    
202.50,10.319,18600.4,5037.4,1926.8,4.49,-1.75,6.09,246.1,9.0,5.4,4.6,-0.2,0.0,n/a,OK,4.0,    
203.00,10.288,18545.5,5019.5,1926.9,4.50,-1.74,6.08,246.2,6.9,5.4,4.6,-0.2,0.0,n/a,OK,4.0,    
203.50,10.257,18490.7,5001.6,1927.0,4.50,-1.74,6.08,246.2,10.0,5.4,4.5,-0.2,0.0,n/a,OK,4.0,    
204.00,10.226,18435.8,4983.6,1927.1,4.51,-1.73,6.07,246.2,6.8,5.5,4.5,-0.2,0.0,n/a,OK,4.0,    
204.50,10.195,18381.0,4965.7,1927.1,4.52,-1.73,6.06,246.3,0.9,5.5,4.5,-0.2,0.0,n/a,OK,4.0,    
205.00,10.164,18326.1,4947.7,1927.1,4.52,-1.72,6.05,246.3,-3.0,5.5,4.5,-0.2,0.0,n/a,OK,4.0,    
205.50,10.132,18271.2,4929.8,1927.1,4.51,-1.71,6.04,246.3,-5.4,5.5,4.5,-0.2,0.0,n/a,OK,4.0,    
206.00,10.101,18216.3,4911.8,1927.0,4.50,-1.71,6.03,246.3,-2.7,5.5,4.5,-0.2,0.0,n/a,OK,4.0,    
206.50,10.070,18161.5,4893.8,1927.0,4.49,-1.70,6.02,246.2,-5.2,5.5,4.5,-0.2,0.0,n/a,OK,4.0,    
207.00,10.039,18106.6,4875.8,1927.0,4.48,-1.70,6.01,246.2,-7.0,5.5,4.5,-0.2,0.0,n/a,OK,4.0,    
207.50,10.008,18051.8,4857.8,1926.9,4.49,-1.69,6.00,246.2,-7.4,5.5,4.5,-0.2,0.0,n/a,OK,4.0,    
208.00,9.977,17997.0,4839.8,1926.8,4.51,-1.69,5.99,246.1,-15.0,5.5,4.5,-0.2,0.0,n/a,OK,4.0,    
208.50,9.946,17942.2,4821.8,1926.7,4.50,-1.68,5.98,246.0,-19.2,5.6,4.5,-0.2,0.0,n/a,OK,4.0,    
209.00,9.915,17887.4,4803.8,1926.5,4.52,-1.68,5.97,245.9,-23.1,5.6,4.5,-0.2,0.0,n/a,OK,4.0,    
209.50,9.884,17832.7,4785.7,1926.3,4.54,-1.67,5.96,246.0,-22.5,5.6,4.5,-0.3,0.0,n/a,OK,4.0,    
210.00,9.852,17777.9,4767.7,1926.1,4.53,-1.67,5.95,245.9,-20.0,5.6,4.5,-0.2,0.0,n/a,OK,4.0,    
210.50,9.821,17723.2,4749.6,1926.0,4.52,-1.66,5.94,245.9,-14.9,5.6,4.5,-0.2,0.0,n/a,OK,4.0,    
211.00,9.790,17668.4,4731.6,1925.8,4.53,-1.65,5.93,245.9,-15.6,5.6,4.5,-0.2,0.0,n/a,OK,4.0,    
211.50,9.759,17613.7,4713.5,1925.7,4.55,-1.65,5.92,245.9,-17.2,5.6,4.5,-0.2,0.0,n/a,OK,4.0,    
212.00,9.728,17559.0,4695.4,1925.5,4.56,-1.64,5.91,245.9,-15.6,5.6,4.5,-0.2,0.0,n/a,OK,4.0,    
212.50,9.697,17504.2,4677.3,1925.4,4.55,-1.64,5.90,246.1,-11.1,5.6,4.5,-0.2,0.0,n/a,OK,4.0,    
213.00,9.666,17449.4,4659.2,1925.4,4.53,-1.63,5.89,246.2,-3.6,5.6,4.5,-0.2,0.0,n/a,OK,4.0,    
213.50,9.635,17394.7,4641.1,1925.3,4.53,-1.62,5.88,246.2,-2.3,5.6,4.5,-0.2,0.0,n/a,OK,4.0,    
214.00,9.604,17339.9,4622.9,1925.3,4.52,-1.62,5.87,246.2,1.3,5.6,4.6,-0.2,0.0,n/a,OK,4.0,    
214.50,9.573,17285.1,4604.8,1925.3,4.53,-1.61,5.86,246.2,3.4,5.6,4.6,-0.2,0.0,n/a,OK,4.0,    
215.00,9.542,17230.3,4586.6,1925.4,4.53,-1.61,5.85,246.3,7.2,5.6,4.6,-0.2,0.0,n/a,OK,4.0,    
215.50,9.510,17175.5,4568.4,1925.4,4.54,-1.60,5.84,246.3,6.0,5.6,4.6,-0.2,0.0,n/a,OK,4.0,    
216.00,9.479,17120.7,4550.2,1925.5,4.53,-1.59,5.83,246.3,6.1,5.6,4.6,-0.2,0.0,n/a,OK,4.0,    
216.50,9.448,17065.9,4532.0,1925.5,4.53,-1.59,5.82,246.2,3.0,5.6,4.6,-0.2,0.0,n/a,OK,4.0,    
217.00,9.417,17011.2,4513.8,1925.6,4.54,-1.58,5.81,246.1,2.9,5.6,4.6,-0.2,0.0,n/a,OK,4.0,    
217.50,9.386,16956.4,4495.6,1925.6,4.54,-1.57,5.79,246.1,0.8,5.7,4.6,-0.2,0.0,n/a,OK,4.0,    
218.00,9.355,16901.7,4477.3,1925.6,4.53,-1.57,5.78,246.1,-2.5,5.7,4.6,-0.2,0.0,n/a,OK,4.0,    
218.50,9.324,16847.0,4459.1,1925.5,4.52,-1.56,5.77,246.1,-0.8,5.7,4.6,-0.2,0.0,n/a,OK,4.0,    
219.00,9.293,16792.3,4440.8,1925.6,4.52,-1.56,5.76,246.1,1.4,5.7,4.6,-0.2,0.0,n/a,OK,4.0,    
219.50,9.262,16737.5,4422.6,1925.6,4.52,-1.55,5.75,246.1,2.5,5.7,4.6,-0.0,0.0,n/a,OK,4.0,    
220.00,9.231,16682.8,4404.3,1925.6,4.52,-1.54,5.74,246.2,5.2,5.7,4.6,-0.1,0.0,n/a,OK,4.0,    
220.50,9.199,16628.0,4386.0,1925.7,4.51,-1.54,5.72,246.2,7.0,5.7,4.6,-0.3,0.0,n/a,OK,4.0,    
221.00,9.168,16573.3,4367.7,1925.7,4.51,-1.53,5.71,246.2,6.5,5.7,4.6,-0.3,0.0,n/a,OK,4.0,    
221.50,9.137,16518.6,4349.4,1925.8,4.52,-1.52,5.70,246.1,6.4,5.7,4.6,-0.3,0.0,n/a,OK,4.0,    
222.00,9.106,16463.9,4331.1,1925.8,4.51,-1.52,5.69,246.1,10.2,5.7,4.6,-0.3,0.0,n/a,OK,4.0,    
222.50,9.075,16409.2,4312.8,1925.9,4.50,-1.51,5.67,246.1,15.7,5.8,4.6,-0.3,0.0,n/a,OK,4.0,    
223.00,9.044,16354.5,4294.4,1926.1,4.49,-1.50,5.66,246.0,17.1,5.8,4.6,-0.3,0.0,n/a,OK,4.0,    
223.50,9.013,16299.8,4276.1,1926.2,4.51,-1.49,5.65,245.9,12.9,5.8,4.6,-0.3,0.0,n/a,OK,4.0,    
224.00,8.982,16245.2,4257.7,1926.3,4.50,-1.49,5.63,246.0,14.3,5.8,4.6,-0.3,0.0,n/a,OK,4.0,    
224.50,8.951,16190.5,4239.3,1926.5,4.50,-1.48,5.62,246.1,19.9,5.8,4.6,-0.3,0.0,n/a,OK,4.0,    
225.00,8.920,16135.8,4220.9,1926.7,4.48,-1.47,5.61,246.1,25.8,5.8,4.6,-0.3,0.0,n/a,OK,4.0,    
225.50,8.889,16081.1,4202.5,1926.9,4.48,-1.47,5.59,246.0,26.2,5.8,4.5,-0.3,0.0,n/a,OK,4.0,    
226.00,8.858,16026.5,4184.1,1927.0,4.50,-1.46,5.58,246.0,17.4,5.8,4.5,-0.3,0.0,n/a,OK,4.0,    
226.50,8.826,15971.8,4165.7,1927.2,4.48,-1.45,5.57,246.0,16.5,5.9,4.5,-0.3,0.0,n/a,OK,4.0,    
227.00,8.795,15917.2,4147.2,1927.3,4.47,-1.44,5.55,246.0,17.8,5.9,4.5,-0.3,0.0,n/a,OK,4.0,    
227.50,8.764,15862.5,4128.8,1927.5,4.47,-1.44,5.54,246.0,13.9,5.9,4.5,-0.3,0.0,n/a,OK,4.0,    
228.00,8.733,15807.9,4110.3,1927.5,4.48,-1.43,5.52,245.9,6.7,5.9,4.4,-0.3,0.0,n/a,OK,4.0,    
228.50,8.702,15753.3,4091.8,1927.6,4.49,-1.42,5.51,245.9,2.4,5.9,4.4,-0.3,0.0,n/a,OK,4.0,    
229.00,8.671,15698.7,4073.4,1927.6,4.49,-1.41,5.50,245.9,-2.2,5.9,4.4,-0.3,0.0,n/a,OK,4.0,    
229.50,8.640,15644.1,4054.9,1927.6,4.48,-1.41,5.48,245.9,-4.0,5.9,4.4,-0.3,0.0,n/a,OK,4.0,    
230.00,8.609,15589.5,4036.3,1927.5,4.50,-1.40,5.47,245.9,-15.7,5.9,4.4,-0.3,0.0,n/a,OK,4.0,    
230.50,8.578,15534.9,4017.8,1927.3,4.53,-1.39,5.45,245.9,-25.8,5.9,4.4,-0.3,0.0,n/a,OK,4.0,    
231.00,8.547,15480.3,3999.3,1927.1,4.51,-1.39,5.44,245.9,-24.5,6.0,4.4,-0.3,0.0,n/a,OK,4.0,    
231.50,8.516,15425.8,3980.7,1926.9,4.52,-1.38,5.42,245.9,-28.7,6.0,4.4,-0.3,0.0,n/a,OK,4.0,    
232.00,8.485,15371.2,3962.1,1926.6,4.54,-1.37,5.41,245.9,-32.5,6.0,4.4,-0.3,0.0,n/a,OK,4.0,    
232.50,8.454,15316.6,3943.6,1926.4,4.54,-1.36,5.39,245.9,-34.6,6.0,4.4,-0.3,0.0,n/a,OK,4.0,    
233.00,8.423,15262.0,3925.0,1926.1,4.54,-1.36,5.37,245.9,-34.5,6.1,4.4,-0.3,0.0,n/a,OK,4.0,    
233.50,8.392,15207.4,3906.4,1925.8,4.53,-1.35,5.36,245.9,-27.2,6.1,4.5,-0.3,0.0,n/a,OK,4.0,    
234.00,8.361,15152.9,3887.7,1925.6,4.54,-1.34,5.34,246.0,-23.7,6.1,4.5,-0.3,0.0,n/a,OK,4.0,    
234.50,8.330,15098.3,3869.1,1925.4,4.55,-1.33,5.33,246.0,-20.2,6.1,4.5,-0.3,0.0,n/a,OK,4.0,    
235.00,8.299,15043.7,3850.4,1925.3,4.56,-1.32,5.31,246.2,-20.0,6.1,4.5,-0.3,0.0,n/a,OK,4.0,    
235.50,8.267,14989.1,3831.8,1925.1,4.57,-1.32,5.29,246.1,-20.5,6.1,4.5,-0.3,0.0,n/a,OK,4.0,    
236.00,8.236,14934.5,3813.1,1925.0,4.53,-1.31,5.28,246.1,-8.9,6.2,4.5,-0.3,0.0,n/a,OK,4.0,    
236.50,8.205,14879.9,3794.4,1924.9,4.53,-1.30,5.26,246.1,-4.6,6.2,4.5,-0.3,0.0,n/a,OK,4.0,    
237.00,8.174,14825.3,3775.7,1924.9,4.58,-1.29,5.24,246.1,-8.5,6.2,4.6,-0.3,0.0,n/a,OK,4.0,    
237.50,8.143,14770.7,3756.9,1924.8,4.56,-1.28,5.23,246.1,-7.4,6.2,4.6,-0.3,0.0,n/a,OK,4.0,    
238.00,8.112,14716.1,3738.2,1924.8,4.51,-1.28,5.21,246.1,3.1,6.2,4.6,-0.3,0.0,n/a,OK,4.0,    
238.50,8.081,14661.5,3719.4,1924.8,4.53,-1.27,5.19,246.1,6.0,6.2,4.6,-0.3,0.0,n/a,OK,4.0,    
239.00,8.050,14607.0,3700.7,1924.9,4.54,-1.26,5.17,246.1,9.4,6.2,4.6,0.6,0.0,n/a,OK,4.0,    
239.50,8.019,14552.4,3681.9,1925.0,4.52,-1.25,5.15,246.1,18.5,5.9,4.6,3.6,0.0,n/a,OK,4.0,    
240.00,7.988,14497.8,3663.3,1925.2,4.55,-1.24,5.14,246.0,32.1,5.6,4.7,6.8,0.0,n/a,OK,4.0,    
240.50,7.957,14443.1,3645.0,1925.5,4.62,-1.23,5.12,245.9,46.3,5.2,4.7,8.5,0.0,n/a,OK,4.0,    
241.00,7.926,14388.3,3627.1,1926.0,4.64,-1.22,5.10,245.9,65.0,5.1,4.8,7.6,0.0,n/a,OK,4.0,    
241.50,7.895,14333.5,3609.4,1926.7,4.62,-1.21,5.09,245.8,93.3,4.9,4.9,6.5,0.0,n/a,OK,4.0,    
242.00,7.864,14278.6,3591.9,1927.5,4.60,-1.20,5.08,245.7,111.0,4.7,4.9,6.0,0.0,n/a,OK,4.0,    
242.50,7.833,14223.7,3574.7,1928.5,4.57,-1.19,5.06,245.6,127.1,4.4,4.9,6.1,0.0,n/a,OK,4.0,    
243.00,7.802,14168.7,3557.7,1929.6,4.54,-1.18,5.05,245.6,132.8,4.2,4.9,6.2,0.0,n/a,OK,4.0,    
243.50,7.771,14113.7,3541.0,1930.7,4.51,-1.17,5.04,245.5,139.3,4.0,4.8,6.2,0.0,n/a,OK,4.0,    
244.00,7.740,14058.6,3524.6,1931.8,4.49,-1.16,5.03,245.6,135.5,3.8,4.8,4.5,0.0,n/a,OK,4.0,    
244.50,7.709,14003.5,3508.3,1933.0,4.43,-1.15,5.02,245.6,129.8,3.9,4.7,1.9,0.0,n/a,OK,4.0,    
245.00,7.678,13948.3,3492.0,1934.0,4.37,-1.14,5.01,245.6,106.8,3.9,4.6,1.4,0.0,n/a,OK,4.0,    
245.50,7.647,13893.1,3475.8,1934.7,4.37,-1.13,5.01,245.8,75.1,3.7,4.5,2.2,0.0,n/a,OK,4.0,    
246.00,7.616,13837.9,3459.8,1935.2,4.39,-1.12,5.00,245.8,44.0,3.6,4.4,2.8,0.0,n/a,OK,4.0,    
246.50,7.584,13782.6,3443.8,1935.5,4.36,-1.11,4.99,245.7,21.6,3.5,4.4,2.9,0.0,n/a,OK,4.0,    
247.00,7.553,13727.3,3428.0,1935.6,4.38,-1.10,4.98,245.7,-5.7,3.4,4.3,2.9,0.0,n/a,OK,4.0,    
247.50,7.522,13671.9,3412.3,1935.4,4.41,-1.09,4.97,245.7,-33.8,3.3,4.3,2.8,0.0,n/a,OK,4.0,    
248.00,7.491,13616.6,3396.6,1935.0,4.43,-1.08,4.97,245.8,-62.2,3.3,4.2,2.8,0.0,n/a,OK,4.0,    
248.50,7.460,13561.2,3381.1,1934.4,4.43,-1.07,4.96,245.8,-76.6,3.2,4.2,2.8,0.0,n/a,OK,4.0,    
249.00,7.429,13505.7,3365.7,1933.8,4.42,-1.06,4.95,245.8,-84.5,3.1,4.2,2.3,0.0,n/a,OK,4.0,    
249.50,7.398,13450.3,3350.4,1933.1,4.42,-1.05,4.95,245.7,-88.5,3.3,4.2,-1.1,0.0,n/a,OK,4.0,    
250.00,7.367,13394.9,3335.0,1932.3,4.41,-1.04,4.94,245.6,-105.6,3.4,4.1,-1.9,0.0,n/a,OK,4.0,    
250.50,7.336,13339.5,3319.5,1931.3,4.45,-1.03,4.94,245.6,-128.2,3.3,4.1,-0.7,0.0,n/a,OK,4.0,    
251.00,7.305,13284.1,3304.1,1930.2,4.49,-1.02,4.93,245.7,-136.1,3.2,4.1,0.2,0.0,n/a,OK,4.0,    
251.50,7.274,13228.7,3288.6,1929.1,4.51,-1.02,4.92,245.8,-135.8,3.3,4.1,0.4,0.0,n/a,OK,4.0,    
252.00,7.243,13173.3,3273.2,1928.0,4.53,-1.01,4.92,245.8,-129.0,3.3,4.2,0.3,0.0,n/a,OK,4.0,    
252.50,7.212,13117.9,3257.7,1926.9,4.56,-1.00,4.91,245.7,-123.6,3.3,4.2,0.1,0.0,n/a,OK,4.0,    
253.00,7.181,13062.5,3242.3,1925.9,4.58,-0.99,4.90,245.7,-115.8,3.3,4.2,0.0,0.0,n/a,OK,4.0,    
253.50,7.150,13007.1,3226.9,1925.0,4.58,-0.98,4.90,245.7,-102.2,3.3,4.3,0.0,0.0,n/a,OK,4.0,    
254.00,7.119,12951.6,3211.4,1924.2,4.60,-0.97,4.89,245.8,-86.7,3.3,4.3,0.0,0.0,n/a,OK,4.0,    
254.50,7.088,12896.2,3196.0,1923.6,4.60,-0.96,4.88,245.8,-67.2,3.3,4.4,0.6,0.0,n/a,OK,4.0,    
255.00,7.057,12840.8,3180.5,1923.1,4.59,-0.95,4.88,245.7,-43.2,3.2,4.4,1.4,0.0,n/a,OK,4.0,    
255.50,7.026,12785.4,3165.2,1922.8,4.60,-0.94,4.87,245.6,-19.0,3.2,4.5,1.3,0.0,n/a,OK,4.0,    
256.00,6.995,12730.0,3149.9,1922.7,4.63,-0.93,4.86,245.6,-4.3,3.2,4.5,0.9,0.0,n/a,OK,4.0,    
256.50,6.964,12674.6,3134.6,1922.7,4.63,-0.91,4.86,245.6,7.4,3.1,4.6,0.7,0.0,n/a,OK,4.0,    
257.00,6.933,12619.1,3119.3,1922.9,4.60,-0.90,4.85,245.6,25.5,3.1,4.6,0.7,0.0,n/a,OK,4.0,    
257.50,6.901,12563.7,3104.1,1923.2,4.59,-0.89,4.85,245.6,41.7,3.1,4.7,0.7,0.0,n/a,OK,4.0,    
258.00,6.870,12508.3,3088.9,1923.6,4.57,-0.88,4.84,245.6,53.3,3.0,4.7,0.8,0.0,n/a,OK,4.0,    
258.50,6.839,12452.8,3073.7,1924.0,4.56,-0.87,4.83,245.6,59.4,3.0,4.7,0.8,0.0,n/a,OK,4.0,    
259.00,6.808,12397.4,3058.5,1924.5,4.55,-0.85,4.83,245.6,63.2,3.0,4.7,0.8,0.0,n/a,OK,4.0,    
259.50,6.777,12341.9,3043.4,1925.1,4.53,-0.84,4.82,245.6,66.2,2.9,4.7,0.8,0.0,n/a,OK,4.0,    
260.00,6.746,12286.5,3028.3,1925.6,4.53,-0.83,4.82,245.6,62.0,2.9,4.7,0.8,0.0,n/a,OK,4.0,    
260.50,6.715,12231.0,3013.2,1926.2,4.52,-0.81,4.81,245.6,59.3,2.9,4.7,0.8,0.0,n/a,OK,4.0,    
261.00,6.684,12175.5,2998.2,1926.7,4.48,-0.80,4.80,245.6,62.1,2.8,4.7,0.8,0.0,n/a,OK,4.0,    
261.50,6.653,12120.0,2983.2,1927.2,4.46,-0.79,4.80,245.5,59.4,2.8,4.6,0.8,0.0,n/a,OK,4.0,    
262.00,6.622,12064.6,2968.2,1927.6,4.46,-0.77,4.79,245.5,53.9,2.8,4.6,0.8,0.0,n/a,OK,4.0,    
262.50,6.591,12009.1,2953.2,1928.1,4.44,-0.76,4.79,245.6,51.7,2.8,4.6,0.8,0.0,n/a,OK,4.0,    
263.00,6.560,11953.6,2938.3,1928.5,4.45,-0.75,4.78,245.7,43.4,2.7,4.5,0.8,0.0,n/a,OK,4.0,    
263.50,6.529,11898.0,2923.4,1928.8,4.44,-0.73,4.78,245.8,39.5,2.7,4.5,0.8,0.0,n/a,OK,4.0,    
264.00,6.498,11842.4,2908.5,1929.1,4.45,-0.72,4.77,245.8,26.7,2.7,4.5,0.8,0.0,n/a,OK,4.0,    
264.50,6.467,11786.9,2893.7,1929.3,4.45,-0.71,4.77,245.8,19.6,2.6,4.5,0.8,0.0,n/a,OK,4.0,    
265.00,6.436,11731.3,2878.9,1929.4,4.45,-0.69,4.76,245.9,8.9,2.6,4.4,0.8,0.0,n/a,OK,4.0,    
265.50,6.405,11675.7,2864.0,1929.4,4.45,-0.68,4.76,245.9,0.9,2.6,4.4,0.8,0.0,n/a,OK,4.0,    
266.00,6.374,11620.0,2849.3,1929.4,4.47,-0.67,4.75,245.9,-13.6,2.5,4.4,0.8,0.0,n/a,OK,4.0,    
266.50,6.343,11564.4,2834.5,1929.2,4.49,-0.65,4.75,245.8,-26.6,2.5,4.4,0.8,0.0,n/a,OK,4.0,    
267.00,6.312,11508.8,2819.8,1929.0,4.48,-0.64,4.74,245.8,-33.3,2.5,4.4,0.8,0.0,n/a,OK,4.0,    
267.50,6.281,11453.2,2805.2,1928.7,4.49,-0.63,4.74,245.7,-41.8,2.5,4.4,0.8,0.0,n/a,OK,4.0,    
268.00,6.250,11397.6,2790.5,1928.3,4.50,-0.61,4.74,245.7,-42.3,2.5,4.4,0.8,0.0,n/a,OK,4.0,    
268.50,6.219,11342.0,2775.9,1927.9,4.51,-0.60,4.73,245.8,-47.4,2.4,4.4,0.8,0.0,n/a,OK,4.0,    
269.00,6.187,11286.3,2761.3,1927.5,4.52,-0.58,4.73,245.9,-48.1,2.4,4.4,0.8,0.0,n/a,OK,4.0,    
269.50,6.156,11230.7,2746.8,1927.1,4.53,-0.57,4.72,245.8,-49.3,2.4,4.4,0.8,0.0,n/a,OK,4.0,    
270.00,6.125,11175.0,2732.2,1926.7,4.51,-0.56,4.72,245.7,-42.3,2.4,4.4,0.8,0.0,n/a,OK,4.0,    
270.50,6.094,11119.4,2717.7,1926.4,4.52,-0.54,4.72,245.7,-36.2,2.4,4.5,0.7,0.0,n/a,OK,4.0,    
271.00,6.063,11063.8,2703.3,1926.1,4.53,-0.53,4.71,245.7,-29.6,2.4,4.5,0.7,0.0,n/a,OK,4.0,    
271.50,6.032,11008.1,2688.8,1925.9,4.54,-0.51,4.71,245.7,-21.2,2.3,4.5,0.8,0.0,n/a,OK,4.0,    
272.00,6.001,10952.5,2674.4,1925.8,4.55,-0.50,4.70,245.7,-15.8,2.3,4.5,0.7,0.0,n/a,OK,4.0,    
272.50,5.970,10896.8,2660.1,1925.7,4.54,-0.48,4.70,245.7,-7.7,2.3,4.5,0.8,0.0,n/a,OK,4.0,    
273.00,5.939,10841.1,2645.7,1925.7,4.52,-0.47,4.70,245.7,5.0,2.3,4.5,0.8,0.0,n/a,OK,4.0,    
273.50,5.908,10785.5,2631.4,1925.7,4.51,-0.45,4.70,245.7,16.0,2.3,4.6,0.8,0.0,n/a,OK,4.0,    
274.00,5.877,10729.8,2617.1,1925.9,4.52,-0.44,4.69,245.6,19.3,2.2,4.6,0.8,0.0,n/a,OK,4.0,    
274.50,5.846,10674.1,2602.8,1926.1,4.52,-0.42,4.69,245.5,22.0,2.2,4.6,0.8,0.0,n/a,OK,4.0,    
275.00,5.815,10618.5,2588.6,1926.3,4.52,-0.40,4.69,245.6,24.4,2.2,4.6,0.8,0.0,n/a,OK,4.0,    
275.50,5.784,10562.8,2574.4,1926.5,4.51,-0.39,4.68,245.6,24.2,2.1,4.6,0.8,0.0,n/a,OK,4.0,    
276.00,5.753,10507.1,2560.3,1926.7,4.51,-0.37,4.68,245.7,23.6,2.1,4.6,0.8,0.0,n/a,OK,4.0,    
276.50,5.722,10451.4,2546.1,1926.9,4.50,-0.35,4.68,245.7,24.0,2.1,4.6,0.8,0.0,n/a,OK,4.0,    
277.00,5.691,10395.7,2532.0,1927.0,4.49,-0.33,4.68,245.6,22.8,2.0,4.5,0.8,0.0,n/a,OK,4.0,    
277.50,5.660,10340.0,2517.9,1927.2,4.48,-0.32,4.68,245.6,25.6,2.0,4.5,0.8,0.0,n/a,OK,4.0,    
278.00,5.629,10284.3,2503.8,1927.5,4.47,-0.30,4.67,245.6,26.2,2.0,4.5,0.8,0.0,n/a,OK,4.0,    
278.50,5.598,10228.6,2489.8,1927.7,4.48,-0.28,4.67,245.6,22.7,1.9,4.5,0.7,0.0,n/a,OK,4.0,    
279.00,5.567,10172.8,2475.8,1927.8,4.48,-0.26,4.67,245.7,17.5,1.9,4.5,0.8,0.0,n/a,OK,4.0,    
279.50,5.536,10117.1,2461.8,1928.0,4.48,-0.24,4.67,245.7,13.1,1.9,4.5,0.8,0.0,n/a,OK,4.0,    
280.00,5.505,10061.3,2447.9,1928.0,4.48,-0.23,4.67,245.8,7.0,1.8,4.5,0.8,0.0,n/a,OK,4.0,    
280.50,5.474,10005.5,2434.0,1928.1,4.48,-0.21,4.67,245.8,1.8,1.8,4.5,0.8,0.0,n/a,OK,4.0,    
281.00,5.443,9949.7,2420.1,1928.1,4.51,-0.19,4.66,245.9,-9.1,1.8,4.5,0.8,0.0,n/a,OK,4.0,    
281.50,5.412,9893.9,2406.2,1928.0,4.50,-0.17,4.66,245.8,-10.8,1.8,4.5,0.8,0.0,n/a,OK,4.0,    
282.00,5.381,9838.1,2392.4,1927.9,4.47,-0.15,4.66,245.7,-9.7,1.7,4.5,0.8,0.0,n/a,OK,4.0,    
282.50,5.350,9782.3,2378.6,1927.8,4.50,-0.13,4.66,245.6,-19.7,1.7,4.5,0.8,0.0,n/a,OK,4.0,    
283.00,5.318,9726.5,2364.8,1927.6,4.52,-0.11,4.66,245.6,-23.2,1.7,4.5,0.8,0.0,n/a,OK,4.0,    
283.50,5.287,9670.8,2351.1,1927.4,4.50,-0.09,4.66,245.5,-21.1,1.7,4.5,0.8,0.0,n/a,OK,4.0,    
284.00,5.256,9615.0,2337.4,1927.2,4.49,-0.07,4.66,245.6,-18.2,1.6,4.5,0.8,0.0,n/a,OK,4.0,    
284.50,5.225,9559.2,2323.7,1927.1,4.52,-0.05,4.66,245.5,-20.2,1.6,4.5,0.8,0.0,n/a,OK,4.0,    
285.00,5.194,9503.5,2310.0,1926.9,4.53,-0.03,4.66,245.4,-23.6,1.6,4.5,0.8,0.0,n/a,OK,4.0,    
285.50,5.163,9447.7,2296.4,1926.7,4.54,-0.01,4.66,245.4,-24.4,1.5,4.5,0.8,0.0,n/a,OK,4.0,    
286.00,5.132,9392.0,2282.8,1926.5,4.55,0.01,4.66,245.3,-27.2,1.5,4.5,0.8,0.0,n/a,OK,4.0,    
286.50,5.102,9336.2,2269.3,1926.3,4.53,0.03,4.66,245.3,-19.6,1.5,4.5,0.7,0.0,n/a,OK,4.0,    
287.00,5.071,9280.5,2255.8,1926.2,4.53,0.05,4.67,245.3,-14.4,1.5,4.6,0.8,0.0,n/a,OK,4.0,    
287.50,5.040,9224.7,2242.3,1926.1,4.52,0.07,4.67,245.3,-9.2,1.4,4.6,0.8,0.0,n/a,OK,4.0,    
288.00,5.009,9169.0,2228.8,1926.0,4.54,0.09,4.67,245.3,-10.8,1.4,4.6,0.8,0.0,n/a,OK,4.0,    
288.50,4.978,9113.2,2215.4,1925.9,4.54,0.11,4.67,245.3,-2.8,1.4,4.6,0.8,0.0,n/a,OK,4.0,    
289.00,4.947,9057.4,2202.0,1925.9,4.52,0.14,4.67,245.3,4.0,1.4,4.6,0.8,0.0,n/a,OK,4.0,    
289.50,4.916,9001.6,2188.6,1925.9,4.53,0.16,4.67,245.3,5.2,1.3,4.6,0.8,0.0,n/a,OK,4.0,    
290.00,4.885,8945.9,2175.3,1926.0,4.53,0.18,4.68,245.3,9.4,1.3,4.6,0.8,0.0,n/a,OK,4.0,    
290.50,4.854,8890.1,2162.0,1926.1,4.53,0.20,4.68,245.3,9.0,1.3,4.6,0.8,0.0,n/a,OK,4.0,    
291.00,4.823,8834.3,2148.7,1926.2,4.51,0.23,4.68,245.2,15.7,1.3,4.6,0.8,0.0,n/a,OK,4.0,    
291.50,4.792,8778.5,2135.4,1926.3,4.48,0.25,4.68,245.2,20.0,1.3,4.6,0.8,0.0,n/a,OK,4.0,    
292.00,4.761,8722.7,2122.2,1926.5,4.49,0.28,4.69,245.2,25.8,1.2,4.6,0.7,0.0,n/a,OK,4.0,    
292.50,4.730,8666.9,2109.0,1926.7,4.51,0.30,4.69,245.2,24.7,1.2,4.6,0.7,0.0,n/a,OK,4.0,    
293.00,4.699,8611.1,2095.8,1927.0,4.48,0.33,4.69,245.3,28.6,1.2,4.6,0.8,0.0,n/a,OK,4.0,    
293.50,4.668,8555.3,2082.7,1927.2,4.47,0.35,4.70,245.3,30.2,1.2,4.6,0.8,0.0,n/a,OK,4.0,    
294.00,4.637,8499.4,2069.6,1927.4,4.48,0.38,4.70,245.4,27.7,1.1,4.6,0.8,0.0,n/a,OK,4.0,    
294.50,4.606,8443.5,2056.5,1927.7,4.47,0.40,4.71,245.5,26.4,1.1,4.6,0.8,0.0,n/a,OK,4.0,    
295.00,4.575,8387.6,2043.4,1927.9,4.46,0.43,4.71,245.5,22.7,1.1,4.6,0.8,0.0,n/a,OK,4.0,    
295.50,4.544,8331.7,2030.4,1928.1,4.47,0.46,4.72,245.5,20.8,1.1,4.5,0.7,0.0,n/a,OK,4.0,    
296.00,4.513,8275.8,2017.4,1928.2,4.47,0.48,4.72,245.6,16.4,1.0,4.5,0.7,0.0,n/a,OK,4.0,    
296.50,4.482,8219.8,2004.4,1928.3,4.46,0.51,4.73,245.6,10.4,1.0,4.5,0.8,0.0,n/a,OK,4.0,    
297.00,4.451,8163.9,1991.5,1928.4,4.45,0.54,4.73,245.7,7.6,1.0,4.5,0.8,0.0,n/a,OK,4.0,    
297.50,4.420,8107.9,1978.5,1928.5,4.45,0.57,4.74,245.7,6.7,0.9,4.5,0.8,0.0,n/a,OK,4.0,    
298.00,4.389,8051.9,1965.6,1928.5,4.47,0.60,4.74,245.7,-2.0,0.9,4.5,0.8,0.0,n/a,OK,4.0,    
298.50,4.358,7995.9,1952.8,1928.4,4.47,0.63,4.75,245.7,-7.0,0.9,4.5,0.8,0.0,n/a,OK,4.0,    
299.00,4.327,7939.9,1939.9,1928.4,4.47,0.65,4.76,245.7,-10.6,0.9,4.5,0.8,0.0,n/a,OK,4.0,    
299.50,4.296,7883.9,1927.1,1928.3,4.47,0.68,4.76,245.7,-12.5,0.8,4.4,0.8,0.0,n/a,OK,4.0,    
300.00,4.265,7827.9,1914.3,1928.2,4.48,0.71,4.77,245.6,-16.5,0.8,4.4,0.7,0.0,n/a,OK,4.0,    
300.50,4.234,7771.9,1901.6,1928.0,4.49,0.74,4.78,245.5,-19.0,0.8,4.4,0.8,0.0,n/a,OK,4.0,    
301.00,4.203,7715.9,1888.9,1927.8,4.50,0.77,4.79,245.5,-23.9,0.8,4.4,0.8,0.0,n/a,OK,4.0,    
301.50,4.172,7660.0,1876.2,1927.6,4.51,0.80,4.80,245.6,-25.2,0.7,4.4,0.8,0.0,n/a,OK,4.0,    
302.00,4.141,7604.0,1863.5,1927.4,4.51,0.84,4.81,245.5,-22.8,0.7,4.5,0.8,0.0,n/a,OK,4.0,    
302.50,4.110,7548.0,1850.9,1927.3,4.48,0.87,4.81,245.4,-17.5,0.7,4.5,0.8,0.0,n/a,OK,4.0,    
303.00,4.079,7492.0,1838.3,1927.1,4.48,0.90,4.82,245.4,-15.5,0.7,4.5,0.7,0.0,n/a,OK,4.0,    
303.50,4.048,7436.0,1825.7,1927.0,4.51,0.93,4.83,245.3,-16.4,0.7,4.5,-0.1,0.0,n/a,OK,4.0,    
