#Time,Rho,X,Z,Alt,AoA,GSE,LUE,Vtot,Vy,Gamma,Pitch,Roll,Yaw,Step,Grade,Points,Details
0.00,13.642,20814.8,-14542.5,5822.9,1.31,0.51,-44.18,490.2,6.1,178.0,1.3,2.1,0.0,n/a,OK,4.0,    
0.50,13.690,20944.0,-14516.2,5822.9,1.32,0.50,-43.96,490.2,2.9,178.1,1.3,2.1,0.0,n/a,OK,4.0,    
1.00,13.740,21073.2,-14490.0,5822.9,1.32,0.48,-43.75,490.1,1.4,178.1,1.3,2.1,0.0,n/a,OK,4.0,    
1.50,13.789,21202.4,-14463.9,5822.9,1.32,0.47,-43.54,490.1,1.0,178.2,1.3,2.1,0.0,n/a,OK,4.0,    
2.00,13.839,21331.6,-14437.9,5823.0,1.32,0.45,-43.33,490.0,0.9,178.2,1.3,2.1,0.0,n/a,OK,4.0,    
2.50,13.888,21460.9,-14411.9,5823.0,1.31,0.44,-43.12,490.0,0.2,178.3,1.3,2.1,0.0,n/a,OK,4.0,    
3.00,13.939,21590.1,-14386.1,5823.0,1.32,0.42,-42.91,489.9,-3.5,178.3,1.3,2.1,0.0,n/a,OK,4.0,    
3.50,13.989,21719.3,-14360.3,5822.9,1.32,0.41,-42.70,489.9,-3.6,178.3,1.3,2.1,0.0,n/a,OK,4.0,    
4.00,14.039,21848.6,-14334.6,5822.9,1.32,0.40,-42.50,489.8,-4.1,178.4,1.3,2.1,0.0,n/a,OK,4.0,    
4.50,14.090,21977.8,-14309.0,5822.9,1.32,0.38,-42.30,489.8,-2.3,178.4,1.3,2.1,0.0,n/a,OK,4.0,    
5.00,14.141,22107.1,-14283.5,5822.9,1.32,0.37,-42.10,489.7,-1.7,178.5,1.3,2.1,0.0,n/a,OK,4.0,    
5.50,14.192,22236.3,-14258.1,5822.8,1.32,0.35,-41.90,489.7,-3.9,178.5,1.3,2.1,0.0,n/a,OK,4.0,    
6.00,14.243,22365.6,-14232.8,5822.8,1.32,0.34,-41.70,489.7,-4.8,178.5,1.3,2.1,0.0,n/a,OK,4.0,    
6.50,14.295,22494.9,-14207.5,5822.8,1.32,0.33,-41.50,489.6,-3.9,178.6,1.3,2.1,0.0,n/a,OK,4.0,    
7.00,14.346,22624.1,-14182.4,5822.7,1.32,0.31,-41.31,489.6,-3.3,178.6,1.3,2.1,0.0,n/a,OK,4.0,    
7.50,14.398,22753.4,-14157.3,5822.7,1.32,0.30,-41.12,489.6,-2.0,178.7,1.3,2.1,0.0,n/a,OK,4.0,    
8.00,14.450,22882.7,-14132.3,5822.7,1.32,0.29,-40.92,489.5,-2.8,178.7,1.3,2.1,0.0,n/a,OK,4.0,    
8.50,14.502,23012.0,-14107.4,5822.7,1.32,0.27,-40.73,489.5,-2.7,178.7,1.3,2.1,0.0,n/a,OK,4.0,    
9.00,14.555,23141.3,-14082.6,5822.7,1.32,0.26,-40.55,489.4,-1.3,178.8,1.3,2.1,0.0,n/a,OK,4.0,    
9.50,14.608,23270.7,-14057.9,5822.7,1.32,0.25,-40.36,489.4,-1.9,178.8,1.3,2.1,0.0,n/a,OK,4.0,    
10.00,14.660,23400.0,-14033.2,5822.7,1.32,0.23,-40.17,489.4,1.0,178.9,1.3,2.1,0.0,n/a,OK,4.0,    
10.50,14.713,23529.3,-14008.7,5822.7,1.32,0.22,-39.99,489.3,-1.3,178.9,1.3,2.1,0.0,n/a,OK,4.0,    
11.00,14.767,23658.7,-13984.2,5822.7,1.32,0.20,-39.81,489.3,0.5,178.9,1.3,2.1,0.0,n/a,OK,4.0,    
11.50,14.820,23788.0,-13959.9,5822.7,1.32,0.19,-39.63,489.2,-0.8,179.0,1.3,2.1,0.0,n/a,OK,4.0,    
12.00,14.873,23917.4,-13935.6,5822.7,1.32,0.18,-39.45,489.2,-0.5,179.0,1.3,2.1,0.0,n/a,OK,4.0,    
12.50,14.927,24046.7,-13911.4,5822.7,1.32,0.17,-39.27,489.1,1.2,179.1,1.3,2.1,0.0,n/a,OK,4.0,    
13.00,14.981,24176.1,-13887.3,5822.7,1.32,0.15,-39.09,489.1,-0.4,179.1,1.3,2.1,0.0,n/a,OK,4.0,    
13.50,15.035,24305.5,-13863.3,5822.7,1.32,0.14,-38.92,489.1,0.8,179.1,1.3,2.1,0.0,n/a,OK,4.0,    
14.00,15.089,24434.9,-13839.3,5822.7,1.32,0.13,-38.74,489.0,1.5,179.2,1.3,2.1,0.0,n/a,OK,4.0,    
14.50,15.144,24564.3,-13815.5,5822.7,1.32,0.11,-38.57,489.0,-1.3,179.2,1.3,2.1,0.0,n/a,OK,4.0,    
15.00,15.198,24693.7,-13791.7,5822.7,1.32,0.10,-38.40,489.0,1.6,179.3,1.3,2.1,0.0,n/a,OK,4.0,    
15.50,15.253,24823.1,-13768.1,5822.7,1.32,0.09,-38.23,489.0,2.0,179.3,1.3,2.1,0.0,n/a,OK,4.0,    
16.00,15.308,24952.5,-13744.5,5822.7,1.32,0.07,-38.06,488.9,-0.8,179.3,1.3,2.1,0.0,n/a,OK,4.0,    
16.50,15.363,25081.9,-13721.0,5822.7,1.32,0.06,-37.89,488.9,2.0,179.4,1.3,2.1,0.0,n/a,OK,4.0,    
17.00,15.418,25211.3,-13697.6,5822.7,1.33,0.05,-37.73,488.8,-1.0,179.4,1.3,2.1,0.0,n/a,OK,4.0,    
17.50,15.473,25340.8,-13674.2,5822.7,1.32,0.04,-37.56,488.8,2.3,179.5,1.3,2.1,0.0,n/a,OK,4.0,    
18.00,15.529,25470.2,-13651.0,5822.7,1.32,0.02,-37.40,488.8,3.5,179.5,1.3,2.1,0.0,n/a,OK,4.0,    
18.50,15.584,25599.7,-13627.9,5822.8,1.33,0.01,-37.24,488.8,-0.6,179.5,1.3,2.1,0.0,n/a,OK,4.0,    
19.00,15.640,25729.2,-13604.8,5822.8,1.32,-0.00,-37.08,488.7,0.2,179.6,1.3,2.1,0.0,n/a,OK,4.0,    
19.50,15.696,25858.6,-13581.8,5822.8,1.32,-0.01,-36.92,488.7,2.3,179.6,1.3,2.1,0.0,n/a,OK,4.0,    
20.00,15.752,25988.1,-13558.9,5822.8,1.32,-0.03,-36.76,488.7,1.5,179.7,1.3,2.1,0.0,n/a,OK,4.0,    
20.50,15.808,26117.6,-13536.1,5822.8,1.33,-0.04,-36.60,488.6,-1.0,179.7,1.3,2.1,0.0,n/a,OK,4.0,    
21.00,15.865,26247.1,-13513.4,5822.8,1.32,-0.05,-36.45,488.6,4.0,179.7,1.3,2.1,0.0,n/a,OK,4.0,    
21.50,15.921,26376.6,-13490.8,5822.8,1.33,-0.06,-36.29,488.6,-0.6,179.8,1.3,2.1,0.0,n/a,OK,4.0,    
22.00,15.978,26506.1,-13468.3,5822.8,1.32,-0.08,-36.14,488.5,3.6,179.8,1.3,2.1,0.0,n/a,OK,4.0,    
22.50,16.035,26635.6,-13445.8,5822.8,1.32,-0.09,-35.99,488.5,-1.3,179.9,1.3,2.1,0.0,n/a,OK,4.0,    
23.00,16.092,26765.1,-13423.5,5822.8,1.32,-0.10,-35.84,488.5,-1.0,179.9,1.3,2.1,0.0,n/a,OK,4.0,    
23.50,16.149,26894.7,-13401.2,5822.8,1.32,-0.11,-35.69,488.4,-2.5,179.9,1.3,2.1,0.0,n/a,OK,4.0,    
24.00,16.206,27024.2,-13379.0,5822.8,1.32,-0.12,-35.54,488.4,0.6,180.0,1.3,2.1,0.0,n/a,OK,4.0,    
24.50,16.263,27153.7,-13356.9,5822.8,1.32,-0.13,-35.39,488.4,0.5,180.0,1.3,2.1,0.0,n/a,OK,4.0,    
25.00,16.321,27283.3,-13334.9,5822.8,1.32,-0.15,-35.25,488.3,-2.4,179.9,1.3,2.1,0.0,n/a,OK,4.0,    
25.50,16.378,27412.9,-13313.0,5822.8,1.32,-0.16,-35.10,488.3,1.0,179.9,1.3,2.1,0.0,n/a,OK,4.0,    
26.00,16.436,27542.4,-13291.1,5822.8,1.33,-0.17,-34.96,488.3,-3.2,179.9,1.3,2.1,0.0,n/a,OK,4.0,    
26.50,16.494,27672.0,-13269.4,5822.8,1.32,-0.18,-34.82,488.3,0.3,179.8,1.3,2.1,0.0,n/a,OK,4.0,    
27.00,16.552,27801.6,-13247.7,5822.8,1.33,-0.19,-34.68,488.3,-3.7,179.8,1.3,1.9,0.0,n/a,OK,4.0,    
27.50,16.610,27931.2,-13226.1,5822.8,1.32,-0.20,-34.54,488.2,-1.6,179.8,1.3,0.6,0.0,n/a,OK,4.0,    
28.00,16.668,28060.8,-13204.6,5822.7,1.31,-0.22,-34.40,488.2,-9.5,179.8,1.3,-0.9,0.0,n/a,OK,4.0,    
28.50,16.726,28190.4,-13182.9,5822.6,1.32,-0.23,-34.26,488.2,-19.6,179.8,1.3,-2.3,0.0,n/a,OK,4.0,    
29.00,16.785,28320.0,-13161.2,5822.5,1.33,-0.24,-34.12,488.2,-17.9,179.9,1.3,-3.6,0.0,n/a,OK,4.0,    
29.50,16.843,28449.5,-13139.4,5822.3,1.34,-0.25,-33.99,488.2,-9.6,180.0,1.3,-4.4,0.0,n/a,OK,4.0,    
30.00,16.902,28579.0,-13117.4,5822.3,1.35,-0.26,-33.85,488.2,4.6,179.9,1.4,-4.1,0.0,n/a,OK,4.0,    
30.50,16.960,28708.5,-13095.2,5822.4,1.34,-0.27,-33.71,488.1,15.0,179.8,1.3,-3.8,0.0,n/a,OK,4.0,    
31.00,17.019,28837.9,-13072.9,5822.6,1.34,-0.28,-33.58,488.1,22.0,179.8,1.4,-3.7,0.0,n/a,OK,4.0,    
31.50,17.077,28967.3,-13050.4,5822.8,1.33,-0.29,-33.45,487.6,24.6,179.7,1.4,-3.7,0.0,n/a,OK,4.0,    
32.00,17.136,29096.3,-13027.9,5822.9,1.34,-0.31,-33.31,485.5,12.3,179.6,1.3,-3.8,0.0,n/a,OK,4.0,    
32.50,17.194,29224.7,-13005.2,5823.0,1.36,-0.32,-33.18,483.2,-3.8,179.5,1.3,-3.8,0.0,n/a,OK,4.0,    
33.00,17.252,29352.5,-12982.6,5822.9,1.37,-0.33,-33.05,480.8,-20.4,179.5,1.3,-3.8,0.0,n/a,OK,4.0,    
33.50,17.310,29479.7,-12959.9,5822.6,1.40,-0.34,-32.92,478.4,-40.6,179.4,1.3,-3.8,0.0,n/a,OK,4.0,    
34.00,17.367,29606.1,-12937.1,5822.2,1.42,-0.35,-32.79,475.8,-48.8,179.3,1.4,-3.8,0.0,n/a,OK,4.0,    
34.50,17.425,29731.9,-12914.3,5821.8,1.44,-0.36,-32.67,473.1,-52.7,179.2,1.4,-3.8,0.0,n/a,OK,4.0,    
35.00,17.482,29857.0,-12891.5,5821.4,1.47,-0.37,-32.54,470.4,-55.1,179.2,1.4,-3.8,0.0,n/a,OK,4.0,    
35.50,17.538,29981.3,-12868.6,5820.9,1.49,-0.38,-32.42,467.8,-54.5,179.1,1.4,-3.8,0.0,n/a,OK,4.0,    
36.00,17.595,30105.0,-12845.6,5820.5,1.51,-0.39,-32.30,465.2,-48.4,179.0,1.4,-3.8,0.0,n/a,OK,4.0,    
36.50,17.651,30228.0,-12822.7,5820.0,1.54,-0.40,-32.18,462.6,-49.1,178.9,1.5,-3.8,0.0,n/a,OK,4.0,    
37.00,17.707,30350.3,-12799.7,5819.7,1.56,-0.41,-32.05,460.1,-42.2,178.9,1.5,-3.8,0.0,n/a,OK,4.0,    
37.50,17.762,30472.0,-12776.6,5819.4,1.58,-0.42,-31.94,457.6,-36.3,178.8,1.5,-3.8,0.0,n/a,OK,4.0,    
38.00,17.818,30593.0,-12753.5,5819.1,1.60,-0.43,-31.82,455.1,-31.6,178.7,1.6,-3.8,0.0,n/a,OK,4.0,    
38.50,17.873,30713.3,-12730.4,5818.9,1.62,-0.44,-31.70,452.8,-21.3,178.6,1.6,-3.8,0.0,n/a,OK,4.0,    
39.00,17.928,30833.1,-12707.2,5818.7,1.64,-0.45,-31.58,450.6,-14.4,178.5,1.6,-3.8,0.0,n/a,OK,4.0,    
39.50,17.982,30952.2,-12684.0,5818.6,1.65,-0.46,-31.47,448.4,-2.8,178.5,1.6,-3.8,0.0,n/a,OK,4.0,    
40.00,18.037,31070.8,-12660.7,5818.6,1.67,-0.47,-31.36,446.2,3.2,178.4,1.7,-3.8,0.0,n/a,OK,4.0,    
40.50,18.091,31188.7,-12637.3,5818.7,1.69,-0.48,-31.24,444.0,4.2,178.3,1.7,-3.8,0.0,n/a,OK,4.0,    
41.00,18.145,31306.1,-12613.9,5818.7,1.71,-0.48,-31.13,441.8,11.7,178.2,1.7,-3.8,0.0,n/a,OK,4.0,    
41.50,18.199,31422.9,-12590.5,5818.8,1.72,-0.49,-31.02,439.7,16.5,178.1,1.7,-3.8,0.0,n/a,OK,4.0,    
42.00,18.252,31539.2,-12567.0,5819.0,1.74,-0.50,-30.91,438.6,25.4,178.0,1.8,-3.8,0.0,n/a,OK,4.0,    
42.50,18.306,31655.5,-12543.3,5819.3,1.75,-0.51,-30.80,439.4,50.9,178.0,1.8,-3.8,0.0,n/a,OK,4.0,    
43.00,18.360,31772.0,-12519.4,5819.9,1.74,-0.52,-30.69,440.7,78.3,177.9,1.8,-3.8,0.0,n/a,OK,4.0,    
43.50,18.413,31888.8,-12495.3,5820.6,1.71,-0.53,-30.58,441.1,101.4,177.8,1.8,-3.8,0.0,n/a,OK,4.0,    
44.00,18.467,32005.5,-12471.1,5821.5,1.70,-0.54,-30.47,441.2,106.8,177.7,1.8,-3.8,0.0,n/a,OK,4.0,    
44.50,18.521,32122.2,-12446.7,5822.4,1.69,-0.54,-30.36,441.4,113.0,177.6,1.8,-3.8,0.0,n/a,OK,4.0,    
45.00,18.575,32239.0,-12422.1,5823.3,1.68,-0.55,-30.25,441.7,110.8,177.6,1.8,-3.8,0.0,n/a,OK,4.0,    
45.50,18.629,32355.7,-12397.3,5824.2,1.67,-0.56,-30.15,441.0,95.0,177.5,1.8,-3.8,0.0,n/a,OK,4.0,    
46.00,18.683,32472.1,-12372.5,5824.9,1.68,-0.57,-30.04,439.4,67.6,177.4,1.8,-3.8,0.0,n/a,OK,4.0,    
46.50,18.737,32588.1,-12347.6,5825.3,1.69,-0.58,-29.93,438.2,43.9,177.3,1.8,-3.8,0.0,n/a,OK,4.0,    
47.00,18.790,32703.7,-12322.6,5825.6,1.71,-0.58,-29.83,437.4,24.8,177.2,1.7,-3.8,0.0,n/a,OK,4.0,    
47.50,18.844,32819.2,-12297.5,5825.8,1.71,-0.59,-29.72,436.7,9.9,177.2,1.7,-3.8,0.0,n/a,OK,4.0,    
48.00,18.897,32934.4,-12272.3,5825.8,1.72,-0.60,-29.62,435.8,-5.8,177.1,1.7,-3.8,0.0,n/a,OK,4.0,    
48.50,18.951,33049.4,-12247.0,5825.7,1.73,-0.61,-29.51,434.9,-21.2,177.0,1.7,-3.8,0.0,n/a,OK,4.0,    
49.00,19.004,33164.1,-12221.6,5825.5,1.74,-0.62,-29.41,434.0,-29.1,176.9,1.7,-3.8,0.0,n/a,OK,4.0,    
49.50,19.057,33278.5,-12196.0,5825.2,1.75,-0.63,-29.31,433.1,-36.7,176.8,1.7,-3.8,0.0,n/a,OK,4.0,    
50.00,19.110,33392.7,-12170.4,5824.8,1.77,-0.63,-29.20,432.3,-46.2,176.8,1.7,-3.8,0.0,n/a,OK,4.0,    
50.50,19.163,33506.7,-12144.7,5824.4,1.78,-0.64,-29.10,431.4,-50.4,176.7,1.7,-3.8,0.0,n/a,OK,4.0,    
51.00,19.216,33620.4,-12118.8,5824.0,1.79,-0.65,-29.00,430.6,-49.4,176.6,1.7,-3.8,0.0,n/a,OK,4.0,    
51.50,19.269,33733.8,-12092.9,5823.6,1.80,-0.66,-28.90,429.7,-46.6,176.5,1.7,-3.8,0.0,n/a,OK,4.0,    
52.00,19.322,33847.0,-12066.8,5823.2,1.82,-0.67,-28.80,428.9,-45.7,176.4,1.8,-3.8,0.0,n/a,OK,4.0,    
52.50,19.374,33960.0,-12040.6,5822.9,1.83,-0.67,-28.70,428.1,-40.2,176.3,1.8,-3.8,0.0,n/a,OK,4.0,    
53.00,19.427,34072.7,-12014.4,5822.5,1.84,-0.68,-28.60,427.2,-36.4,176.3,1.8,-3.8,0.0,n/a,OK,4.0,    
53.50,19.479,34185.1,-11988.0,5822.2,1.85,-0.69,-28.50,426.4,-30.4,176.2,1.8,-3.8,0.0,n/a,OK,4.0,    
54.00,19.532,34297.3,-11961.5,5822.0,1.86,-0.70,-28.40,425.6,-24.9,176.1,1.8,-3.8,0.0,n/a,OK,4.0,    
54.50,19.584,34409.3,-11934.9,5821.9,1.87,-0.70,-28.30,424.8,-15.9,176.0,1.8,-3.8,0.0,n/a,OK,4.0,    
55.00,19.636,34521.1,-11908.2,5821.7,1.88,-0.71,-28.21,424.0,-10.5,175.9,1.9,-3.8,0.0,n/a,OK,4.0,    
55.50,19.689,34632.5,-11881.4,5821.7,1.88,-0.72,-28.11,423.2,-3.8,175.8,1.9,-3.8,0.0,n/a,OK,4.0,    
56.00,19.741,34743.8,-11854.5,5821.7,1.89,-0.73,-28.01,422.4,0.3,175.7,1.9,-3.8,0.0,n/a,OK,4.0,    
56.50,19.793,34854.8,-11827.4,5821.7,1.89,-0.73,-27.92,421.7,8.3,175.7,1.9,-3.8,0.0,n/a,OK,4.0,    
57.00,19.845,34965.6,-11800.3,5821.8,1.90,-0.74,-27.82,420.9,12.4,175.6,1.9,-3.8,0.0,n/a,OK,4.0,    
57.50,19.896,35076.2,-11773.1,5821.9,1.91,-0.75,-27.73,420.1,12.3,175.5,1.9,-3.8,0.0,n/a,OK,4.0,    
58.00,19.948,35186.5,-11745.7,5822.0,1.91,-0.76,-27.63,419.3,19.4,175.4,1.9,-3.8,0.0,n/a,OK,4.0,    
58.50,20.000,35296.6,-11718.3,5822.2,1.92,-0.76,-27.54,418.6,18.7,175.3,1.9,-3.8,0.0,n/a,OK,4.0,    
59.00,20.051,35406.5,-11690.7,5822.3,1.92,-0.77,-27.44,417.8,19.7,175.2,1.9,-3.8,0.0,n/a,OK,4.0,    
59.50,20.103,35516.1,-11663.0,5822.5,1.93,-0.78,-27.35,417.1,17.2,175.1,2.0,-3.8,0.0,n/a,OK,4.0,    
60.00,20.154,35625.5,-11635.2,5822.7,1.93,-0.78,-27.26,416.4,21.3,175.1,2.0,-3.8,0.0,n/a,OK,4.0,    
60.50,20.206,35734.7,-11607.4,5822.8,1.94,-0.79,-27.17,415.6,16.1,175.0,2.0,-3.8,0.0,n/a,OK,4.0,    
61.00,20.257,35843.7,-11579.4,5822.9,1.96,-0.80,-27.07,414.9,11.5,174.9,2.0,-3.8,0.0,n/a,OK,4.0,    
61.50,20.308,35952.4,-11551.3,5823.0,1.96,-0.80,-26.98,414.2,12.2,174.8,2.0,-3.8,0.0,n/a,OK,4.0,    
62.00,20.359,36061.0,-11523.1,5823.1,1.96,-0.81,-26.89,413.5,12.8,174.7,2.0,-3.8,0.0,n/a,OK,4.0,    
62.50,20.410,36169.3,-11494.8,5823.2,1.97,-0.82,-26.80,412.8,8.5,174.6,2.0,-3.8,0.0,n/a,OK,4.0,    
63.00,20.461,36277.4,-11466.3,5823.3,1.98,-0.82,-26.71,412.1,7.3,174.5,2.0,-3.8,0.0,n/a,OK,4.0,    
63.50,20.512,36385.3,-11437.8,5823.3,1.99,-0.83,-26.62,411.4,2.6,174.4,2.0,-3.8,0.0,n/a,OK,4.0,    
64.00,20.563,36492.9,-11409.2,5823.3,2.00,-0.84,-26.53,410.7,1.0,174.4,2.0,-3.8,0.0,n/a,OK,4.0,    
64.50,20.614,36600.4,-11380.5,5823.3,2.00,-0.84,-26.44,410.1,-0.8,174.3,2.0,-3.8,0.0,n/a,OK,4.0,    
65.00,20.664,36707.7,-11351.6,5823.3,2.01,-0.85,-26.35,409.4,-4.6,174.2,2.0,-3.8,0.0,n/a,OK,4.0,    
65.50,20.715,36814.7,-11322.7,5823.2,2.02,-0.86,-26.26,408.7,-3.0,174.1,2.0,-3.8,0.0,n/a,OK,4.0,    
66.00,20.765,36921.5,-11293.6,5823.2,2.02,-0.86,-26.18,408.1,-1.3,174.0,2.0,-3.8,0.0,n/a,OK,4.0,    
66.50,20.816,37028.1,-11264.4,5823.2,2.03,-0.87,-26.09,407.4,-3.8,173.9,2.0,-3.8,0.0,n/a,OK,4.0,    
67.00,20.866,37134.6,-11235.2,5823.1,2.04,-0.88,-26.00,406.8,-6.5,173.8,2.0,-3.8,0.0,n/a,OK,4.0,    
67.50,20.916,37240.8,-11205.8,5823.1,2.05,-0.88,-25.91,406.1,-7.2,173.8,2.0,-3.8,0.0,n/a,OK,4.0,    
68.00,20.967,37346.8,-11176.3,5823.0,2.06,-0.89,-25.83,405.5,-6.7,173.7,2.0,-3.8,0.0,n/a,OK,4.0,    
68.50,21.017,37452.6,-11146.7,5823.0,2.06,-0.89,-25.74,404.8,-3.1,173.6,2.1,-3.8,0.0,n/a,OK,4.0,    
69.00,21.067,37558.2,-11117.0,5822.9,2.07,-0.90,-25.65,404.2,-4.1,173.5,2.1,-3.8,0.0,n/a,OK,4.0,    
69.50,21.117,37663.6,-11087.2,5822.9,2.08,-0.91,-25.57,403.6,-4.8,173.4,2.1,-3.8,0.0,n/a,OK,4.0,    
70.00,21.167,37768.8,-11057.2,5822.9,2.09,-0.91,-25.48,403.0,-0.6,173.3,2.1,-3.8,0.0,n/a,OK,4.0,    
70.50,21.217,37873.9,-11027.2,5822.9,2.09,-0.92,-25.40,402.4,0.3,173.2,2.1,-3.8,0.0,n/a,OK,4.0,    
71.00,21.266,37978.7,-10997.1,5822.9,2.11,-0.92,-25.31,401.7,-1.9,173.1,2.1,-3.8,0.0,n/a,OK,4.0,    
71.50,21.316,38083.3,-10966.8,5822.9,2.12,-0.93,-25.23,401.2,-3.1,173.0,2.1,-3.8,0.0,n/a,OK,4.0,    
72.00,21.366,38187.7,-10936.5,5822.9,2.12,-0.94,-25.15,400.5,3.5,172.9,2.1,-3.8,0.0,n/a,OK,4.0,    
72.50,21.415,38291.9,-10906.0,5822.9,2.13,-0.94,-25.06,400.0,-1.5,172.9,2.1,-3.8,0.0,n/a,OK,4.0,    
73.00,21.465,38396.0,-10875.4,5822.9,2.14,-0.95,-24.98,399.3,2.4,172.8,2.1,-3.8,0.0,n/a,OK,4.0,    
73.50,21.514,38499.8,-10844.7,5822.9,2.14,-0.95,-24.90,398.8,2.9,172.7,2.1,-3.7,0.0,n/a,OK,4.0,    
74.00,21.564,38603.5,-10814.0,5822.9,2.15,-0.96,-24.81,398.2,0.8,172.6,2.1,-3.2,0.0,n/a,OK,4.0,    
74.50,21.613,38706.9,-10783.1,5822.9,2.15,-0.97,-24.73,397.6,0.2,172.6,2.1,-2.3,0.0,n/a,OK,4.0,    
75.00,21.662,38810.2,-10752.2,5822.9,2.14,-0.97,-24.65,397.0,-2.5,172.6,2.1,-1.2,0.0,n/a,OK,4.0,    
75.50,21.711,38913.4,-10721.3,5822.9,2.14,-0.98,-24.57,396.5,-14.5,172.6,2.1,-0.0,0.0,n/a,OK,4.0,    
76.00,21.760,39016.4,-10690.4,5822.7,2.14,-0.98,-24.49,395.9,-31.5,172.6,2.1,1.1,0.0,n/a,OK,4.0,    
76.50,21.810,39119.3,-10659.6,5822.4,2.15,-0.99,-24.41,395.3,-45.0,172.6,2.1,1.1,0.0,n/a,OK,4.0,    
77.00,21.859,39222.0,-10628.9,5822.0,2.17,-0.99,-24.33,394.8,-50.7,172.6,2.1,0.7,0.0,n/a,OK,4.0,    
77.50,21.908,39324.6,-10598.2,5821.5,2.18,-1.00,-24.25,394.3,-54.1,172.6,2.1,0.5,0.0,n/a,OK,4.0,    
78.00,21.957,39427.1,-10567.6,5821.1,2.19,-1.01,-24.17,393.7,-56.4,172.6,2.1,0.5,0.0,n/a,OK,4.0,    
78.50,22.006,39529.5,-10537.1,5820.6,2.20,-1.01,-24.09,393.1,-54.7,172.7,2.1,0.6,0.0,n/a,OK,4.0,    
79.00,22.055,39631.7,-10506.6,5820.1,2.21,-1.02,-24.01,392.6,-52.9,172.7,2.1,0.6,0.0,n/a,OK,4.0,    
79.50,22.104,39733.8,-10476.1,5819.7,2.22,-1.02,-23.93,392.1,-49.4,172.7,2.1,0.6,0.0,n/a,OK,4.0,    
80.00,22.153,39835.8,-10445.8,5819.3,2.24,-1.03,-23.85,391.5,-45.2,172.7,2.2,0.6,0.0,n/a,OK,4.0,    
80.50,22.202,39937.6,-10415.5,5819.0,2.24,-1.03,-23.78,391.0,-36.9,172.7,2.2,0.6,0.0,n/a,OK,4.0,    
81.00,22.251,40039.3,-10385.2,5818.7,2.26,-1.04,-23.70,390.5,-32.3,172.7,2.2,0.6,0.0,n/a,OK,4.0,    
81.50,22.300,40141.0,-10355.0,5818.4,2.27,-1.05,-23.63,390.0,-26.6,172.7,2.2,0.6,0.0,n/a,OK,4.0,    
82.00,22.349,40242.4,-10324.9,5818.3,2.27,-1.05,-23.55,389.4,-15.4,172.8,2.2,0.6,0.0,n/a,OK,4.0,    
82.50,22.398,40343.8,-10294.8,5818.2,2.27,-1.06,-23.48,388.9,-7.0,172.8,2.3,0.6,0.0,n/a,OK,4.0,    
83.00,22.447,40445.0,-10264.8,5818.1,2.28,-1.06,-23.40,388.4,-1.4,172.8,2.3,0.6,0.0,n/a,OK,4.0,    
83.50,22.496,40546.1,-10234.9,5818.2,2.29,-1.07,-23.33,387.8,6.7,172.8,2.3,0.6,0.0,n/a,OK,4.0,    
84.00,22.545,40647.1,-10205.0,5818.2,2.29,-1.07,-23.25,387.3,11.6,172.8,2.3,0.6,0.0,n/a,OK,4.0,    
84.50,22.594,40748.0,-10175.2,5818.3,2.29,-1.08,-23.18,386.8,15.5,172.8,2.3,0.6,0.0,n/a,OK,4.0,    
85.00,22.643,40848.8,-10145.4,5818.5,2.30,-1.08,-23.11,386.3,19.8,172.8,2.3,0.6,0.0,n/a,OK,4.0,    
85.50,22.692,40949.4,-10115.7,5818.7,2.30,-1.09,-23.04,385.8,20.6,172.9,2.3,0.6,0.0,n/a,OK,4.0,    
86.00,22.740,41049.9,-10086.1,5818.8,2.30,-1.09,-22.96,385.3,22.1,172.9,2.3,0.6,0.0,n/a,OK,4.0,    
86.50,22.789,41150.3,-10056.5,5819.0,2.31,-1.10,-22.89,384.8,22.0,172.9,2.3,0.6,0.0,n/a,OK,4.0,    
87.00,22.838,41250.6,-10027.0,5819.2,2.31,-1.10,-22.82,384.2,19.7,172.9,2.3,0.6,0.0,n/a,OK,4.0,    
87.50,22.887,41350.8,-9997.5,5819.4,2.32,-1.11,-22.75,383.7,17.4,172.9,2.3,0.6,0.0,n/a,OK,4.0,    
88.00,22.936,41450.8,-9968.1,5819.5,2.32,-1.11,-22.68,383.3,18.4,172.9,2.3,0.6,0.0,n/a,OK,4.0,    
88.50,22.984,41550.7,-9938.8,5819.6,2.33,-1.12,-22.61,382.8,11.4,172.9,2.3,0.6,0.0,n/a,OK,4.0,    
89.00,23.033,41650.5,-9909.5,5819.7,2.33,-1.12,-22.54,381.6,7.7,173.0,2.3,0.6,0.0,n/a,OK,4.0,    
89.50,23.082,41749.9,-9880.3,5819.7,2.35,-1.13,-22.47,380.1,-6.7,173.0,2.3,0.6,0.0,n/a,OK,4.0,    
90.00,23.130,41849.0,-9851.3,5819.6,2.37,-1.13,-22.40,379.0,-16.6,173.0,2.3,0.6,0.0,n/a,OK,4.0,    
90.50,23.178,41947.8,-9822.4,5819.4,2.39,-1.14,-22.34,377.9,-23.3,173.0,2.4,0.6,0.0,n/a,OK,4.0,    
91.00,23.227,42046.4,-9793.6,5819.2,2.42,-1.14,-22.27,376.9,-30.3,173.0,2.4,0.6,0.0,n/a,OK,4.0,    
91.50,23.275,42144.7,-9764.8,5818.9,2.44,-1.15,-22.20,375.8,-33.5,173.0,2.4,0.6,0.0,n/a,OK,4.0,    
92.00,23.323,42242.8,-9736.2,5818.6,2.45,-1.15,-22.14,374.6,-34.6,173.0,2.4,0.6,0.0,n/a,OK,4.0,    
92.50,23.371,42340.6,-9707.7,5818.4,2.48,-1.16,-22.07,373.5,-35.2,173.1,2.4,0.6,0.0,n/a,OK,4.0,    
93.00,23.419,42438.1,-9679.2,5818.1,2.49,-1.16,-22.00,372.4,-31.0,173.1,2.4,0.6,0.0,n/a,OK,4.0,    
93.50,23.467,42535.3,-9650.9,5817.8,2.52,-1.17,-21.94,371.3,-31.1,173.1,2.5,0.6,0.0,n/a,OK,4.0,    
94.00,23.514,42632.3,-9622.7,5817.6,2.54,-1.17,-21.88,370.1,-29.9,173.1,2.5,0.6,0.0,n/a,OK,4.0,    
94.50,23.562,42729.0,-9594.6,5817.3,2.55,-1.18,-21.81,369.1,-24.0,173.1,2.5,0.6,0.0,n/a,OK,4.0,    
95.00,23.609,42825.5,-9566.6,5817.1,2.58,-1.18,-21.75,367.8,-23.8,173.1,2.5,0.6,0.0,n/a,OK,4.0,    
95.50,23.657,42921.6,-9538.7,5817.0,2.59,-1.19,-21.69,366.5,-18.1,173.1,2.6,0.6,0.0,n/a,OK,4.0,    
96.00,23.704,43017.4,-9510.9,5816.8,2.62,-1.19,-21.62,365.3,-14.5,173.2,2.6,0.6,0.0,n/a,OK,4.0,    
96.50,23.751,43112.9,-9483.2,5816.7,2.64,-1.20,-21.56,364.1,-12.0,173.2,2.6,0.6,0.0,n/a,OK,4.0,    
97.00,23.798,43208.2,-9455.6,5816.6,2.65,-1.20,-21.50,362.9,-3.7,173.2,2.6,0.6,0.0,n/a,OK,4.0,    
97.50,23.845,43303.1,-9428.2,5816.6,2.67,-1.20,-21.44,361.7,-0.7,173.2,2.7,0.6,0.0,n/a,OK,4.0,    
98.00,23.892,43397.8,-9400.8,5816.6,2.69,-1.21,-21.38,360.6,1.1,173.2,2.7,0.6,0.0,n/a,OK,4.0,    
98.50,23.938,43492.2,-9373.6,5816.6,2.71,-1.21,-21.32,359.4,5.6,173.2,2.7,0.6,0.0,n/a,OK,4.0,    
99.00,23.985,43586.3,-9346.4,5816.7,2.73,-1.22,-21.26,358.2,5.4,173.2,2.7,0.6,0.0,n/a,OK,4.0,    
99.50,24.031,43680.1,-9319.4,5816.7,2.75,-1.22,-21.20,357.0,4.3,173.3,2.8,0.6,0.0,n/a,OK,4.0,    
100.00,24.078,43773.6,-9292.5,5816.8,2.76,-1.23,-21.14,355.9,10.4,173.3,2.8,0.6,0.0,n/a,OK,4.0,    
100.50,24.124,43866.8,-9265.6,5816.9,2.78,-1.23,-21.08,354.7,10.1,173.3,2.8,0.6,0.0,n/a,OK,4.0,    
101.00,24.170,43959.8,-9238.9,5817.0,2.80,-1.24,-21.02,353.6,10.4,173.3,2.8,0.6,0.0,n/a,OK,4.0,    
101.50,24.216,44052.5,-9212.3,5817.0,2.82,-1.24,-20.97,352.4,9.7,173.3,2.8,0.6,0.0,n/a,OK,4.0,    
102.00,24.262,44144.9,-9185.8,5817.1,2.84,-1.24,-20.91,351.3,9.0,173.3,2.8,0.6,0.0,n/a,OK,4.0,    
102.50,24.308,44237.1,-9159.3,5817.2,2.85,-1.25,-20.85,350.2,7.7,173.4,2.9,0.6,0.0,n/a,OK,4.0,    
103.00,24.354,44329.0,-9133.0,5817.3,2.87,-1.25,-20.80,349.0,10.4,173.4,2.9,0.6,0.0,n/a,OK,4.0,    
103.50,24.399,44420.6,-9106.8,5817.3,2.89,-1.26,-20.74,347.9,5.7,173.4,2.9,0.6,0.0,n/a,OK,4.0,    
104.00,24.445,44511.9,-9080.7,5817.4,2.91,-1.26,-20.68,346.9,5.0,173.4,2.9,0.6,0.0,n/a,OK,4.0,    
104.50,24.490,44603.0,-9054.7,5817.4,2.93,-1.26,-20.63,345.8,4.4,173.4,2.9,0.6,0.0,n/a,OK,4.0,    
105.00,24.535,44693.8,-9028.7,5817.5,2.95,-1.27,-20.57,344.7,1.2,173.4,3.0,0.6,0.0,n/a,OK,4.0,    
105.50,24.580,44784.4,-9002.9,5817.5,2.97,-1.27,-20.52,343.6,2.4,173.5,3.0,0.6,0.0,n/a,OK,4.0,    
106.00,24.625,44874.7,-8977.2,5817.5,2.99,-1.28,-20.47,342.5,-1.1,173.5,3.0,0.6,0.0,n/a,OK,4.0,    
106.50,24.670,44964.7,-8951.6,5817.5,3.01,-1.28,-20.41,341.5,-3.0,173.5,3.0,0.6,0.0,n/a,OK,4.0,    
107.00,24.715,45054.5,-8926.0,5817.5,3.03,-1.29,-20.36,340.4,-4.0,173.5,3.0,0.6,0.0,n/a,OK,4.0,    
107.50,24.760,45144.0,-8900.6,5817.4,3.05,-1.29,-20.31,339.3,-3.4,173.5,3.0,0.6,0.0,n/a,OK,4.0,    
108.00,24.805,45233.3,-8875.3,5817.4,3.07,-1.29,-20.25,338.3,-4.3,173.5,3.1,0.6,0.0,n/a,OK,4.0,    
108.50,24.849,45322.3,-8850.0,5817.3,3.09,-1.30,-20.20,337.3,-5.2,173.5,3.1,0.6,0.0,n/a,OK,4.0,    
109.00,24.894,45411.1,-8824.9,5817.3,3.11,-1.30,-20.15,336.2,-3.6,173.6,3.1,0.6,0.0,n/a,OK,4.0,    
109.50,24.938,45499.6,-8799.8,5817.3,3.13,-1.30,-20.10,335.2,-1.2,173.6,3.1,0.6,0.0,n/a,OK,4.0,    
110.00,24.982,45587.9,-8774.8,5817.3,3.16,-1.31,-20.05,334.2,-7.6,173.6,3.1,0.6,0.0,n/a,OK,4.0,    
110.50,25.026,45676.0,-8750.0,5817.2,3.18,-1.31,-20.00,333.2,-3.6,173.6,3.2,0.6,0.0,n/a,OK,4.0,    
111.00,25.070,45763.8,-8725.2,5817.2,3.20,-1.32,-19.95,332.2,-4.3,173.6,3.2,0.6,0.0,n/a,OK,4.0,    
111.50,25.114,45851.3,-8700.5,5817.2,3.22,-1.32,-19.90,331.2,-1.1,173.7,3.2,0.6,0.0,n/a,OK,4.0,    
112.00,25.158,45938.6,-8675.9,5817.2,3.24,-1.32,-19.85,330.2,-0.6,173.7,3.2,0.6,0.0,n/a,OK,4.0,    
112.50,25.202,46025.7,-8651.4,5817.1,3.27,-1.33,-19.80,329.2,-4.4,173.7,3.3,0.6,0.0,n/a,OK,4.0,    
113.00,25.245,46112.6,-8627.0,5817.1,3.28,-1.33,-19.75,328.2,-0.2,173.7,3.3,0.6,0.0,n/a,OK,4.0,    
113.50,25.289,46199.2,-8602.7,5817.1,3.31,-1.34,-19.70,327.3,-0.1,173.7,3.3,0.6,0.0,n/a,OK,4.0,    
114.00,25.332,46285.5,-8578.4,5817.1,3.33,-1.34,-19.65,326.3,1.1,173.7,3.3,0.6,0.0,n/a,OK,4.0,    
114.50,25.376,46371.7,-8554.3,5817.1,3.34,-1.34,-19.60,325.3,3.3,173.7,3.3,0.6,0.0,n/a,OK,4.0,    
115.00,25.419,46457.6,-8530.2,5817.1,3.37,-1.35,-19.56,324.3,-0.4,173.8,3.4,0.6,0.0,n/a,OK,4.0,    
115.50,25.462,46543.2,-8506.3,5817.1,3.39,-1.35,-19.51,323.4,-0.4,173.8,3.4,0.6,0.0,n/a,OK,4.0,    
116.00,25.505,46628.7,-8482.4,5817.2,3.41,-1.35,-19.46,322.4,0.3,173.8,3.4,0.6,0.0,n/a,OK,4.0,    
116.50,25.548,46713.9,-8458.6,5817.2,3.42,-1.36,-19.41,321.5,3.3,173.8,3.4,0.6,0.0,n/a,OK,4.0,    
117.00,25.591,46798.9,-8434.9,5817.2,3.45,-1.36,-19.37,320.6,1.4,173.8,3.4,0.6,0.0,n/a,OK,4.0,    
117.50,25.634,46883.7,-8411.3,5817.2,3.47,-1.36,-19.32,320.0,3.9,173.8,3.5,0.6,0.0,n/a,OK,4.0,    
118.00,25.677,46968.4,-8387.7,5817.3,3.47,-1.37,-19.28,319.7,14.4,173.9,3.5,0.6,0.0,n/a,OK,4.0,    
118.50,25.719,47053.0,-8364.2,5817.4,3.48,-1.37,-19.23,319.2,19.1,173.9,3.5,0.6,0.0,n/a,OK,4.0,    
119.00,25.762,47137.5,-8340.7,5817.6,3.49,-1.37,-19.18,318.6,21.2,173.9,3.5,0.6,0.0,n/a,OK,4.0,    
119.50,25.805,47221.8,-8317.3,5817.8,3.50,-1.38,-19.14,318.0,23.3,173.9,3.5,0.6,0.0,n/a,OK,4.0,    
120.00,25.847,47306.0,-8293.9,5818.0,3.50,-1.38,-19.09,317.4,25.0,173.9,3.5,0.6,0.0,n/a,OK,4.0,    
120.50,25.890,47390.1,-8270.6,5818.2,3.52,-1.39,-19.05,316.9,20.0,174.0,3.6,0.6,0.0,n/a,OK,4.0,    
121.00,25.932,47474.1,-8247.4,5818.3,3.53,-1.39,-19.00,316.4,22.1,174.0,3.6,0.6,0.0,n/a,OK,4.0,    
121.50,25.975,47557.9,-8224.3,5818.5,3.54,-1.39,-18.96,315.8,18.1,174.0,3.6,0.6,0.0,n/a,OK,4.0,    
122.00,26.017,47641.6,-8201.2,5818.7,3.55,-1.40,-18.92,315.4,18.2,174.0,3.6,0.6,0.0,n/a,OK,4.0,    
122.50,26.060,47725.2,-8178.1,5818.8,3.55,-1.40,-18.87,315.2,20.3,174.0,3.6,0.4,0.0,n/a,OK,4.0,    
123.00,26.102,47808.9,-8155.1,5819.0,3.55,-1.40,-18.83,315.3,21.8,173.8,3.6,-3.7,0.0,n/a,OK,4.0,    
123.50,26.144,47892.5,-8131.8,5819.2,3.57,-1.41,-18.79,315.5,28.6,173.2,3.6,-11.8,0.0,n/a,OK,4.0,    
124.00,26.187,47976.0,-8108.1,5819.5,3.57,-1.41,-18.74,315.7,40.8,172.4,3.6,-21.4,0.0,n/a,OK,4.0,    
124.50,26.229,48059.2,-8083.4,5819.8,3.58,-1.41,-18.70,315.8,32.5,171.2,3.6,-30.9,0.0,n/a,OK,4.0,    
125.00,26.271,48142.1,-8057.4,5820.0,3.70,-1.42,-18.65,315.9,6.0,169.7,3.6,-38.6,0.0,n/a,OK,4.0,    
125.50,26.312,48224.4,-8029.7,5819.8,3.96,-1.42,-18.60,316.1,-56.9,168.0,3.6,-43.4,0.0,n/a,OK,4.0,    
126.00,26.353,48306.1,-8000.2,5819.2,4.44,-1.42,-18.55,316.3,-59.6,166.4,4.0,-40.7,0.0,n/a,OK,4.0,    
126.50,26.393,48387.0,-7968.9,5819.0,4.64,-1.43,-18.50,316.4,-1.0,164.9,4.2,-39.5,0.0,n/a,OK,4.0,    
127.00,26.433,48467.3,-7935.9,5819.0,4.65,-1.43,-18.45,316.6,6.5,163.0,4.0,-43.4,0.0,n/a,OK,4.0,    
127.50,26.472,48546.7,-7900.8,5818.9,4.73,-1.43,-18.39,316.8,-41.3,161.0,3.8,-47.6,0.0,n/a,OK,4.0,    
128.00,26.511,48625.0,-7863.4,5818.4,4.96,-1.43,-18.33,317.0,-71.5,159.0,3.9,-47.3,0.0,n/a,OK,4.0,    
128.50,26.548,48702.2,-7823.8,5817.9,5.09,-1.44,-18.27,317.1,-32.3,157.2,4.1,-46.0,0.0,n/a,OK,4.0,    
129.00,26.585,48778.2,-7782.0,5817.8,5.14,-1.44,-18.21,317.3,-0.5,155.3,4.2,-45.6,0.0,n/a,OK,4.0,    
129.50,26.621,48852.9,-7738.1,5817.9,5.15,-1.44,-18.15,317.6,31.8,153.5,4.2,-45.6,0.0,n/a,OK,4.0,    
130.00,26.657,48926.3,-7692.1,5818.3,5.13,-1.45,-18.08,317.8,65.7,151.7,4.3,-45.7,0.0,n/a,OK,4.0,    
130.50,26.691,48998.3,-7644.0,5819.0,5.10,-1.45,-18.01,317.9,93.3,149.9,4.3,-45.8,0.0,n/a,OK,4.0,    
131.00,26.724,49068.8,-7593.8,5819.9,5.07,-1.45,-17.94,318.1,121.6,148.1,4.3,-45.8,0.0,n/a,OK,4.0,    
131.50,26.757,49137.7,-7541.7,5821.0,5.04,-1.45,-17.87,318.4,140.2,146.3,4.3,-45.8,0.0,n/a,OK,4.0,    
132.00,26.789,49205.1,-7487.6,5822.2,5.01,-1.45,-17.80,318.6,155.8,144.6,4.4,-45.8,0.0,n/a,OK,4.0,    
132.50,26.819,49270.9,-7431.6,5823.5,4.97,-1.46,-17.72,318.7,164.6,142.8,4.3,-45.9,0.0,n/a,OK,4.0,    
133.00,26.849,49335.0,-7373.9,5824.9,4.94,-1.46,-17.65,318.9,166.6,141.1,4.3,-45.9,0.0,n/a,OK,4.0,    
133.50,26.877,49397.4,-7314.4,5826.3,4.91,-1.46,-17.57,319.0,164.1,139.4,4.3,-45.9,0.0,n/a,OK,4.0,    
134.00,26.905,49458.0,-7253.2,5827.6,4.88,-1.46,-17.49,319.2,156.7,137.6,4.3,-45.9,0.0,n/a,OK,4.0,    
134.50,26.931,49516.8,-7190.4,5828.9,4.85,-1.46,-17.41,319.3,145.9,135.9,4.2,-45.9,0.0,n/a,OK,4.0,    
135.00,26.957,49573.7,-7126.1,5830.1,4.83,-1.46,-17.33,319.4,130.2,134.2,4.2,-45.9,0.0,n/a,OK,4.0,    
135.50,26.981,49628.8,-7060.3,5831.1,4.80,-1.47,-17.24,319.5,112.6,132.5,4.1,-45.9,0.0,n/a,OK,4.0,    
136.00,27.004,49681.9,-6993.0,5831.9,4.79,-1.47,-17.16,319.6,91.4,130.8,4.1,-45.9,0.0,n/a,OK,4.0,    
136.50,27.027,49733.1,-6924.4,5832.6,4.78,-1.47,-17.07,319.7,64.3,129.1,4.1,-45.9,0.0,n/a,OK,4.0,    
137.00,27.048,49782.3,-6854.5,5833.0,4.77,-1.47,-16.99,319.8,43.2,127.4,4.0,-45.9,0.0,n/a,OK,4.0,    
137.50,27.068,49829.5,-6783.3,5833.3,4.77,-1.47,-16.90,319.8,23.9,125.7,4.0,-45.9,0.0,n/a,OK,4.0,    
138.00,27.087,49874.5,-6711.0,5833.4,4.78,-1.47,-16.81,319.8,0.5,123.9,3.9,-45.9,0.0,n/a,OK,4.0,    
138.50,27.104,49917.5,-6637.6,5833.3,4.78,-1.47,-16.72,319.8,-19.9,122.2,3.9,-45.9,0.0,n/a,OK,4.0,    
139.00,27.121,49958.3,-6563.1,5833.1,4.79,-1.48,-16.63,319.8,-36.7,120.5,3.9,-45.9,0.0,n/a,OK,4.0,    
139.50,27.136,49996.9,-6487.6,5832.7,4.81,-1.48,-16.54,319.8,-55.1,118.8,3.8,-45.9,0.0,n/a,OK,4.0,    
140.00,27.150,50033.3,-6411.2,5832.2,4.82,-1.48,-16.45,319.8,-64.0,117.0,3.8,-45.9,0.0,n/a,OK,4.0,    
140.50,27.163,50067.5,-6334.0,5831.7,4.84,-1.48,-16.35,319.8,-75.7,115.3,3.8,-45.9,0.0,n/a,OK,4.0,    
141.00,27.175,50099.3,-6255.9,5831.0,4.84,-1.48,-16.26,319.7,-83.1,113.5,3.8,-45.9,0.0,n/a,OK,4.0,    
141.50,27.186,50128.9,-6177.2,5830.3,4.86,-1.48,-16.17,319.7,-83.9,111.7,3.8,-45.9,0.0,n/a,OK,4.0,    
142.00,27.195,50156.0,-6097.7,5829.6,4.88,-1.48,-16.08,319.6,-87.1,110.0,3.8,-45.9,0.0,n/a,OK,4.0,    
142.50,27.203,50180.8,-6017.8,5828.9,4.89,-1.48,-15.98,319.5,-80.4,108.2,3.9,-45.9,0.0,n/a,OK,4.0,    
143.00,27.210,50203.2,-5937.3,5828.2,4.90,-1.48,-15.89,319.5,-73.2,106.4,3.9,-45.9,0.0,n/a,OK,4.0,    
143.50,27.216,50223.2,-5856.3,5827.6,4.91,-1.48,-15.79,319.4,-68.3,104.6,3.9,-45.9,0.0,n/a,OK,4.0,    
144.00,27.220,50240.7,-5775.0,5827.1,4.92,-1.49,-15.70,319.3,-62.4,102.9,3.9,-45.9,0.0,n/a,OK,4.0,    
144.50,27.223,50255.8,-5693.4,5826.6,4.93,-1.49,-15.61,319.2,-48.8,101.1,3.9,-45.9,0.0,n/a,OK,4.0,    
145.00,27.225,50268.4,-5611.6,5826.3,4.94,-1.49,-15.51,319.0,-39.0,99.3,4.0,-45.9,0.0,n/a,OK,4.0,    
145.50,27.225,50278.6,-5529.7,5826.0,4.94,-1.49,-15.42,318.9,-26.2,97.5,4.0,-45.9,0.0,n/a,OK,4.0,    
146.00,27.225,50286.3,-5447.7,5825.8,4.94,-1.49,-15.33,318.8,-15.5,95.7,4.0,-45.9,0.0,n/a,OK,4.0,    
146.50,27.223,50291.5,-5365.7,5825.7,4.93,-1.49,-15.23,318.6,0.3,94.0,4.0,-45.9,0.0,n/a,OK,4.0,    
147.00,27.219,50294.2,-5283.8,5825.8,4.92,-1.49,-15.14,318.5,9.3,92.2,4.0,-45.9,0.0,n/a,OK,4.0,    
147.50,27.215,50294.4,-5202.1,5825.9,4.93,-1.49,-15.05,318.4,18.0,90.5,4.1,-45.2,0.0,n/a,OK,4.0,    
148.00,27.209,50292.3,-5120.7,5826.1,4.97,-1.48,-14.96,318.2,56.0,88.9,4.3,-41.7,0.0,n/a,OK,4.0,    
148.50,27.203,50287.9,-5039.5,5827.0,4.90,-1.48,-14.86,318.0,169.8,87.8,4.6,-36.7,-0.0,n/a,OK,4.0,    
149.00,27.195,50281.6,-4958.6,5828.9,4.71,-1.48,-14.77,317.9,292.2,86.9,4.8,-31.9,-0.0,n/a,OK,4.0,    
149.50,27.186,50273.7,-4878.1,5831.9,4.44,-1.48,-14.68,317.8,410.7,86.2,4.9,-27.4,-0.0,n/a,OK,4.0,    
150.00,27.177,50264.4,-4797.7,5835.6,4.16,-1.48,-14.59,317.8,491.4,85.6,4.9,-22.8,-0.0,n/a,OK,4.0,    
150.50,27.167,50254.1,-4717.6,5839.9,3.87,-1.48,-14.50,317.8,543.7,85.4,4.8,-17.1,-0.0,n/a,OK,4.0,    
151.00,27.158,50243.1,-4637.6,5844.6,3.55,-1.47,-14.41,317.8,551.0,85.3,4.5,-11.2,-0.0,n/a,OK,4.0,    
151.50,27.147,50231.6,-4557.7,5849.0,3.25,-1.47,-14.33,317.9,495.4,85.3,4.1,-5.9,-0.0,n/a,OK,4.0,    
152.00,27.137,50219.8,-4477.9,5852.7,3.05,-1.47,-14.24,318.1,383.5,85.3,3.7,-1.0,-0.0,n/a,OK,4.0,    
152.50,27.127,50207.9,-4398.0,5855.3,2.90,-1.47,-14.15,318.1,234.5,85.5,3.3,3.9,-0.0,n/a,OK,4.0,    
153.00,27.117,50196.2,-4318.1,5856.5,2.83,-1.47,-14.06,318.3,55.5,85.8,2.9,10.8,-0.0,n/a,OK,4.0,    
153.50,27.107,50184.7,-4238.1,5856.3,2.93,-1.47,-13.97,318.4,-97.2,86.2,2.8,13.1,-0.0,n/a,OK,4.0,    
154.00,27.097,50173.7,-4157.9,5855.1,3.09,-1.47,-13.88,318.4,-208.7,86.3,2.7,10.4,-0.0,n/a,OK,4.0,    
154.50,27.088,50162.9,-4077.8,5853.0,3.19,-1.47,-13.79,318.4,-298.2,86.6,2.7,9.3,-0.0,n/a,OK,4.0,    
155.00,27.079,50152.4,-3997.5,5850.2,3.26,-1.47,-13.70,318.4,-373.4,86.9,2.6,9.3,-0.0,n/a,OK,4.0,    
155.50,27.070,50142.2,-3917.2,5846.8,3.32,-1.47,-13.61,318.3,-426.9,87.3,2.5,9.5,-0.0,n/a,OK,4.0,    
156.00,27.061,50132.5,-3836.9,5843.1,3.40,-1.47,-13.52,318.4,-461.5,87.6,2.5,9.6,-0.0,n/a,OK,4.0,    
156.50,27.053,50123.1,-3756.4,5839.2,3.48,-1.47,-13.43,318.3,-474.6,87.9,2.6,9.7,-0.0,n/a,OK,4.0,    
157.00,27.045,50114.2,-3675.9,5835.2,3.56,-1.47,-13.33,318.2,-466.0,88.2,2.7,9.7,-0.0,n/a,OK,4.0,    
157.50,27.037,50105.6,-3595.4,5831.4,3.63,-1.47,-13.24,318.2,-441.4,88.5,2.8,9.7,-0.0,n/a,OK,4.0,    
158.00,27.030,50097.5,-3514.7,5827.9,3.69,-1.47,-13.15,318.2,-401.2,88.9,2.9,9.7,-0.0,n/a,OK,4.0,    
158.50,27.023,50089.8,-3434.0,5824.8,3.74,-1.47,-13.06,318.1,-349.0,89.2,3.1,9.7,-0.0,n/a,OK,4.0,    
159.00,27.016,50082.6,-3353.3,5822.1,3.77,-1.47,-12.97,318.0,-284.3,89.5,3.2,9.7,-0.0,n/a,OK,4.0,    
159.50,27.009,50075.8,-3272.5,5820.0,3.80,-1.47,-12.88,318.0,-220.0,89.8,3.4,9.7,-0.0,n/a,OK,4.0,    
160.00,27.003,50069.4,-3191.6,5818.5,3.81,-1.47,-12.79,317.9,-149.7,90.1,3.5,9.7,-0.0,n/a,OK,4.0,    
160.50,26.997,50063.4,-3110.7,5817.5,3.82,-1.47,-12.69,317.9,-82.8,90.4,3.6,9.8,-0.0,n/a,OK,4.0,    
161.00,26.991,50058.0,-3029.7,5817.1,3.80,-1.47,-12.60,317.9,-13.6,90.7,3.7,9.8,-0.0,n/a,OK,4.0,    
161.50,26.986,50052.9,-2948.7,5817.2,3.78,-1.47,-12.51,317.9,46.9,91.1,3.8,9.8,-0.0,n/a,OK,4.0,    
162.00,26.981,50048.3,-2867.6,5817.8,3.75,-1.47,-12.42,317.9,101.7,91.4,3.9,9.8,-0.0,n/a,OK,4.0,    
162.50,26.976,50044.1,-2786.4,5818.9,3.72,-1.47,-12.32,318.0,144.0,91.6,4.0,9.4,-0.0,n/a,OK,4.0,    
163.00,26.972,50040.3,-2705.2,5820.2,3.68,-1.47,-12.23,318.0,180.9,91.8,4.0,7.3,-0.0,n/a,OK,4.0,    
163.50,26.967,50036.8,-2623.9,5821.8,3.61,-1.47,-12.14,318.0,205.3,91.8,4.0,4.6,-0.0,n/a,OK,4.0,    
164.00,26.963,50033.4,-2542.7,5823.6,3.52,-1.47,-12.05,318.1,210.1,91.9,3.9,2.1,-0.0,n/a,OK,4.0,    
164.50,26.959,50030.2,-2461.4,5825.3,3.44,-1.47,-11.95,318.1,194.0,91.8,3.8,0.0,-0.0,n/a,OK,4.0,    
165.00,26.956,50026.9,-2380.0,5826.7,3.37,-1.47,-11.86,318.1,158.3,91.8,3.7,-1.6,-0.0,n/a,OK,4.0,    
165.50,26.952,50023.7,-2298.7,5827.9,3.34,-1.46,-11.77,318.2,110.2,91.7,3.5,-2.7,-0.0,n/a,OK,4.0,    
166.00,26.948,50020.3,-2217.4,5828.6,3.36,-1.46,-11.67,318.2,67.9,91.7,3.5,-2.2,-0.0,n/a,OK,4.0,    
166.50,26.944,50016.9,-2136.0,5829.0,3.37,-1.46,-11.58,318.3,27.5,91.6,3.4,-1.7,-0.0,n/a,OK,4.0,    
167.00,26.940,50013.4,-2054.7,5829.1,3.37,-1.46,-11.49,318.3,-7.4,91.6,3.4,-1.5,-0.0,n/a,OK,4.0,    
167.50,26.937,50009.9,-1973.4,5828.9,3.38,-1.46,-11.40,318.3,-41.3,91.5,3.3,-1.5,-0.0,n/a,OK,4.0,    
168.00,26.933,50006.4,-1892.1,5828.4,3.39,-1.46,-11.30,318.3,-69.5,91.4,3.3,-1.6,-0.0,n/a,OK,4.0,    
168.50,26.930,50002.7,-1810.8,5827.7,3.41,-1.46,-11.21,318.3,-93.6,91.4,3.2,-1.6,-0.0,n/a,OK,4.0,    
169.00,26.926,49999.1,-1729.4,5826.9,3.43,-1.46,-11.12,318.3,-115.1,91.3,3.2,-1.7,-0.0,n/a,OK,4.0,    
169.50,26.922,49995.3,-1648.1,5825.9,3.46,-1.46,-11.02,318.3,-127.6,91.1,3.2,-5.1,-0.0,n/a,OK,4.0,    
170.00,26.919,49991.3,-1566.9,5824.7,3.50,-1.46,-10.93,318.2,-137.3,90.3,3.2,-16.1,-0.0,n/a,OK,4.0,    
170.50,26.915,49986.6,-1485.7,5823.6,3.50,-1.46,-10.84,318.1,-146.7,89.2,3.1,-27.9,-0.0,n/a,OK,4.0,    
171.00,26.910,49980.6,-1404.8,5822.3,3.59,-1.46,-10.74,317.9,-170.0,87.8,3.2,-36.9,0.0,n/a,OK,4.0,    
171.50,26.905,49972.9,-1324.2,5820.7,3.90,-1.46,-10.65,317.8,-201.4,86.2,3.4,-40.9,0.0,n/a,OK,4.0,    
172.00,26.899,49963.5,-1243.9,5819.0,4.23,-1.46,-10.56,317.5,-213.9,84.4,3.5,-43.6,0.0,n/a,OK,4.0,    
172.50,26.892,49952.0,-1164.1,5817.1,4.52,-1.46,-10.47,317.2,-250.1,82.4,3.5,-46.4,0.0,n/a,OK,4.0,    
173.00,26.883,49938.3,-1085.0,5814.9,4.90,-1.46,-10.38,316.9,-255.6,80.4,3.7,-45.5,0.0,n/a,OK,4.0,    
173.50,26.874,49922.3,-1006.5,5813.0,5.11,-1.46,-10.29,316.7,-186.6,78.6,4.0,-44.0,0.0,n/a,OK,4.0,    
174.00,26.863,49904.1,-928.7,5811.8,5.17,-1.46,-10.20,316.3,-110.6,76.8,4.1,-43.7,-0.0,n/a,OK,4.0,    
174.50,26.851,49883.6,-851.8,5811.1,5.17,-1.46,-10.11,316.1,-38.4,74.9,4.1,-44.8,-0.0,n/a,OK,4.0,    
175.00,26.838,49860.8,-775.7,5811.0,5.22,-1.46,-10.03,315.9,0.8,73.0,4.2,-45.3,-0.0,n/a,OK,4.0,    
175.50,26.824,49835.6,-700.7,5811.3,5.22,-1.46,-9.94,315.6,81.5,71.2,4.4,-44.8,-0.0,n/a,OK,4.0,    
176.00,26.809,49808.1,-626.7,5812.2,5.18,-1.46,-9.85,315.3,139.6,69.4,4.5,-44.8,-0.0,n/a,OK,4.0,    
176.50,26.792,49778.4,-553.9,5813.6,5.13,-1.46,-9.77,315.1,197.9,67.6,4.5,-44.8,-0.0,n/a,OK,4.0,    
177.00,26.775,49746.5,-482.2,5815.5,5.09,-1.46,-9.69,314.9,237.9,65.9,4.6,-44.9,-0.0,n/a,OK,4.0,    
177.50,26.756,49712.5,-411.7,5817.6,5.03,-1.45,-9.61,314.7,270.5,64.2,4.6,-44.9,-0.0,n/a,OK,4.0,    
178.00,26.736,49676.4,-342.6,5819.9,4.96,-1.45,-9.53,314.6,297.0,62.5,4.6,-44.9,-0.0,n/a,OK,4.0,    
178.50,26.715,49638.2,-274.7,5822.4,4.91,-1.45,-9.45,314.4,303.0,60.8,4.6,-44.9,-0.0,n/a,OK,4.0,    
179.00,26.693,49598.1,-208.2,5825.0,4.85,-1.45,-9.37,314.2,307.3,59.1,4.6,-44.9,-0.0,n/a,OK,4.0,    
179.50,26.671,49556.1,-143.2,5827.5,4.79,-1.44,-9.30,314.0,297.2,57.5,4.5,-44.9,-0.0,n/a,OK,4.0,    
180.00,26.647,49512.3,-79.6,5829.9,4.74,-1.44,-9.22,313.8,278.4,55.8,4.4,-44.9,-0.0,n/a,OK,4.0,    
180.50,26.622,49466.7,-17.4,5832.2,4.69,-1.44,-9.15,313.6,254.7,54.2,4.4,-44.9,-0.0,n/a,OK,4.0,    
181.00,26.597,49419.4,43.2,5834.1,4.66,-1.44,-9.08,313.4,220.6,52.6,4.3,-44.9,-0.0,n/a,OK,4.0,    
181.50,26.570,49370.4,102.2,5835.8,4.63,-1.43,-9.01,313.2,183.7,51.0,4.2,-45.0,-0.0,n/a,OK,4.0,    
182.00,26.543,49319.9,159.7,5837.2,4.61,-1.43,-8.95,313.0,144.0,49.4,4.1,-45.0,-0.0,n/a,OK,4.0,    
182.50,26.515,49267.8,215.5,5838.2,4.60,-1.43,-8.88,312.7,101.5,47.8,4.0,-45.0,-0.0,n/a,OK,4.0,    
183.00,26.486,49214.2,269.6,5838.9,4.59,-1.43,-8.82,312.5,60.7,46.1,3.9,-44.9,-0.0,n/a,OK,4.0,    
183.50,26.457,49159.1,321.9,5839.2,4.60,-1.42,-8.76,312.2,20.1,44.5,3.9,-45.0,-0.0,n/a,OK,4.0,    
184.00,26.426,49102.6,372.5,5839.2,4.60,-1.42,-8.70,312.0,-21.3,42.9,3.8,-45.0,-0.0,n/a,OK,4.0,    
184.50,26.395,49044.8,421.3,5838.9,4.63,-1.42,-8.64,311.7,-56.8,41.2,3.8,-45.0,-0.0,n/a,OK,4.0,    
185.00,26.364,48985.7,468.2,5838.3,4.64,-1.42,-8.58,311.4,-85.4,39.6,3.7,-45.0,-0.0,n/a,OK,4.0,    
185.50,26.331,48925.4,513.2,5837.5,4.67,-1.41,-8.53,311.1,-111.6,37.9,3.7,-45.0,-0.0,n/a,OK,4.0,    
186.00,26.298,48863.8,556.2,5836.5,4.70,-1.41,-8.48,310.8,-135.3,36.2,3.7,-45.0,-0.0,n/a,OK,4.0,    
186.50,26.265,48801.1,597.2,5835.3,4.73,-1.41,-8.43,310.5,-146.8,34.5,3.7,-45.0,-0.0,n/a,OK,4.0,    
187.00,26.230,48737.3,636.1,5834.0,4.76,-1.41,-8.38,310.2,-156.5,32.8,3.7,-45.0,-0.0,n/a,OK,4.0,    
187.50,26.196,48672.4,672.9,5832.7,4.79,-1.40,-8.34,309.9,-157.1,31.1,3.7,-45.0,-0.0,n/a,OK,4.0,    
188.00,26.160,48606.6,707.6,5831.4,4.82,-1.40,-8.30,309.6,-153.9,29.4,3.7,-45.0,-0.0,n/a,OK,4.0,    
188.50,26.125,48539.8,740.1,5830.2,4.83,-1.40,-8.26,309.3,-145.2,27.6,3.7,-45.0,-0.0,n/a,OK,4.0,    
189.00,26.088,48472.2,770.3,5829.0,4.86,-1.40,-8.22,308.9,-134.3,25.9,3.8,-45.0,-0.0,n/a,OK,4.0,    
189.50,26.052,48403.7,798.3,5827.9,4.88,-1.39,-8.19,308.6,-120.1,24.2,3.8,-45.0,-0.0,n/a,OK,4.0,    
190.00,26.015,48334.5,824.0,5827.0,4.89,-1.39,-8.15,308.3,-98.2,22.4,3.9,-45.0,-0.0,n/a,OK,4.0,    
190.50,25.977,48264.7,847.4,5826.3,4.90,-1.39,-8.12,308.0,-78.3,20.7,3.9,-45.0,-0.0,n/a,OK,4.0,    
191.00,25.939,48194.3,868.4,5825.7,4.90,-1.39,-8.10,307.6,-58.9,18.9,4.0,-44.9,-0.0,n/a,OK,4.0,    
191.50,25.901,48123.3,887.0,5825.3,4.90,-1.38,-8.07,307.3,-31.7,17.2,4.0,-44.6,-0.0,n/a,OK,4.0,    
192.00,25.863,48051.8,903.3,5825.2,4.90,-1.38,-8.05,307.0,-3.8,15.5,4.1,-44.0,-0.0,n/a,OK,4.0,    
192.50,25.824,47980.0,917.3,5825.3,4.88,-1.38,-8.03,306.7,38.2,13.9,4.2,-43.0,-0.0,n/a,OK,4.0,    
193.00,25.785,47907.9,929.0,5825.8,4.83,-1.37,-8.02,306.5,82.1,12.4,4.3,-42.1,-0.0,n/a,OK,4.0,    
193.50,25.746,47835.6,938.4,5826.7,4.78,-1.37,-8.01,306.2,124.3,10.9,4.3,-41.3,-0.0,n/a,OK,4.0,    
194.00,25.707,47763.1,945.7,5827.9,4.72,-1.37,-8.00,305.9,171.4,9.5,4.4,-39.5,-0.0,n/a,OK,4.0,    
194.50,25.668,47690.5,950.9,5829.5,4.66,-1.36,-7.99,305.8,237.7,8.3,4.6,-35.9,-0.0,n/a,OK,4.0,    
195.00,25.629,47617.8,954.3,5831.9,4.51,-1.36,-7.98,305.5,330.9,7.4,4.8,-31.5,-0.0,n/a,OK,4.0,    
195.50,25.590,47545.2,956.2,5835.0,4.28,-1.35,-7.98,305.5,416.0,6.7,4.8,-27.5,-0.0,n/a,OK,4.0,    
196.00,25.550,47472.5,956.7,5838.7,4.05,-1.35,-7.98,305.3,467.5,6.1,4.7,-23.7,-0.0,n/a,OK,4.0,    
196.50,25.511,47399.8,956.1,5842.7,3.81,-1.34,-7.97,305.3,487.8,5.7,4.6,-20.1,-0.0,n/a,OK,4.0,    
197.00,25.472,47327.2,954.6,5846.7,3.58,-1.34,-7.97,305.3,472.7,5.3,4.4,-16.8,-0.0,n/a,OK,4.0,    
197.50,25.433,47254.6,952.4,5850.5,3.38,-1.34,-7.98,305.3,419.1,5.0,4.1,-13.9,-0.0,n/a,OK,4.0,    
198.00,25.394,47182.0,949.6,5853.6,3.21,-1.33,-7.98,305.4,326.4,4.7,3.8,-13.9,-0.0,n/a,OK,4.0,    
198.50,25.354,47109.4,946.2,5855.9,3.14,-1.33,-7.98,305.4,203.2,4.2,3.5,-14.5,-0.0,n/a,OK,4.0,    
199.00,25.315,47036.8,942.3,5857.1,3.15,-1.32,-7.98,305.4,84.3,4.0,3.3,-12.0,-0.0,n/a,OK,4.0,    
199.50,25.276,46964.3,937.8,5857.4,3.13,-1.32,-7.99,305.4,-22.2,3.9,3.1,-7.5,-0.0,n/a,OK,4.0,    
200.00,25.237,46891.7,933.2,5856.8,3.08,-1.32,-7.99,305.4,-128.0,3.9,2.8,-3.4,-0.0,n/a,OK,4.0,    
200.50,25.198,46819.2,928.4,5855.2,3.03,-1.31,-7.99,305.4,-240.2,4.1,2.6,2.5,-0.0,n/a,OK,4.0,    
201.00,25.158,46746.7,923.7,5852.8,2.99,-1.31,-8.00,305.5,-364.2,4.5,2.3,10.2,-0.0,n/a,OK,4.0,    
201.50,25.119,46674.1,919.4,5849.3,3.10,-1.31,-8.00,305.6,-466.0,5.0,2.3,17.1,-0.0,n/a,OK,4.0,    
202.00,25.080,46601.5,915.7,5845.1,3.27,-1.31,-8.00,305.6,-527.1,5.7,2.3,22.0,-0.0,n/a,OK,4.0,    
202.50,25.041,46528.8,912.8,5840.6,3.49,-1.31,-8.01,305.6,-560.2,6.6,2.5,25.6,-0.0,n/a,OK,4.0,    
203.00,25.001,46456.1,911.0,5835.9,3.73,-1.30,-8.01,305.6,-561.9,7.7,2.6,28.8,-0.0,n/a,OK,4.0,    
203.50,24.962,46383.4,910.5,5831.3,3.96,-1.30,-8.01,305.6,-544.4,8.9,2.8,31.0,-0.0,n/a,OK,4.0,    
204.00,24.923,46310.7,911.3,5826.9,4.19,-1.30,-8.00,305.6,-485.8,10.1,3.1,30.4,-0.0,n/a,OK,4.0,    
204.50,24.884,46238.0,913.6,5823.3,4.34,-1.30,-8.00,305.6,-388.7,11.1,3.4,28.8,-0.0,n/a,OK,4.0,    
205.00,24.844,46165.4,917.3,5820.5,4.43,-1.30,-7.99,305.7,-276.8,12.3,3.7,28.6,-0.0,n/a,OK,4.0,    
205.50,24.805,46092.8,922.4,5818.6,4.45,-1.29,-7.98,305.7,-159.3,13.4,3.8,29.5,-0.0,n/a,OK,4.0,    
206.00,24.766,46020.3,929.0,5817.7,4.41,-1.29,-7.97,305.8,-72.3,14.8,3.9,32.9,-0.0,n/a,OK,4.0,    
206.50,24.727,45947.9,937.3,5817.3,4.44,-1.29,-7.96,306.0,-16.2,16.2,3.9,35.8,-0.0,n/a,OK,4.0,    
207.00,24.688,45875.8,947.4,5817.4,4.51,-1.28,-7.95,306.2,55.2,17.5,4.2,35.4,-0.0,n/a,OK,4.0,    
207.50,24.650,45803.8,959.4,5818.2,4.56,-1.28,-7.93,306.4,140.1,18.7,4.4,34.3,-0.0,n/a,OK,4.0,    
208.00,24.611,45732.0,973.0,5819.7,4.53,-1.28,-7.91,306.5,217.6,19.9,4.5,34.1,-0.0,n/a,OK,4.0,    
208.50,24.573,45660.5,988.3,5821.8,4.48,-1.27,-7.89,306.8,277.8,21.2,4.6,34.2,-0.0,n/a,OK,4.0,    
209.00,24.534,45589.3,1005.3,5824.3,4.41,-1.27,-7.87,307.0,328.5,22.4,4.6,34.3,-0.0,n/a,OK,4.0,    
209.50,24.496,45518.5,1024.0,5827.2,4.34,-1.26,-7.84,307.3,362.3,23.5,4.6,34.3,-0.0,n/a,OK,4.0,    
210.00,24.459,45447.9,1044.2,5830.3,4.27,-1.26,-7.81,307.5,384.4,24.7,4.6,34.4,-0.0,n/a,OK,4.0,    
210.50,24.421,45377.8,1066.1,5833.5,4.20,-1.25,-7.78,307.8,385.2,25.8,4.5,34.4,-0.0,n/a,OK,4.0,    
211.00,24.384,45308.0,1089.6,5836.7,4.14,-1.25,-7.75,308.0,374.0,26.9,4.5,34.4,-0.0,n/a,OK,4.0,    
211.50,24.347,45238.7,1114.6,5839.8,4.08,-1.24,-7.72,308.2,349.1,28.0,4.4,34.4,-0.0,n/a,OK,4.0,    
212.00,24.310,45169.8,1141.0,5842.6,4.02,-1.24,-7.68,308.6,317.9,29.1,4.3,34.4,-0.0,n/a,OK,4.0,    
212.50,24.273,45101.4,1169.0,5845.0,3.99,-1.23,-7.64,308.8,273.8,30.2,4.2,34.4,-0.0,n/a,OK,4.0,    
213.00,24.237,45033.5,1198.5,5847.1,3.95,-1.23,-7.60,309.0,227.2,31.3,4.0,34.4,-0.0,n/a,OK,4.0,    
213.50,24.201,44966.1,1229.3,5848.8,3.94,-1.23,-7.56,309.3,171.8,32.4,3.9,34.3,-0.0,n/a,OK,4.0,    
214.00,24.165,44899.2,1261.6,5850.0,3.94,-1.22,-7.52,309.5,118.4,33.4,3.9,33.0,-0.0,n/a,OK,4.0,    
214.50,24.130,44832.9,1295.3,5850.8,3.94,-1.22,-7.47,309.8,88.6,34.3,3.9,30.7,-0.0,n/a,OK,4.0,    
215.00,24.095,44767.1,1330.1,5851.5,3.90,-1.22,-7.43,309.9,64.3,35.1,3.8,28.3,-0.0,n/a,OK,4.0,    
215.50,24.060,44701.9,1366.1,5851.9,3.84,-1.21,-7.38,310.1,47.0,35.8,3.8,25.2,-0.0,n/a,OK,4.0,    
216.00,24.026,44637.1,1403.1,5852.3,3.76,-1.21,-7.33,310.2,33.4,36.3,3.7,21.8,-0.0,n/a,OK,4.0,    
216.50,23.992,44572.6,1440.9,5852.5,3.65,-1.21,-7.28,310.4,12.3,36.8,3.6,18.6,-0.0,n/a,OK,4.0,    
217.00,23.958,44508.6,1479.5,5852.4,3.54,-1.20,-7.22,310.5,-21.7,37.2,3.4,15.8,-0.0,n/a,OK,4.0,    
217.50,23.924,44444.8,1518.6,5852.1,3.44,-1.20,-7.17,310.6,-66.1,37.5,3.3,13.9,-0.0,n/a,OK,4.0,    
218.00,23.891,44381.3,1558.3,5851.3,3.38,-1.20,-7.12,310.7,-123.1,37.8,3.1,12.1,-0.0,n/a,OK,4.0,    
218.50,23.858,44318.0,1598.4,5850.1,3.36,-1.19,-7.06,310.8,-178.9,38.0,3.0,9.6,-0.0,n/a,OK,4.0,    
219.00,23.824,44255.0,1638.8,5848.4,3.35,-1.19,-7.01,310.9,-230.9,38.2,2.9,7.0,-0.0,n/a,OK,4.0,    
219.50,23.791,44192.0,1679.5,5846.2,3.34,-1.19,-6.95,310.9,-280.8,38.2,2.8,4.6,-0.0,n/a,OK,4.0,    
220.00,23.758,44129.2,1720.4,5843.7,3.34,-1.19,-6.89,310.9,-330.0,38.3,2.7,2.6,-0.0,n/a,OK,4.0,    
220.50,23.725,44066.4,1761.4,5840.8,3.34,-1.18,-6.84,310.9,-371.3,38.4,2.7,2.7,-0.0,n/a,OK,4.0,    
221.00,23.692,44003.7,1802.5,5837.6,3.39,-1.18,-6.78,310.9,-401.5,38.5,2.7,3.5,-0.0,n/a,OK,4.0,    
221.50,23.659,43941.0,1843.8,5834.1,3.46,-1.18,-6.72,310.9,-414.9,38.6,2.7,3.8,-0.0,n/a,OK,4.0,    
222.00,23.626,43878.5,1885.2,5830.7,3.52,-1.18,-6.67,310.9,-411.0,38.7,2.8,3.9,-0.0,n/a,OK,4.0,    
222.50,23.594,43816.1,1926.7,5827.4,3.57,-1.18,-6.61,310.8,-389.4,38.8,2.9,3.8,-0.0,n/a,OK,4.0,    
223.00,23.561,43753.7,1968.4,5824.2,3.62,-1.17,-6.55,310.8,-358.5,38.9,3.0,3.7,-0.0,n/a,OK,4.0,    
223.50,23.529,43691.5,2010.2,5821.4,3.66,-1.17,-6.49,310.8,-318.1,39.0,3.1,3.7,-0.0,n/a,OK,4.0,    
224.00,23.496,43629.3,2052.1,5819.0,3.68,-1.17,-6.43,310.7,-264.5,39.1,3.2,3.7,-0.0,n/a,OK,4.0,    
224.50,23.464,43567.2,2094.2,5817.0,3.70,-1.17,-6.37,310.7,-207.8,39.2,3.3,3.7,-0.0,n/a,OK,4.0,    
225.00,23.431,43505.2,2136.3,5815.5,3.71,-1.17,-6.31,310.7,-146.3,39.4,3.4,3.7,-0.0,n/a,OK,4.0,    
225.50,23.399,43443.3,2178.7,5814.5,3.71,-1.16,-6.26,310.6,-87.4,39.5,3.5,3.7,-0.0,n/a,OK,4.0,    
226.00,23.367,43381.5,2221.1,5814.0,3.70,-1.16,-6.20,310.6,-31.5,39.6,3.6,3.7,-0.0,n/a,OK,4.0,    
226.50,23.335,43319.8,2263.7,5814.0,3.69,-1.16,-6.13,310.6,17.1,39.7,3.7,3.7,-0.0,n/a,OK,4.0,    
227.00,23.303,43258.2,2306.4,5814.3,3.67,-1.15,-6.07,310.6,64.1,39.8,3.8,3.7,-0.0,n/a,OK,4.0,    
227.50,23.271,43196.6,2349.2,5815.0,3.64,-1.15,-6.01,310.6,104.8,39.9,3.8,3.7,-0.0,n/a,OK,4.0,    
228.00,23.239,43135.1,2392.2,5816.0,3.62,-1.15,-5.95,310.6,134.3,40.0,3.9,3.7,-0.0,n/a,OK,4.0,    
228.50,23.207,43073.8,2435.3,5817.2,3.58,-1.14,-5.89,310.7,160.4,40.2,3.9,3.7,-0.0,n/a,OK,4.0,    
229.00,23.175,43012.4,2478.5,5818.6,3.55,-1.14,-5.83,310.7,171.6,40.3,3.9,3.7,-0.0,n/a,OK,4.0,    
229.50,23.144,42951.2,2521.9,5820.1,3.52,-1.13,-5.76,310.7,178.0,40.4,3.8,3.7,-0.0,n/a,OK,4.0,    
230.00,23.112,42890.0,2565.4,5821.6,3.49,-1.13,-5.70,310.7,177.2,40.5,3.8,3.7,-0.0,n/a,OK,4.0,    
230.50,23.081,42828.9,2609.1,5823.0,3.47,-1.13,-5.64,310.8,166.2,40.6,3.8,3.7,-0.0,n/a,OK,4.0,    
231.00,23.049,42767.9,2652.8,5824.4,3.45,-1.12,-5.58,310.8,148.9,40.7,3.7,3.7,-0.0,n/a,OK,4.0,    
231.50,23.018,42707.0,2696.7,5825.5,3.43,-1.12,-5.51,310.9,129.7,40.8,3.7,3.7,-0.0,n/a,OK,4.0,    
232.00,22.987,42646.1,2740.8,5826.5,3.42,-1.12,-5.45,310.9,104.9,40.9,3.6,3.7,-0.0,n/a,OK,4.0,    
232.50,22.955,42585.3,2784.9,5827.3,3.40,-1.11,-5.38,311.0,81.6,41.0,3.6,3.7,-0.0,n/a,OK,4.0,    
233.00,22.924,42524.5,2829.2,5827.9,3.40,-1.11,-5.32,311.0,54.6,41.1,3.5,3.7,-0.0,n/a,OK,4.0,    
233.50,22.893,42463.9,2873.6,5828.2,3.40,-1.11,-5.25,311.1,27.6,41.2,3.5,3.7,-0.0,n/a,OK,4.0,    
234.00,22.862,42403.3,2918.1,5828.3,3.41,-1.10,-5.19,311.1,1.3,41.3,3.4,3.7,-0.0,n/a,OK,4.0,    
234.50,22.831,42342.8,2962.8,5828.3,3.41,-1.10,-5.12,311.1,-20.3,41.4,3.4,3.7,-0.0,n/a,OK,4.0,    
235.00,22.800,42282.3,3007.6,5828.0,3.42,-1.10,-5.05,311.1,-38.5,41.5,3.4,3.7,-0.0,n/a,OK,4.0,    
235.50,22.770,42222.0,3052.5,5827.6,3.44,-1.09,-4.99,311.1,-56.9,41.6,3.3,3.7,-0.0,n/a,OK,4.0,    
236.00,22.739,42161.7,3097.6,5827.1,3.46,-1.09,-4.92,311.2,-69.7,41.8,3.3,3.7,-0.0,n/a,OK,4.0,    
236.50,22.708,42101.5,3142.7,5826.5,3.48,-1.09,-4.85,311.2,-80.1,41.9,3.3,3.7,-0.0,n/a,OK,4.0,    
237.00,22.678,42041.4,3188.0,5825.8,3.49,-1.08,-4.79,311.2,-82.3,42.0,3.3,3.7,-0.0,n/a,OK,4.0,    
237.50,22.647,41981.4,3233.4,5825.1,3.50,-1.08,-4.72,311.2,-81.9,42.1,3.3,3.7,-0.0,n/a,OK,4.0,    
238.00,22.617,41921.4,3279.0,5824.5,3.51,-1.08,-4.65,311.2,-78.2,42.2,3.4,3.7,-0.0,n/a,OK,4.0,    
238.50,22.587,41861.6,3324.7,5823.8,3.52,-1.07,-4.58,311.2,-71.5,42.3,3.4,3.7,-0.0,n/a,OK,4.0,    
239.00,22.557,41801.8,3370.4,5823.2,3.54,-1.07,-4.51,311.2,-69.3,42.4,3.4,3.7,-0.0,n/a,OK,4.0,    
239.50,22.526,41742.1,3416.4,5822.7,3.54,-1.07,-4.44,311.2,-54.8,42.5,3.4,3.7,-0.0,n/a,OK,4.0,    
240.00,22.496,41682.5,3462.4,5822.3,3.56,-1.07,-4.37,311.2,-46.4,42.6,3.5,3.7,-0.0,n/a,OK,4.0,    
240.50,22.466,41623.0,3508.6,5822.0,3.55,-1.06,-4.30,311.2,-30.8,42.7,3.5,3.7,-0.0,n/a,OK,4.0,    
241.00,22.437,41563.6,3554.9,5821.8,3.55,-1.06,-4.23,311.2,-18.9,42.9,3.5,3.7,-0.0,n/a,OK,4.0,    
241.50,22.407,41504.2,3601.3,5821.6,3.55,-1.06,-4.16,311.2,-5.2,43.0,3.5,3.7,-0.0,n/a,OK,4.0,    
242.00,22.377,41445.0,3647.8,5821.6,3.54,-1.05,-4.09,311.3,6.6,43.1,3.6,3.7,-0.0,n/a,OK,4.0,    
242.50,22.348,41385.8,3694.5,5821.7,3.54,-1.05,-4.02,311.3,13.8,43.2,3.6,3.7,-0.0,n/a,OK,4.0,    
243.00,22.318,41326.7,3741.3,5821.9,3.53,-1.05,-3.95,311.3,23.9,43.3,3.6,3.7,-0.0,n/a,OK,4.0,    
243.50,22.289,41267.7,3788.3,5822.1,3.53,-1.04,-3.88,311.3,31.1,43.4,3.6,3.7,-0.0,n/a,OK,4.0,    
244.00,22.259,41208.8,3835.3,5822.4,3.53,-1.04,-3.80,311.3,32.3,43.5,3.6,3.7,-0.0,n/a,OK,4.0,    
244.50,22.230,41150.0,3882.5,5822.7,3.51,-1.04,-3.73,311.4,37.7,43.6,3.6,3.7,-0.0,n/a,OK,4.0,    
245.00,22.201,41091.2,3929.8,5823.0,3.51,-1.03,-3.66,311.4,39.8,43.7,3.6,3.7,-0.0,n/a,OK,4.0,    
245.50,22.172,41032.6,3977.2,5823.3,3.50,-1.03,-3.58,311.4,37.3,43.8,3.6,3.7,-0.0,n/a,OK,4.0,    
246.00,22.143,40974.0,4024.8,5823.6,3.50,-1.03,-3.51,311.4,36.2,43.9,3.6,3.7,-0.0,n/a,OK,4.0,    
246.50,22.114,40915.5,4072.5,5823.9,3.50,-1.02,-3.44,311.5,30.9,44.1,3.5,3.7,-0.0,n/a,OK,4.0,    
247.00,22.085,40857.1,4120.3,5824.2,3.49,-1.02,-3.36,311.5,26.9,44.2,3.5,3.4,-0.0,n/a,OK,4.0,    
247.50,22.056,40798.7,4168.2,5824.4,3.48,-1.02,-3.29,311.5,24.1,44.1,3.5,0.9,-0.0,n/a,OK,4.0,    
248.00,22.028,40740.4,4216.2,5824.5,3.43,-1.01,-3.21,311.5,9.2,43.9,3.4,-3.8,-0.0,n/a,OK,4.0,    
248.50,21.999,40682.0,4264.0,5824.5,3.43,-1.01,-3.14,311.5,-10.3,43.5,3.4,-8.9,-0.0,n/a,OK,4.0,    
249.00,21.970,40623.3,4311.5,5824.4,3.48,-1.01,-3.06,311.5,-17.3,42.9,3.4,-16.1,-0.0,n/a,OK,4.0,    
249.50,21.941,40564.3,4358.4,5824.2,3.51,-1.00,-2.99,311.3,-28.9,42.0,3.4,-24.3,-0.0,n/a,OK,4.0,    
250.00,21.912,40504.7,4404.4,5823.9,3.60,-1.00,-2.91,311.2,-46.2,40.8,3.4,-31.4,-0.0,n/a,OK,4.0,    
250.50,21.882,40444.3,4449.3,5823.4,3.77,-1.00,-2.84,310.9,-72.2,39.4,3.5,-37.9,-0.0,n/a,OK,4.0,    
251.00,21.852,40383.1,4492.8,5822.7,3.96,-0.99,-2.77,310.6,-127.1,37.6,3.4,-44.0,-0.0,n/a,OK,4.0,    
251.50,21.821,40320.9,4534.4,5821.3,4.31,-0.99,-2.70,310.3,-210.4,35.6,3.4,-46.4,-0.0,n/a,OK,4.0,    
252.00,21.789,40257.6,4574.1,5819.5,4.75,-0.99,-2.64,309.9,-198.6,33.8,3.8,-44.0,-0.0,n/a,OK,4.0,    
252.50,21.757,40193.3,4611.9,5818.0,4.87,-0.98,-2.57,309.6,-153.5,32.0,3.8,-44.7,-0.0,n/a,OK,4.0,    
253.00,21.725,40128.0,4647.5,5816.7,4.97,-0.98,-2.51,309.2,-172.3,30.0,3.7,-46.9,-0.0,n/a,OK,4.0,    
253.50,21.691,40061.8,4680.9,5815.3,5.20,-0.98,-2.45,308.8,-136.4,28.0,4.0,-45.7,-0.0,n/a,OK,4.0,    
254.00,21.657,39994.6,4711.9,5814.5,5.19,-0.97,-2.40,308.4,-62.5,26.2,4.1,-45.1,-0.0,n/a,OK,4.0,    
254.50,21.622,39926.5,4740.5,5814.2,5.18,-0.97,-2.35,308.1,-14.6,24.4,4.2,-45.5,-0.0,n/a,OK,4.0,    
255.00,21.587,39857.7,4766.7,5814.3,5.18,-0.97,-2.30,307.8,34.8,22.5,4.2,-45.7,-0.0,n/a,OK,4.0,    
255.50,21.551,39788.1,4790.4,5814.7,5.17,-0.96,-2.25,307.5,80.5,20.6,4.3,-45.8,-0.0,n/a,OK,4.0,    
256.00,21.515,39717.8,4811.7,5815.6,5.15,-0.96,-2.21,307.2,122.7,18.8,4.4,-45.8,-0.0,n/a,OK,4.0,    
256.50,21.478,39647.0,4830.5,5816.7,5.11,-0.95,-2.17,306.9,159.4,17.0,4.4,-45.8,-0.0,n/a,OK,4.0,    
257.00,21.441,39575.6,4846.8,5818.2,5.07,-0.95,-2.13,306.7,184.9,15.3,4.5,-45.8,-0.0,n/a,OK,4.0,    
257.50,21.404,39503.9,4860.6,5819.8,5.02,-0.94,-2.10,306.4,207.3,13.5,4.5,-45.8,-0.0,n/a,OK,4.0,    
258.00,21.366,39431.8,4872.0,5821.6,4.97,-0.94,-2.07,306.2,223.0,11.7,4.5,-45.8,-0.0,n/a,OK,4.0,    
258.50,21.328,39359.5,4880.9,5823.5,4.93,-0.93,-2.05,305.9,225.2,10.0,4.4,-45.8,-0.0,n/a,OK,4.0,    
259.00,21.289,39287.0,4887.4,5825.4,4.88,-0.93,-2.02,305.7,221.9,8.3,4.4,-45.8,-0.0,n/a,OK,4.0,    
259.50,21.250,39214.4,4891.4,5827.2,4.84,-0.92,-2.01,305.5,216.9,6.6,4.4,-45.9,-0.0,n/a,OK,4.0,    
260.00,21.212,39141.7,4893.0,5829.0,4.80,-0.92,-1.99,305.3,201.3,4.9,4.3,-45.9,-0.0,n/a,OK,4.0,    
260.50,21.173,39069.1,4892.2,5830.5,4.77,-0.91,-1.98,305.0,179.3,3.2,4.2,-45.9,-0.0,n/a,OK,4.0,    
261.00,21.134,38996.6,4889.1,5832.0,4.74,-0.90,-1.97,304.8,156.2,1.5,4.2,-45.9,-0.0,n/a,OK,4.0,    
261.50,21.095,38924.4,4883.6,5833.1,4.72,-0.90,-1.96,304.6,127.7,0.2,4.1,-45.9,-0.0,n/a,OK,4.0,    
262.00,21.055,38852.3,4875.7,5834.1,4.71,-0.89,-1.96,304.4,96.4,1.9,4.1,-45.9,-0.0,n/a,OK,4.0,    
262.50,21.016,38780.6,4865.5,5834.8,4.70,-0.89,-1.96,304.2,66.9,3.6,4.0,-45.9,-0.0,n/a,OK,4.0,    
263.00,20.977,38709.3,4853.0,5835.2,4.70,-0.88,-1.97,303.9,32.6,5.3,3.9,-45.9,-0.0,n/a,OK,4.0,    
263.50,20.938,38638.5,4838.1,5835.4,4.71,-0.88,-1.98,303.7,2.6,7.0,3.9,-45.9,-0.0,n/a,OK,4.0,    
264.00,20.900,38568.2,4821.0,5835.3,4.71,-0.87,-1.99,303.5,-25.2,8.7,3.8,-45.9,-0.0,n/a,OK,4.0,    
264.50,20.861,38498.5,4801.5,5834.9,4.72,-0.87,-2.01,303.2,-50.6,10.4,3.8,-45.9,-0.0,n/a,OK,4.0,    
265.00,20.822,38429.5,4779.8,5834.4,4.74,-0.87,-2.03,303.0,-68.8,12.1,3.8,-45.9,-0.0,n/a,OK,4.0,    
265.50,20.784,38361.2,4755.8,5833.8,4.76,-0.86,-2.05,302.8,-89.3,13.9,3.8,-45.9,-0.0,n/a,OK,4.0,    
266.00,20.746,38293.8,4729.6,5833.0,4.79,-0.86,-2.07,302.6,-101.9,15.6,3.7,-45.9,-0.0,n/a,OK,4.0,    
266.50,20.709,38227.3,4701.1,5832.1,4.81,-0.85,-2.10,302.4,-112.8,17.4,3.7,-45.9,-0.0,n/a,OK,4.0,    
267.00,20.672,38161.8,4670.4,5831.1,4.83,-0.85,-2.14,302.1,-116.4,19.1,3.7,-45.9,-0.0,n/a,OK,4.0,    
267.50,20.635,38097.3,4637.5,5830.1,4.85,-0.84,-2.18,301.9,-117.7,20.9,3.8,-45.9,0.0,n/a,OK,4.0,    
268.00,20.599,38033.9,4602.5,5829.2,4.87,-0.84,-2.22,301.7,-114.3,22.7,3.8,-45.9,0.0,n/a,OK,4.0,    
268.50,20.563,37971.7,4565.2,5828.2,4.89,-0.83,-2.26,301.5,-105.0,24.5,3.8,-45.9,0.0,n/a,OK,4.0,    
269.00,20.528,37910.8,4525.9,5827.4,4.90,-0.83,-2.31,301.3,-95.0,26.2,3.8,-45.9,0.0,n/a,OK,4.0,    
269.50,20.493,37851.2,4484.5,5826.7,4.91,-0.83,-2.36,301.1,-84.8,28.0,3.9,-45.9,0.0,n/a,OK,4.0,    
270.00,20.459,37793.0,4441.0,5826.0,4.92,-0.82,-2.41,301.0,-68.6,29.8,3.9,-45.9,0.0,n/a,OK,4.0,    
270.50,20.426,37736.2,4395.5,5825.5,4.93,-0.82,-2.47,300.8,-54.5,31.6,3.9,-45.9,0.0,n/a,OK,4.0,    
271.00,20.393,37681.0,4348.1,5825.1,4.94,-0.81,-2.53,300.6,-41.2,33.4,4.0,-45.9,0.0,n/a,OK,4.0,    
271.50,20.362,37627.4,4298.8,5824.8,4.93,-0.81,-2.60,300.5,-22.1,35.2,4.0,-45.9,0.0,n/a,OK,4.0,    
272.00,20.331,37575.4,4247.6,5824.7,4.93,-0.81,-2.67,300.4,-6.7,37.0,4.0,-45.9,0.0,n/a,OK,4.0,    
272.50,20.300,37525.1,4194.5,5824.7,4.92,-0.80,-2.74,300.3,10.9,38.8,4.0,-45.9,0.0,n/a,OK,4.0,    
273.00,20.271,37476.5,4139.8,5824.9,4.92,-0.80,-2.81,300.2,24.1,40.5,4.1,-45.9,0.0,n/a,OK,4.0,    
273.50,20.243,37429.8,4083.3,5825.1,4.91,-0.79,-2.89,300.1,34.5,42.3,4.1,-45.9,0.0,n/a,OK,4.0,    
274.00,20.215,37384.9,4025.2,5825.4,4.89,-0.79,-2.97,300.0,45.5,44.1,4.1,-45.9,0.0,n/a,OK,4.0,    
274.50,20.189,37341.9,3965.5,5825.8,4.89,-0.79,-3.06,299.9,51.6,45.8,4.1,-45.9,0.0,n/a,OK,4.0,    
275.00,20.163,37300.8,3904.3,5826.3,4.87,-0.78,-3.14,299.9,57.2,47.6,4.1,-45.9,0.0,n/a,OK,4.0,    
275.50,20.139,37261.8,3841.6,5826.8,4.86,-0.78,-3.23,299.8,59.5,49.3,4.1,-45.9,0.0,n/a,OK,4.0,    
276.00,20.115,37224.7,3777.6,5827.3,4.84,-0.78,-3.32,299.8,60.8,51.1,4.1,-45.9,0.0,n/a,OK,4.0,    
276.50,20.093,37189.7,3712.2,5827.8,4.83,-0.77,-3.42,299.8,63.9,52.8,4.1,-45.9,0.0,n/a,OK,4.0,    
277.00,20.072,37156.7,3645.6,5828.3,4.82,-0.77,-3.51,299.8,56.5,54.6,4.1,-45.9,0.0,n/a,OK,4.0,    
277.50,20.051,37125.9,3577.7,5828.8,4.81,-0.77,-3.61,299.7,53.8,56.3,4.0,-45.9,0.0,n/a,OK,4.0,    
278.00,20.033,37097.3,3508.8,5829.2,4.82,-0.76,-3.72,299.8,43.4,58.1,4.0,-45.9,0.0,n/a,OK,4.0,    
278.50,20.015,37070.8,3438.8,5829.5,4.80,-0.76,-3.82,299.8,37.4,59.8,4.0,-45.9,0.0,n/a,OK,4.0,    
279.00,19.998,37046.5,3367.8,5829.8,4.79,-0.76,-3.92,299.8,30.3,61.5,4.0,-45.9,0.0,n/a,OK,4.0,    
279.50,19.983,37024.5,3296.0,5830.0,4.79,-0.76,-4.03,299.8,23.7,63.3,4.0,-45.9,0.0,n/a,OK,4.0,    
280.00,19.969,37004.8,3223.2,5830.2,4.79,-0.75,-4.14,299.9,13.8,65.0,4.0,-45.9,0.0,n/a,OK,4.0,    
280.50,19.956,36987.3,3149.7,5830.2,4.80,-0.75,-4.25,299.9,5.2,66.7,3.9,-45.9,0.0,n/a,OK,4.0,    
281.00,19.944,36972.2,3075.5,5830.2,4.80,-0.75,-4.37,300.0,-3.8,68.5,3.9,-45.9,0.0,n/a,OK,4.0,    
281.50,19.934,36959.4,3000.6,5830.2,4.80,-0.75,-4.48,300.0,-11.8,70.2,3.9,-45.9,0.0,n/a,OK,4.0,    
282.00,19.925,36948.9,2925.2,5830.1,4.81,-0.75,-4.59,300.1,-18.0,72.0,3.9,-45.9,0.0,n/a,OK,4.0,    
282.50,19.918,36940.8,2849.3,5829.9,4.82,-0.75,-4.71,300.2,-23.6,73.7,3.9,-45.9,0.0,n/a,OK,4.0,    
283.00,19.912,36935.1,2772.9,5829.7,4.82,-0.75,-4.83,300.3,-27.0,75.5,3.9,-45.9,0.0,n/a,OK,4.0,    
283.50,19.907,36931.9,2696.2,5829.5,4.82,-0.75,-4.95,300.4,-28.6,77.2,3.9,-45.9,0.0,n/a,OK,4.0,    
284.00,19.903,36931.0,2619.2,5829.2,4.83,-0.75,-5.06,300.5,-28.9,79.0,3.9,-45.9,0.0,n/a,OK,4.0,    
284.50,19.901,36932.6,2542.0,5829.0,4.84,-0.75,-5.18,300.6,-34.1,80.8,3.9,-45.9,0.0,n/a,OK,4.0,    
285.00,19.901,36936.6,2464.7,5828.7,4.84,-0.75,-5.30,300.7,-29.3,82.5,3.9,-45.9,0.0,n/a,OK,4.0,    
285.50,19.901,36943.0,2387.4,5828.4,4.85,-0.75,-5.43,300.8,-29.9,84.3,3.9,-45.9,0.0,n/a,OK,4.0,    
286.00,19.904,36951.9,2310.0,5828.2,4.86,-0.75,-5.55,301.0,-25.7,86.0,3.9,-45.9,0.0,n/a,OK,4.0,    
286.50,19.907,36963.3,2232.8,5828.0,4.86,-0.75,-5.67,301.2,-24.9,87.8,3.9,-45.9,0.0,n/a,OK,4.0,    
287.00,19.912,36977.1,2155.7,5827.8,4.86,-0.75,-5.79,301.3,-20.7,89.6,3.9,-45.9,0.0,n/a,OK,4.0,    
287.50,19.918,36993.3,2078.9,5827.6,4.86,-0.75,-5.91,301.5,-17.3,91.3,4.0,-45.9,0.0,n/a,OK,4.0,    
288.00,19.926,37012.0,2002.4,5827.5,4.86,-0.75,-6.03,301.6,-11.8,93.1,4.0,-45.9,0.0,n/a,OK,4.0,    
288.50,19.935,37033.1,1926.3,5827.4,4.86,-0.75,-6.15,301.8,-7.3,94.9,4.0,-45.9,0.0,n/a,OK,4.0,    
289.00,19.946,37056.5,1850.7,5827.4,4.86,-0.75,-6.27,302.0,-1.1,96.6,4.0,-45.9,0.0,n/a,OK,4.0,    
289.50,19.958,37082.4,1775.6,5827.4,4.87,-0.75,-6.38,302.2,0.0,98.4,4.0,-45.9,0.0,n/a,OK,4.0,    
290.00,19.971,37110.7,1701.1,5827.4,4.86,-0.76,-6.50,302.4,5.4,100.2,4.0,-45.9,0.0,n/a,OK,4.0,    
290.50,19.986,37141.3,1627.3,5827.5,4.86,-0.76,-6.62,302.6,8.6,101.9,4.0,-45.9,0.0,n/a,OK,4.0,    
291.00,20.002,37174.3,1554.3,5827.5,4.86,-0.76,-6.73,302.8,9.1,103.7,4.0,-45.9,0.0,n/a,OK,4.0,    
291.50,20.020,37209.5,1482.1,5827.6,4.85,-0.76,-6.84,303.1,13.4,105.4,4.0,-45.9,0.0,n/a,OK,4.0,    
292.00,20.038,37247.0,1410.9,5827.7,4.85,-0.77,-6.96,303.3,15.5,107.2,4.0,-45.9,0.0,n/a,OK,4.0,    
292.50,20.058,37286.8,1340.6,5827.9,4.85,-0.77,-7.07,303.5,16.0,109.0,4.0,-45.9,0.0,n/a,OK,4.0,    
293.00,20.080,37328.7,1271.3,5828.0,4.84,-0.77,-7.18,303.8,17.9,110.7,4.0,-45.9,0.0,n/a,OK,4.0,    
293.50,20.102,37372.9,1203.1,5828.1,4.84,-0.77,-7.28,304.1,15.4,112.5,4.0,-45.9,0.0,n/a,OK,4.0,    
294.00,20.126,37419.2,1136.1,5828.3,4.83,-0.78,-7.39,304.3,14.7,114.2,4.0,-45.9,0.0,n/a,OK,4.0,    
294.50,20.151,37467.6,1070.4,5828.4,4.84,-0.78,-7.49,304.6,11.7,116.0,4.0,-45.9,0.0,n/a,OK,4.0,    
295.00,20.178,37518.1,1005.9,5828.5,4.83,-0.78,-7.59,304.8,12.5,117.7,4.0,-45.9,0.0,n/a,OK,4.0,    
295.50,20.205,37570.5,942.8,5828.6,4.83,-0.79,-7.69,305.1,11.0,119.5,4.0,-45.9,0.0,n/a,OK,4.0,    
296.00,20.234,37625.0,881.1,5828.7,4.82,-0.79,-7.79,305.4,9.4,121.2,4.0,-45.9,0.0,n/a,OK,4.0,    
296.50,20.263,37681.4,820.9,5828.7,4.82,-0.80,-7.88,305.7,6.6,123.0,4.0,-45.9,0.0,n/a,OK,4.0,    
297.00,20.294,37739.7,762.3,5828.8,4.81,-0.80,-7.97,305.9,7.0,124.7,4.0,-45.9,0.0,n/a,OK,4.0,    
297.50,20.326,37799.8,705.2,5828.8,4.82,-0.80,-8.06,306.2,0.9,126.5,4.0,-45.9,0.0,n/a,OK,4.0,    
298.00,20.359,37861.8,649.8,5828.8,4.82,-0.81,-8.15,306.5,2.8,128.2,4.0,-45.9,0.0,n/a,OK,4.0,    
