#Time,Rho,X,Z,Alt,AoA,GSE,LUE,Vtot,Vy,Gamma,Pitch,Roll,Yaw,Step,Grade,Points,Details
0.00,-2.417,-2757.8,-3382.3,2261.9,2.26,5.37,-139.20,363.8,6248.7,64.8,11.9,-24.8,0.0,n/a,OK,4.0,    
0.50,-2.460,-2776.5,-3471.5,2314.2,2.24,5.42,-138.65,366.3,6298.7,65.5,11.9,-24.8,0.0,n/a,OK,4.0,    
1.00,-2.503,-2794.4,-3561.6,2366.9,2.23,5.46,-138.11,368.7,6348.5,66.1,11.9,-24.8,0.0,n/a,OK,4.0,    
1.50,-2.547,-2811.4,-3652.5,2420.0,2.17,5.50,-137.57,371.1,6400.5,66.8,11.9,-24.8,0.0,n/a,OK,4.0,    
2.00,-2.591,-2827.5,-3744.2,2473.6,2.15,5.54,-137.03,373.5,6451.1,67.4,11.9,-24.8,0.0,n/a,OK,4.0,    
2.50,-2.636,-2842.8,-3836.8,2527.5,2.11,5.57,-136.50,375.9,6501.6,68.1,11.9,-24.8,0.0,n/a,OK,4.0,    
3.00,-2.680,-2857.1,-3930.2,2581.9,2.10,5.61,-135.97,378.3,6547.7,68.7,11.9,-24.8,0.0,n/a,OK,4.0,    
3.50,-2.725,-2870.5,-4024.4,2636.7,2.09,5.65,-135.45,380.6,6608.9,69.3,11.9,-24.8,0.0,n/a,OK,4.0,    
4.00,-2.770,-2882.9,-4119.4,2692.0,2.08,5.69,-134.92,382.9,6652.6,69.9,11.9,-24.8,0.0,n/a,OK,4.0,    
4.50,-2.816,-2894.5,-4215.1,2747.6,2.11,5.72,-134.41,385.2,6696.2,70.6,11.9,-24.8,0.0,n/a,OK,4.0,    
5.00,-2.861,-2905.0,-4311.6,2803.6,2.08,5.76,-133.89,387.5,6749.2,71.3,11.9,-24.8,0.0,n/a,OK,4.0,    
5.50,-2.907,-2914.6,-4408.8,2860.1,2.01,5.79,-133.38,389.7,6812.1,71.9,11.8,-24.8,0.0,n/a,OK,4.0,    
6.00,-2.953,-2923.3,-4506.8,2917.1,1.99,5.82,-132.87,391.9,6868.1,72.5,11.8,-24.8,0.0,n/a,OK,4.0,    
6.50,-3.000,-2930.9,-4605.4,2974.5,1.99,5.86,-132.37,394.2,6921.0,73.1,11.8,-24.8,0.0,n/a,OK,4.0,    
7.00,-3.046,-2937.6,-4704.7,3032.4,2.00,5.89,-131.87,396.4,6978.3,73.8,11.8,-24.8,0.0,n/a,OK,4.0,    
7.50,-3.093,-2943.2,-4804.7,3090.8,1.95,5.92,-131.37,398.5,7040.2,74.4,11.8,-24.8,0.0,n/a,OK,4.0,    
8.00,-3.141,-2947.8,-4905.4,3149.7,1.86,5.96,-130.88,400.6,7103.3,75.0,11.8,-24.8,0.0,n/a,OK,4.0,    
8.50,-3.188,-2951.4,-5006.6,3209.2,1.80,5.99,-130.38,402.8,7170.5,75.6,11.8,-24.8,0.0,n/a,OK,4.0,    
9.00,-3.235,-2954.0,-5108.5,3269.1,1.79,6.02,-129.89,404.9,7219.7,76.2,11.8,-24.8,0.0,n/a,OK,4.0,    
9.50,-3.283,-2955.5,-5211.0,3329.6,1.75,6.05,-129.41,406.9,7289.6,76.8,11.8,-24.8,0.0,n/a,OK,4.0,    
10.00,-3.331,-2956.0,-5314.1,3390.5,1.76,6.09,-128.93,409.0,7334.4,77.4,11.8,-24.8,0.0,n/a,OK,4.0,    
10.50,-3.380,-2955.4,-5417.7,3451.8,1.77,6.12,-128.45,411.0,7381.0,78.1,11.8,-24.8,0.0,n/a,OK,4.0,    
11.00,-3.428,-2953.8,-5521.9,3513.5,1.72,6.15,-127.97,413.0,7433.3,78.7,11.8,-24.8,0.0,n/a,OK,4.0,    
11.50,-3.477,-2951.1,-5626.6,3575.7,1.71,6.18,-127.50,414.9,7479.7,79.2,11.8,-24.8,0.0,n/a,OK,4.0,    
12.00,-3.526,-2947.3,-5731.9,3638.2,1.71,6.21,-127.03,416.9,7532.4,79.8,11.8,-24.8,0.0,n/a,OK,4.0,    
12.50,-3.575,-2942.5,-5837.6,3701.2,1.69,6.24,-126.56,418.8,7582.6,80.4,11.8,-24.8,0.0,n/a,OK,4.0,    
13.00,-3.624,-2936.6,-5943.9,3764.6,1.69,6.27,-126.09,420.7,7625.8,81.0,11.8,-24.8,0.0,n/a,OK,4.0,    
13.50,-3.673,-2929.6,-6050.6,3828.2,1.71,6.30,-125.63,422.6,7664.7,81.6,11.8,-24.8,0.0,n/a,OK,4.0,    
14.00,-3.723,-2921.6,-6157.7,3892.3,1.68,6.33,-125.17,424.5,7713.0,82.2,11.8,-24.8,0.0,n/a,OK,4.0,    
14.50,-3.773,-2912.4,-6265.3,3956.8,1.68,6.36,-124.71,426.3,7759.0,82.7,11.8,-24.8,0.0,n/a,OK,4.0,    
15.00,-3.823,-2902.2,-6373.3,4021.7,1.66,6.38,-124.26,428.2,7809.5,83.3,11.8,-24.8,0.0,n/a,OK,4.0,    
15.50,-3.873,-2890.9,-6481.7,4086.9,1.63,6.41,-123.80,430.0,7850.6,83.8,11.8,-24.8,0.0,n/a,OK,4.0,    
16.00,-3.924,-2878.4,-6590.5,4152.4,1.47,6.44,-123.35,431.8,7843.7,84.3,11.6,-24.8,0.0,n/a,OK,4.0,    
16.50,-3.974,-2865.0,-6699.8,4217.4,1.44,6.46,-122.91,433.6,7759.8,84.8,11.4,-24.8,0.0,n/a,OK,4.0,    
17.00,-4.025,-2850.7,-6809.5,4281.8,1.38,6.49,-122.46,435.4,7692.4,85.3,11.2,-24.8,0.0,n/a,OK,4.0,    
17.50,-4.077,-2835.3,-6919.6,4345.5,1.31,6.51,-122.02,437.3,7591.0,85.7,11.0,-24.8,0.0,n/a,OK,4.0,    
18.00,-4.128,-2819.0,-7030.2,4408.3,1.28,6.52,-121.59,439.1,7469.0,86.1,10.8,-24.7,0.0,n/a,OK,4.0,    
18.50,-4.180,-2801.8,-7141.2,4470.1,1.25,6.53,-121.15,441.0,7345.3,86.6,10.6,-24.7,0.0,n/a,OK,4.0,    
19.00,-4.232,-2783.6,-7252.7,4530.7,1.21,6.54,-120.72,442.8,7205.2,87.0,10.3,-24.7,0.0,n/a,OK,4.0,    
19.50,-4.284,-2764.6,-7364.6,4590.1,1.16,6.55,-120.29,444.7,7029.0,87.4,10.0,-25.0,0.0,n/a,OK,4.0,    
20.00,-4.336,-2744.6,-7477.0,4648.0,1.34,6.55,-119.87,446.6,6901.1,87.9,9.9,-24.9,0.0,n/a,OK,4.0,    
20.50,-4.389,-2723.6,-7589.8,4705.7,1.43,6.55,-119.45,448.5,6948.6,88.5,10.0,-25.1,0.0,n/a,OK,4.0,    
21.00,-4.442,-2701.4,-7702.8,4763.7,1.45,6.56,-119.03,450.3,6988.1,89.1,10.1,-25.2,0.0,n/a,OK,4.0,    
21.50,-4.495,-2678.0,-7816.2,4822.2,1.45,6.56,-118.61,452.2,7041.9,89.6,10.1,-25.2,0.0,n/a,OK,4.0,    
22.00,-4.548,-2653.5,-7929.8,4881.0,1.43,6.56,-118.19,454.0,7088.6,90.2,10.1,-25.1,0.0,n/a,OK,4.0,    
22.50,-4.602,-2627.9,-8043.7,4940.1,1.36,6.56,-117.78,455.8,7079.5,90.7,10.0,-24.8,0.0,n/a,OK,4.0,    
23.00,-4.656,-2601.2,-8157.9,4998.9,1.29,6.56,-117.36,457.5,7024.4,91.1,9.8,-24.1,0.0,n/a,OK,4.0,    
23.50,-4.710,-2573.5,-8272.4,5057.1,1.25,6.56,-116.96,459.4,6935.6,91.5,9.6,-23.2,0.0,n/a,OK,4.0,    
24.00,-4.764,-2544.9,-8387.3,5114.5,1.26,6.56,-116.55,461.2,6831.8,91.9,9.5,-22.5,0.0,n/a,OK,4.0,    
24.50,-4.818,-2515.3,-8502.4,5171.4,1.43,6.56,-116.14,462.9,6879.6,92.4,9.7,-22.3,0.0,n/a,OK,4.0,    
25.00,-4.873,-2484.6,-8617.8,5229.0,1.29,6.55,-115.74,464.6,6897.7,92.8,9.5,-23.0,0.0,n/a,OK,4.0,    
25.50,-4.927,-2452.9,-8733.3,5286.5,1.32,6.55,-115.34,466.3,6924.5,93.3,9.6,-23.3,0.0,n/a,OK,4.0,    
26.00,-4.982,-2420.1,-8849.1,5344.3,1.33,6.55,-114.94,468.0,6951.9,93.8,9.6,-23.2,0.0,n/a,OK,4.0,    
26.50,-5.037,-2386.2,-8965.1,5402.4,1.34,6.54,-114.55,469.7,6990.4,94.3,9.6,-23.2,0.0,n/a,OK,4.0,    
27.00,-5.093,-2351.3,-9081.2,5460.8,1.34,6.54,-114.16,471.4,7028.9,94.8,9.6,-23.1,0.0,n/a,OK,4.0,    
27.50,-5.148,-2315.2,-9197.5,5519.5,1.34,6.54,-113.76,473.0,7065.8,95.3,9.6,-23.1,0.0,n/a,OK,4.0,    
28.00,-5.204,-2278.1,-9313.9,5578.5,1.33,6.54,-113.37,474.6,7100.1,95.7,9.6,-23.1,0.0,n/a,OK,4.0,    
28.50,-5.260,-2239.9,-9430.5,5637.9,1.32,6.54,-112.99,476.2,7136.0,96.2,9.6,-23.1,0.0,n/a,OK,4.0,    
29.00,-5.316,-2200.7,-9547.1,5697.5,1.31,6.53,-112.60,477.8,7169.1,96.7,9.6,-23.1,0.0,n/a,OK,4.0,    
29.50,-5.372,-2160.3,-9663.9,5757.3,1.30,6.53,-112.22,479.3,7199.4,97.1,9.6,-23.1,0.0,n/a,OK,4.0,    
30.00,-5.428,-2118.9,-9780.7,5817.4,1.29,6.53,-111.84,480.9,7223.5,97.6,9.6,-23.1,0.0,n/a,OK,4.0,    
30.50,-5.484,-2076.4,-9897.6,5877.7,1.28,6.53,-111.46,482.4,7253.3,98.1,9.6,-23.1,0.0,n/a,OK,4.0,    
31.00,-5.541,-2032.9,-10014.6,5938.3,1.28,6.53,-111.08,483.9,7275.6,98.5,9.6,-23.1,0.0,n/a,OK,4.0,    
31.50,-5.597,-1988.3,-10131.6,5999.0,1.27,6.53,-110.70,485.3,7300.1,99.0,9.6,-23.0,0.0,n/a,OK,4.0,    
32.00,-5.654,-1942.6,-10248.6,6059.9,1.26,6.53,-110.33,486.8,7323.6,99.4,9.6,-23.0,0.0,n/a,OK,4.0,    
32.50,-5.711,-1895.9,-10365.7,6121.1,1.25,6.53,-109.96,488.2,7343.7,99.9,9.6,-23.0,0.0,n/a,OK,4.0,    
33.00,-5.768,-1848.1,-10482.8,6182.3,1.25,6.53,-109.58,489.6,7365.1,100.4,9.6,-23.0,0.0,n/a,OK,4.0,    
33.50,-5.826,-1799.2,-10599.9,6243.8,1.24,6.53,-109.22,491.0,7388.1,100.8,9.6,-23.0,0.0,n/a,OK,4.0,    
34.00,-5.883,-1749.3,-10716.9,6305.4,1.23,6.53,-108.85,492.3,7409.3,101.3,9.6,-23.0,0.0,n/a,OK,4.0,    
34.50,-5.941,-1698.3,-10833.9,6367.2,1.19,6.53,-108.48,493.7,7418.0,101.7,9.6,-23.0,0.0,n/a,OK,4.0,    
35.00,-5.998,-1646.3,-10951.0,6428.7,1.03,6.53,-108.12,495.2,7309.0,102.0,9.3,-23.0,0.0,n/a,OK,4.0,    
35.50,-6.056,-1593.5,-11068.1,6488.9,1.02,6.52,-107.76,496.6,7142.3,102.4,9.0,-23.0,0.0,n/a,OK,4.0,    
36.00,-6.114,-1539.7,-11185.3,6547.9,0.96,6.52,-107.40,497.9,6981.3,102.7,8.8,-23.0,0.0,n/a,OK,4.0,    
36.50,-6.172,-1485.0,-11302.6,6605.0,0.88,6.51,-107.04,499.4,6714.9,103.0,8.4,-23.0,0.0,n/a,OK,4.0,    
37.00,-6.231,-1429.6,-11420.2,6659.9,0.81,6.50,-106.69,500.8,6422.8,103.3,8.0,-23.0,0.0,n/a,OK,4.0,    
37.50,-6.290,-1373.4,-11537.9,6711.8,0.80,6.48,-106.34,502.4,6036.4,103.5,7.5,-22.4,0.0,n/a,OK,4.0,    
38.00,-6.349,-1316.4,-11655.9,6760.8,0.71,6.46,-105.99,503.9,5679.3,103.7,7.0,-22.8,0.0,n/a,OK,4.0,    
38.50,-6.409,-1258.8,-11774.1,6806.6,0.75,6.43,-105.65,505.6,5317.6,104.0,6.6,-23.1,0.0,n/a,OK,4.0,    
39.00,-6.469,-1200.3,-11892.6,6849.6,0.74,6.40,-105.30,507.3,4987.7,104.3,6.2,-23.1,0.0,n/a,OK,4.0,    
39.50,-6.529,-1141.1,-12011.2,6889.8,0.75,6.37,-104.96,509.0,4663.9,104.6,5.9,-23.1,0.0,n/a,OK,4.0,    
40.00,-6.589,-1081.1,-12130.1,6927.4,0.75,6.33,-104.63,510.7,4336.4,104.8,5.5,-23.1,0.0,n/a,OK,4.0,    
40.50,-6.650,-1020.3,-12249.2,6962.2,0.77,6.29,-104.29,512.4,4010.4,105.1,5.1,-22.9,0.0,n/a,OK,4.0,    
41.00,-6.711,-958.7,-12368.5,6994.4,0.77,6.25,-103.96,514.0,3705.0,105.4,4.8,-22.8,0.0,n/a,OK,4.0,    
41.50,-6.772,-896.3,-12487.8,7024.1,0.87,6.20,-103.63,514.8,3428.2,105.7,4.6,-22.8,0.0,n/a,OK,4.0,    
42.00,-6.833,-833.2,-12606.9,7052.3,1.10,6.15,-103.30,514.5,3366.1,106.2,4.7,-22.3,0.0,n/a,OK,4.0,    
42.50,-6.895,-769.3,-12725.4,7080.4,1.06,6.11,-102.98,513.1,3368.4,106.6,4.7,-22.6,0.0,n/a,OK,4.0,    
43.00,-6.956,-704.6,-12843.1,7108.3,1.11,6.06,-102.65,512.0,3340.7,107.1,4.7,-22.9,0.0,n/a,OK,4.0,    
43.50,-7.016,-639.2,-12960.1,7136.1,1.14,6.01,-102.33,511.4,3322.2,107.5,4.7,-22.9,0.0,n/a,OK,4.0,    
44.00,-7.077,-573.0,-13076.6,7163.7,1.16,5.97,-102.01,510.9,3306.7,107.9,4.7,-22.9,0.0,n/a,OK,4.0,    
44.50,-7.138,-506.0,-13192.6,7191.2,1.18,5.93,-101.70,510.3,3289.6,108.4,4.7,-22.8,0.0,n/a,OK,4.0,    
45.00,-7.198,-438.1,-13307.9,7218.6,1.20,5.88,-101.39,509.6,3274.8,108.8,4.7,-22.8,0.0,n/a,OK,4.0,    
45.50,-7.258,-369.5,-13422.6,7245.8,1.21,5.84,-101.07,508.9,3261.6,109.3,4.7,-22.8,0.0,n/a,OK,4.0,    
46.00,-7.319,-300.0,-13536.6,7273.0,1.22,5.80,-100.76,508.2,3250.5,109.7,4.7,-22.8,0.0,n/a,OK,4.0,    
46.50,-7.379,-229.8,-13650.0,7300.0,1.23,5.76,-100.46,507.6,3243.2,110.1,4.7,-22.8,0.0,n/a,OK,4.0,    
47.00,-7.438,-158.8,-13762.7,7327.0,1.23,5.72,-100.15,506.9,3237.1,110.6,4.8,-22.8,0.0,n/a,OK,4.0,    
47.50,-7.498,-87.0,-13874.8,7354.0,1.24,5.68,-99.84,506.3,3227.4,111.0,4.8,-22.8,0.0,n/a,OK,4.0,    
48.00,-7.558,-14.4,-13986.3,7380.8,1.25,5.64,-99.54,505.6,3221.6,111.4,4.8,-22.8,0.0,n/a,OK,4.0,    
48.50,-7.617,58.9,-14097.1,7407.7,1.25,5.60,-99.24,505.1,3219.4,111.9,4.8,-22.8,0.0,n/a,OK,4.0,    
49.00,-7.676,133.1,-14207.2,7434.5,1.25,5.56,-98.94,504.5,3215.5,112.3,4.8,-22.8,0.0,n/a,OK,4.0,    
49.50,7.736,208.0,-14316.7,7461.3,1.25,5.53,-98.64,503.9,3213.7,112.8,4.8,-22.8,0.0,n/a,OK,4.0,    
50.00,7.795,283.7,-14425.6,7487.9,1.09,5.49,-98.34,503.3,3137.5,113.1,4.5,-23.0,0.0,n/a,OK,4.0,    
50.50,7.853,360.0,-14533.9,7513.3,1.11,5.45,-98.05,502.8,2963.1,113.5,4.4,-24.1,0.0,n/a,OK,4.0,    
51.00,7.912,437.0,-14641.5,7537.5,1.04,5.42,-97.76,502.4,2808.0,113.9,4.1,-26.6,0.0,n/a,OK,4.0,    
51.50,7.971,514.8,-14748.6,7559.8,0.96,5.38,-97.46,502.0,2545.9,114.3,3.8,-28.4,0.0,n/a,OK,4.0,    
52.00,8.030,593.3,-14855.2,7579.9,0.94,5.34,-97.17,501.7,2251.3,114.7,3.4,-29.3,0.0,n/a,OK,4.0,    
52.50,8.088,672.6,-14961.2,7597.3,0.92,5.29,-96.88,501.4,1921.2,115.1,3.0,-30.0,0.0,n/a,OK,4.0,    
53.00,8.147,752.5,-15066.6,7612.0,0.91,5.25,-96.60,501.2,1593.1,115.5,2.6,-30.4,0.0,n/a,OK,4.0,    
53.50,8.205,833.2,-15171.6,7623.9,0.87,5.20,-96.31,501.1,1229.0,115.9,2.2,-30.7,0.0,n/a,OK,4.0,    
54.00,8.263,914.5,-15276.0,7632.6,0.87,5.15,-96.03,501.1,854.5,116.2,1.8,-29.9,0.0,n/a,OK,4.0,    
54.50,8.322,996.5,-15380.0,7638.0,0.83,5.09,-95.74,501.1,426.8,116.5,1.3,-29.9,0.0,n/a,OK,4.0,    
55.00,8.380,1079.2,-15483.6,7640.1,0.87,5.04,-95.46,501.2,54.6,116.9,0.9,-30.1,0.0,n/a,OK,4.0,    
55.50,8.438,1162.5,-15586.6,7639.1,0.91,4.98,-95.18,501.4,-300.3,117.3,0.5,-29.9,0.0,n/a,OK,4.0,    
56.00,8.497,1246.6,-15689.1,7635.4,0.99,4.92,-94.90,501.6,-574.7,117.8,0.3,-28.8,0.0,n/a,OK,4.0,    
56.50,8.555,1331.6,-15791.1,7629.7,1.01,4.85,-94.62,501.8,-808.6,118.2,0.0,-26.7,0.0,n/a,OK,4.0,    
57.00,8.613,1417.3,-15892.6,7622.1,1.09,4.79,-94.34,502.1,-991.3,118.6,-0.1,-23.4,0.0,n/a,OK,4.0,    
57.50,8.671,1503.7,-15993.6,7613.5,1.26,4.73,-94.06,502.3,-1052.1,119.1,0.0,-22.6,0.0,n/a,OK,4.0,    
58.00,8.729,1590.9,-16093.9,7604.7,1.21,4.66,-93.79,502.3,-1096.8,119.5,-0.1,-22.9,0.0,n/a,OK,4.0,    
58.50,8.787,1678.9,-16193.6,7595.5,1.23,4.60,-93.51,502.1,-1088.4,119.9,-0.0,-23.5,0.0,n/a,OK,4.0,    
59.00,8.845,1767.6,-16292.6,7586.2,1.24,4.54,-93.24,501.9,-1143.0,120.4,-0.1,-24.9,0.0,n/a,OK,4.0,    
59.50,8.903,1857.1,-16390.8,7576.7,1.27,4.48,-92.96,501.5,-1150.1,120.9,-0.1,-25.3,0.0,n/a,OK,4.0,    
60.00,8.960,1947.4,-16488.3,7567.0,1.28,4.41,-92.69,501.3,-1167.9,121.4,-0.1,-26.2,0.0,n/a,OK,4.0,    
60.50,9.017,2038.6,-16585.0,7557.2,1.33,4.35,-92.41,501.1,-1184.2,122.0,-0.1,-26.5,0.0,n/a,OK,4.0,    
61.00,9.074,2130.6,-16680.8,7547.4,1.30,4.30,-92.14,500.8,-1172.2,122.5,-0.1,-26.2,0.0,n/a,OK,4.0,    
61.50,9.131,2223.4,-16775.8,7537.5,1.33,4.24,-91.87,500.4,-1192.1,123.0,-0.1,-26.1,0.0,n/a,OK,4.0,    
62.00,9.188,2316.9,-16869.8,7527.6,1.38,4.18,-91.60,499.5,-1185.7,123.5,-0.0,-25.7,0.0,n/a,OK,4.0,    
62.50,9.244,2411.1,-16962.9,7517.7,1.33,4.12,-91.32,498.3,-1201.1,124.0,-0.1,-25.8,0.0,n/a,OK,4.0,    
63.00,9.300,2505.9,-17055.0,7507.6,1.35,4.07,-91.05,496.9,-1218.5,124.5,-0.1,-25.9,0.0,n/a,OK,4.0,    
63.50,9.356,2601.3,-17145.9,7497.4,1.35,4.01,-90.78,495.7,-1232.9,125.1,-0.1,-26.0,0.0,n/a,OK,4.0,    
64.00,9.412,2697.2,-17235.9,7487.1,1.35,3.96,-90.51,494.6,-1246.7,125.6,-0.1,-26.0,0.0,n/a,OK,4.0,    
64.50,9.467,2793.8,-17324.9,7476.6,1.35,3.91,-90.25,493.6,-1263.2,126.1,-0.2,-26.0,0.0,n/a,OK,4.0,    
65.00,9.522,2891.0,-17412.8,7466.0,1.36,3.85,-89.98,492.5,-1279.9,126.6,-0.2,-26.7,0.0,n/a,OK,4.0,    
65.50,9.577,2988.9,-17499.7,7455.3,1.36,3.80,-89.71,491.5,-1299.9,127.2,-0.2,-31.3,0.0,n/a,OK,4.0,    
66.00,9.631,3087.5,-17585.3,7444.3,1.36,3.75,-89.44,490.5,-1340.8,128.0,-0.3,-35.6,0.0,n/a,OK,4.0,    
66.50,9.685,3187.1,-17669.6,7433.0,1.40,3.70,-89.18,489.5,-1385.1,128.9,-0.3,-39.1,0.0,n/a,OK,4.0,    
67.00,9.738,3287.7,-17752.3,7421.2,1.44,3.65,-88.91,488.5,-1437.2,129.8,-0.4,-42.5,0.0,n/a,OK,4.0,    
67.50,9.791,3389.4,-17833.3,7409.0,1.51,3.60,-88.64,487.6,-1505.8,130.9,-0.4,-45.8,0.0,n/a,OK,4.0,    
68.00,9.843,3492.4,-17912.4,7396.2,1.66,3.55,-88.36,486.7,-1559.9,132.1,-0.5,-46.4,0.0,n/a,OK,4.0,    
68.50,9.894,3596.7,-17989.5,7383.4,1.89,3.50,-88.09,485.8,-1483.7,133.5,-0.2,-45.5,0.0,n/a,OK,4.0,    
69.00,9.944,3702.5,-18064.3,7371.6,2.02,3.45,-87.81,484.9,-1342.7,134.8,0.0,-45.2,0.0,n/a,OK,4.0,    
69.50,9.994,3809.7,-18136.7,7361.1,2.09,3.41,-87.53,483.9,-1175.7,136.1,0.3,-45.2,0.0,n/a,OK,4.0,    
70.00,10.043,3918.3,-18206.7,7352.0,2.13,3.37,-87.24,482.9,-1000.6,137.5,0.5,-45.4,0.0,n/a,OK,4.0,    
70.50,10.091,4028.2,-18274.2,7344.3,2.17,3.33,-86.96,481.9,-828.5,138.8,0.7,-45.5,0.0,n/a,OK,4.0,    
71.00,10.137,4139.6,-18339.1,7338.1,2.19,3.29,-86.67,480.9,-645.0,140.2,0.9,-45.5,0.0,n/a,OK,4.0,    
71.50,10.183,4252.1,-18401.4,7333.4,2.26,3.26,-86.37,479.8,-475.9,141.5,1.2,-45.1,0.0,n/a,OK,4.0,    
72.00,10.228,4365.9,-18461.1,7330.3,2.18,3.23,-86.08,478.7,-287.2,142.8,1.4,-45.3,0.0,n/a,OK,4.0,    
72.50,10.272,4480.8,-18518.1,7328.4,2.24,3.19,-85.78,477.7,-150.4,144.1,1.6,-45.2,0.0,n/a,OK,4.0,    
73.00,10.315,4596.7,-18572.4,7327.9,2.17,3.17,-85.48,476.6,22.0,145.4,1.7,-44.9,0.0,n/a,OK,4.0,    
73.50,10.357,4713.5,-18624.3,7328.4,2.02,3.14,-85.18,475.6,71.8,146.5,1.7,-45.1,0.0,n/a,OK,4.0,    
74.00,10.398,4831.2,-18673.8,7328.9,1.89,3.11,-84.87,474.6,41.8,147.5,1.6,-45.2,0.0,n/a,OK,4.0,    
74.50,10.439,4949.4,-18721.1,7328.9,1.79,3.09,-84.57,473.7,-55.2,148.4,1.4,-45.3,0.0,n/a,OK,4.0,    
75.00,10.478,5068.3,-18766.3,7328.0,1.73,3.06,-84.26,472.8,-181.2,149.4,1.2,-45.3,0.0,n/a,OK,4.0,    
75.50,10.517,5187.8,-18809.5,7325.9,1.70,3.04,-83.95,472.0,-325.5,150.3,1.0,-45.3,0.0,n/a,OK,4.0,    
76.00,10.556,5307.8,-18850.7,7322.6,1.70,3.01,-83.65,471.2,-460.9,151.3,0.9,-45.3,0.0,n/a,OK,4.0,    
76.50,10.593,5428.3,-18889.8,7318.2,1.70,2.98,-83.34,470.5,-592.1,152.3,0.7,-45.3,0.0,n/a,OK,4.0,    
77.00,10.630,5549.2,-18926.9,7312.9,1.81,2.96,-83.03,469.7,-681.1,153.4,0.7,-45.3,0.0,n/a,OK,4.0,    
77.50,10.667,5670.7,-18961.7,7307.1,1.87,2.93,-82.72,469.0,-694.0,154.6,0.7,-45.3,0.0,n/a,OK,4.0,    
78.00,10.702,5792.7,-18994.2,7301.2,1.90,2.90,-82.41,468.3,-714.0,155.7,0.7,-45.3,0.0,n/a,OK,4.0,    
78.50,10.737,5915.1,-19024.4,7295.3,1.93,2.88,-82.09,467.6,-720.4,156.9,0.7,-45.3,0.0,n/a,OK,4.0,    
79.00,10.770,6037.8,-19052.2,7289.2,1.95,2.85,-81.78,466.9,-727.5,158.0,0.7,-45.3,0.0,n/a,OK,4.0,    
79.50,10.803,6161.0,-19077.7,7283.2,1.98,2.83,-81.47,466.2,-728.9,159.2,0.7,-45.3,0.0,n/a,OK,4.0,    
80.00,10.835,6284.4,-19100.7,7277.1,2.00,2.80,-81.15,465.5,-725.2,160.4,0.7,-45.3,0.0,n/a,OK,4.0,    
80.50,10.866,6408.2,-19121.4,7271.1,2.00,2.78,-80.83,464.8,-726.3,161.6,0.7,-46.5,0.0,n/a,OK,4.0,    
81.00,10.897,6532.1,-19139.5,7264.9,2.06,2.76,-80.52,464.2,-755.8,162.9,0.7,-49.6,0.0,n/a,OK,4.0,    
81.50,10.926,6656.3,-19154.9,7258.5,2.11,2.74,-80.20,463.5,-781.0,164.4,0.6,-52.2,0.0,n/a,OK,4.0,    
82.00,10.954,6780.7,-19167.3,7251.9,2.18,2.71,-79.88,462.9,-823.0,166.0,0.6,-54.6,0.0,n/a,OK,4.0,    
82.50,10.981,6905.1,-19176.6,7244.8,2.28,2.69,-79.55,462.2,-885.0,167.7,0.5,-57.0,0.0,n/a,OK,4.0,    
83.00,11.006,7029.7,-19182.5,7237.1,2.45,2.67,-79.23,461.6,-960.8,169.5,0.5,-57.3,0.0,n/a,OK,4.0,    
83.50,11.030,7154.2,-19184.9,7229.1,2.53,2.65,-78.90,460.9,-943.6,171.3,0.6,-55.9,0.0,n/a,OK,4.0,    
84.00,11.053,7278.5,-19183.9,7221.3,2.54,2.63,-78.58,460.3,-938.2,172.9,0.6,-55.2,0.0,n/a,OK,4.0,    
84.50,11.074,7402.6,-19179.6,7213.5,2.53,2.61,-78.25,459.6,-926.9,174.6,0.6,-55.3,0.0,n/a,OK,4.0,    
85.00,11.094,7526.3,-19171.9,7205.8,2.57,2.60,-77.92,459.0,-930.7,176.3,0.6,-56.3,0.0,n/a,OK,4.0,    
85.50,11.112,7649.6,-19160.6,7197.9,2.59,2.58,-77.59,458.4,-956.0,178.2,0.5,-57.9,0.0,n/a,OK,4.0,    
86.00,11.129,7772.4,-19145.7,7189.8,2.65,2.56,-77.25,457.8,-1008.7,179.9,0.4,-60.8,0.0,n/a,OK,4.0,    
86.50,11.144,7894.4,-19127.0,7181.0,2.75,2.55,-76.92,457.2,-1115.3,177.7,0.2,-64.3,0.0,n/a,OK,4.0,    
87.00,11.158,8015.5,-19104.0,7171.1,2.90,2.53,-76.59,456.6,-1259.2,175.3,0.1,-66.6,0.0,n/a,OK,4.0,    
87.50,11.169,8135.5,-19076.6,7160.1,3.13,2.52,-76.25,456.0,-1411.8,172.7,-0.1,-67.4,0.0,n/a,OK,4.0,    
88.00,11.178,8254.0,-19044.5,7148.0,3.36,2.50,-75.91,455.3,-1471.4,170.0,-0.0,-66.1,0.0,n/a,OK,4.0,    
88.50,11.184,8370.9,-19007.7,7135.5,3.49,2.49,-75.58,454.6,-1515.0,167.4,-0.1,-65.8,0.0,n/a,OK,4.0,    
89.00,11.188,8485.9,-18966.2,7122.9,3.63,2.48,-75.24,453.8,-1514.3,164.7,0.0,-64.9,0.0,n/a,OK,4.0,    
89.50,11.190,8598.8,-18920.0,7110.5,3.68,2.46,-74.90,452.9,-1429.4,162.2,0.3,-61.7,0.0,n/a,OK,4.0,    
90.00,11.190,8709.4,-18869.3,7099.3,3.63,2.46,-74.57,452.1,-1238.0,160.0,0.7,-56.8,0.0,n/a,OK,4.0,    
90.50,11.187,8817.8,-18814.8,7090.2,3.44,2.45,-74.23,451.2,-939.9,158.3,1.2,-51.0,0.0,n/a,OK,4.0,    
91.00,11.183,8924.3,-18757.1,7083.5,3.09,2.45,-73.90,450.5,-646.2,157.1,1.5,-45.7,0.0,n/a,OK,4.0,    
91.50,11.178,9029.0,-18696.9,7079.0,2.58,2.44,-73.57,449.8,-456.4,156.3,1.5,-41.2,0.0,n/a,OK,4.0,    
92.00,11.172,9132.5,-18634.9,7075.4,2.19,2.44,-73.23,449.3,-444.7,155.7,1.3,-37.2,0.0,n/a,OK,4.0,    
92.50,11.165,9235.0,-18571.5,7071.5,1.90,2.44,-72.90,448.9,-508.7,155.2,1.0,-32.9,0.0,n/a,OK,4.0,    
93.00,11.158,9336.5,-18506.9,7066.6,1.65,2.44,-72.57,448.5,-672.5,154.8,0.7,-27.9,0.0,n/a,OK,4.0,    
93.50,11.151,9437.3,-18441.5,7060.2,1.46,2.44,-72.24,448.2,-871.4,154.5,0.3,-22.2,0.0,n/a,OK,4.0,    
94.00,11.143,9537.6,-18375.4,7052.0,1.37,2.44,-71.91,448.0,-1109.2,154.3,-0.1,-16.9,0.0,n/a,OK,4.0,    
94.50,11.136,9637.5,-18308.9,7041.9,1.35,2.43,-71.58,447.7,-1319.4,154.1,-0.4,-11.3,0.0,n/a,OK,4.0,    
95.00,11.129,9737.1,-18242.0,7030.2,1.34,2.43,-71.25,447.5,-1483.0,154.0,-0.6,-5.8,0.0,n/a,OK,4.0,    
95.50,11.122,9836.4,-18175.0,7017.3,1.38,2.42,-70.92,447.3,-1617.2,154.0,-0.7,-3.7,0.0,n/a,OK,4.0,    
96.00,11.115,9935.6,-18107.9,7003.5,1.44,2.41,-70.58,447.0,-1690.4,153.9,-0.7,-2.8,0.0,n/a,OK,4.0,    
96.50,11.109,10034.6,-18040.6,6989.3,1.50,2.40,-70.25,446.8,-1714.1,153.9,-0.7,0.8,0.0,n/a,OK,4.0,    
97.00,11.103,10133.6,-17973.4,6974.9,1.47,2.40,-69.92,446.6,-1742.8,154.0,-0.8,2.7,0.0,n/a,OK,4.0,    
97.50,11.097,10232.6,-17906.3,6960.3,1.50,2.39,-69.59,446.4,-1764.7,154.1,-0.8,2.9,0.0,n/a,OK,4.0,    
98.00,11.092,10331.6,-17839.4,6945.5,1.60,2.38,-69.26,446.1,-1759.5,154.2,-0.7,6.3,0.0,n/a,OK,4.0,    
98.50,11.087,10430.7,-17772.7,6931.1,1.68,2.37,-68.93,445.9,-1691.1,154.5,-0.5,9.6,0.0,n/a,OK,4.0,    
99.00,11.083,10530.0,-17706.3,6917.4,1.69,2.36,-68.59,445.6,-1599.3,154.7,-0.4,8.7,0.0,n/a,OK,4.0,    
99.50,11.080,10629.5,-17640.3,6904.4,1.71,2.35,-68.26,445.3,-1526.5,154.8,-0.3,7.5,0.0,n/a,OK,4.0,    
100.00,11.077,10729.0,-17574.6,6892.0,1.74,2.34,-67.93,445.0,-1450.8,155.0,-0.1,6.2,0.0,n/a,OK,4.0,    
100.50,11.075,10828.7,-17509.2,6880.2,1.75,2.33,-67.60,444.7,-1372.2,155.1,-0.0,4.9,0.0,n/a,OK,4.0,    
101.00,11.073,10928.4,-17444.0,6868.9,1.67,2.32,-67.26,444.4,-1330.9,155.2,-0.1,3.0,0.0,n/a,OK,4.0,    
101.50,11.071,11028.2,-17378.9,6857.8,1.67,2.31,-66.93,444.1,-1330.4,155.2,-0.1,0.7,0.0,n/a,OK,4.0,    
102.00,11.070,11127.9,-17313.8,6846.8,1.60,2.30,-66.60,443.8,-1327.5,155.1,-0.1,-0.8,0.0,n/a,OK,4.0,    
102.50,11.070,11227.5,-17248.8,6835.6,1.60,2.29,-66.27,443.6,-1368.6,155.1,-0.2,-0.8,0.0,n/a,OK,4.0,    
103.00,11.069,11327.1,-17183.9,6824.1,1.63,2.28,-65.94,443.3,-1384.5,155.1,-0.2,-0.2,0.0,n/a,OK,4.0,    
103.50,11.069,11426.6,-17119.0,6812.6,1.65,2.27,-65.60,443.0,-1376.0,155.1,-0.1,0.0,0.0,n/a,OK,4.0,    
104.00,11.070,11526.1,-17054.1,6801.1,1.64,2.26,-65.27,442.8,-1382.8,155.1,-0.2,0.2,0.0,n/a,OK,4.0,    
104.50,11.071,11625.6,-16989.3,6789.6,1.64,2.25,-64.94,442.5,-1384.2,155.1,-0.2,0.3,0.0,n/a,OK,4.0,    
105.00,11.072,11725.0,-16924.6,6778.1,1.66,2.24,-64.61,442.3,-1374.7,155.1,-0.1,0.4,0.0,n/a,OK,4.0,    
105.50,11.073,11824.3,-16859.8,6766.7,1.63,2.23,-64.28,442.0,-1372.8,155.1,-0.2,0.9,0.0,n/a,OK,4.0,    
106.00,11.075,11923.7,-16795.2,6755.2,1.64,2.22,-63.95,441.8,-1372.0,155.2,-0.1,1.5,0.0,n/a,OK,4.0,    
106.50,11.078,12023.0,-16730.6,6743.8,1.66,2.21,-63.62,441.5,-1367.8,155.2,-0.1,1.8,0.0,n/a,OK,4.0,    
107.00,11.080,12122.3,-16666.2,6732.5,1.71,2.20,-63.29,441.3,-1332.7,155.2,-0.0,1.7,0.0,n/a,OK,4.0,    
107.50,11.084,12221.6,-16601.8,6721.6,1.75,2.19,-62.96,441.1,-1281.2,155.3,0.1,1.5,0.0,n/a,OK,4.0,    
108.00,11.087,12320.8,-16537.5,6711.3,1.74,2.18,-62.63,440.7,-1203.5,155.3,0.2,1.5,0.0,n/a,OK,4.0,    
108.50,11.091,12420.1,-16473.3,6701.3,1.67,2.17,-62.30,440.4,-1199.6,155.4,0.1,1.9,0.0,n/a,OK,4.0,    
109.00,11.096,12519.3,-16409.3,6691.3,1.69,2.16,-61.98,440.2,-1195.9,155.4,0.1,2.0,0.0,n/a,OK,4.0,    
109.50,11.100,12618.5,-16345.3,6681.4,1.69,2.15,-61.65,439.9,-1182.5,155.4,0.1,1.9,0.0,n/a,OK,4.0,    
110.00,11.106,12717.7,-16281.4,6671.5,1.68,2.14,-61.32,439.6,-1182.8,155.5,0.1,1.9,0.0,n/a,OK,4.0,    
110.50,11.111,12816.9,-16217.6,6661.7,1.68,2.12,-61.00,439.4,-1182.9,155.5,0.1,1.9,0.0,n/a,OK,4.0,    
111.00,11.117,12916.0,-16154.0,6651.8,1.68,2.11,-60.67,439.1,-1182.4,155.6,0.1,1.9,0.0,n/a,OK,4.0,    
111.50,11.124,13015.2,-16090.4,6642.0,1.69,2.10,-60.34,438.9,-1183.4,155.6,0.1,1.8,0.0,n/a,OK,4.0,    
112.00,11.130,13114.4,-16026.9,6632.2,1.76,2.09,-60.02,438.6,-1138.6,155.6,0.3,0.9,0.0,n/a,OK,4.0,    
112.50,11.138,13213.5,-15963.5,6623.0,1.70,2.08,-59.70,438.3,-1098.9,155.6,0.3,0.2,0.0,n/a,OK,4.0,    
113.00,11.145,13312.5,-15900.2,6613.8,1.65,2.07,-59.37,438.1,-1114.1,155.6,0.2,0.3,0.0,n/a,OK,4.0,    
113.50,11.153,13411.5,-15836.9,6604.4,1.67,2.06,-59.05,437.8,-1119.5,155.6,0.2,0.5,0.0,n/a,OK,4.0,    
114.00,11.161,13510.5,-15773.6,6595.1,1.68,2.04,-58.73,437.5,-1126.3,155.6,0.2,0.6,0.0,n/a,OK,4.0,    
114.50,11.170,13609.4,-15710.4,6585.7,1.68,2.03,-58.41,437.3,-1127.4,155.7,0.2,0.6,0.0,n/a,OK,4.0,    
115.00,11.179,13708.3,-15647.3,6576.3,1.68,2.02,-58.08,437.0,-1131.2,155.7,0.2,0.5,0.0,n/a,OK,4.0,    
115.50,11.188,13807.2,-15584.2,6566.9,1.68,2.01,-57.76,436.8,-1132.6,155.7,0.2,0.5,0.0,n/a,OK,4.0,    
116.00,11.198,13906.0,-15521.2,6557.4,1.68,1.99,-57.45,436.6,-1134.7,155.7,0.2,0.5,0.0,n/a,OK,4.0,    
116.50,11.208,14004.8,-15458.2,6548.0,1.68,1.98,-57.13,436.3,-1134.4,155.7,0.2,0.5,0.0,n/a,OK,4.0,    
117.00,11.218,14103.5,-15395.3,6538.5,1.68,1.97,-56.81,436.1,-1134.8,155.7,0.2,0.5,0.0,n/a,OK,4.0,    
117.50,11.229,14202.2,-15332.4,6529.0,1.69,1.95,-56.49,435.9,-1139.8,155.7,0.2,0.5,0.0,n/a,OK,4.0,    
118.00,11.240,14300.8,-15269.6,6519.6,1.69,1.94,-56.18,435.6,-1137.1,155.7,0.2,0.5,0.0,n/a,OK,4.0,    
118.50,11.252,14399.5,-15206.8,6510.1,1.71,1.93,-55.86,435.4,-1139.2,155.7,0.2,0.5,0.0,n/a,OK,4.0,    
119.00,11.263,14498.1,-15144.1,6500.8,1.80,1.91,-55.55,435.1,-1075.9,155.7,0.4,0.5,0.0,n/a,OK,4.0,    
119.50,11.276,14596.6,-15081.4,6492.0,1.69,1.90,-55.23,434.8,-1039.8,155.8,0.3,0.5,0.0,n/a,OK,4.0,    
120.00,11.288,14695.1,-15018.8,6483.3,1.70,1.89,-54.92,434.6,-1057.4,155.8,0.3,0.5,0.0,n/a,OK,4.0,    
120.50,11.301,14793.6,-14956.3,6474.5,1.71,1.87,-54.61,434.4,-1052.8,155.8,0.3,0.5,0.0,n/a,OK,4.0,    
121.00,11.314,14892.0,-14893.8,6465.7,1.71,1.86,-54.30,434.1,-1054.5,155.8,0.3,0.5,0.0,n/a,OK,4.0,    
121.50,11.328,14990.4,-14831.3,6456.9,1.71,1.85,-53.99,433.9,-1053.6,155.8,0.3,0.5,0.0,n/a,OK,4.0,    
122.00,11.342,15088.7,-14768.9,6448.1,1.71,1.83,-53.68,433.7,-1055.5,155.8,0.3,0.5,0.0,n/a,OK,4.0,    
122.50,11.356,15187.0,-14706.5,6439.3,1.71,1.82,-53.37,433.5,-1056.7,155.8,0.3,0.5,0.0,n/a,OK,4.0,    
123.00,11.370,15285.3,-14644.2,6430.5,1.71,1.81,-53.06,433.2,-1059.1,155.8,0.3,0.4,0.0,n/a,OK,4.0,    
123.50,11.385,15383.5,-14581.9,6421.7,1.71,1.79,-52.76,433.0,-1061.6,155.8,0.3,0.4,0.0,n/a,OK,4.0,    
124.00,11.400,15481.7,-14519.7,6412.8,1.72,1.78,-52.45,432.8,-1062.6,155.9,0.3,0.6,0.0,n/a,OK,4.0,    
124.50,11.416,15579.8,-14457.6,6404.0,1.72,1.76,-52.15,432.6,-1062.3,155.9,0.3,0.9,0.0,n/a,OK,4.0,    
125.00,11.432,15678.0,-14395.4,6395.1,1.71,1.75,-51.84,432.4,-1060.3,155.9,0.3,0.8,0.0,n/a,OK,4.0,    
125.50,11.448,15776.1,-14333.4,6386.3,1.68,1.73,-51.54,432.1,-1078.0,155.9,0.2,0.8,0.0,n/a,OK,4.0,    
126.00,11.464,15874.2,-14271.4,6377.1,1.69,1.72,-51.24,432.0,-1111.6,155.9,0.2,0.8,0.0,n/a,OK,4.0,    
126.50,11.481,15972.2,-14209.5,6367.8,1.72,1.70,-50.94,431.8,-1110.9,155.9,0.2,0.8,0.0,n/a,OK,4.0,    
127.00,11.498,16070.2,-14147.6,6358.6,1.72,1.69,-50.64,431.6,-1111.5,156.0,0.2,1.0,0.0,n/a,OK,4.0,    
127.50,11.516,16168.2,-14085.7,6349.3,1.72,1.67,-50.34,431.3,-1110.1,156.0,0.2,1.1,0.0,n/a,OK,4.0,    
128.00,11.534,16266.2,-14024.0,6340.1,1.73,1.66,-50.04,431.2,-1108.7,156.0,0.2,1.1,0.0,n/a,OK,4.0,    
128.50,11.552,16364.2,-13962.3,6330.9,1.73,1.64,-49.75,431.0,-1109.4,156.0,0.2,1.0,0.0,n/a,OK,4.0,    
129.00,11.570,16462.1,-13900.6,6321.6,1.73,1.63,-49.45,430.8,-1108.7,156.1,0.2,1.0,0.0,n/a,OK,4.0,    
129.50,11.589,16560.1,-13839.0,6312.4,1.73,1.61,-49.16,430.6,-1108.7,156.1,0.2,1.0,0.0,n/a,OK,4.0,    
130.00,11.608,16658.0,-13777.5,6303.1,1.73,1.59,-48.87,430.4,-1108.3,156.1,0.2,1.0,0.0,n/a,OK,4.0,    
130.50,11.628,16755.9,-13716.1,6293.9,1.73,1.58,-48.57,430.2,-1106.4,156.1,0.2,1.0,0.0,n/a,OK,4.0,    
131.00,11.647,16853.7,-13654.7,6284.7,1.73,1.56,-48.28,430.0,-1107.2,156.1,0.2,1.0,0.0,n/a,OK,4.0,    
131.50,11.667,16951.6,-13593.3,6275.4,1.73,1.55,-47.99,429.8,-1106.7,156.2,0.2,1.0,0.0,n/a,OK,4.0,    
132.00,11.688,17049.4,-13532.0,6266.2,1.74,1.53,-47.71,429.7,-1109.3,156.2,0.3,1.0,0.0,n/a,OK,4.0,    
132.50,11.708,17147.3,-13470.8,6257.1,1.83,1.51,-47.42,429.5,-1067.3,156.2,0.4,1.0,0.0,n/a,OK,4.0,    
133.00,11.729,17245.1,-13409.7,6248.4,1.82,1.50,-47.13,429.2,-1008.9,156.2,0.5,1.0,0.0,n/a,OK,4.0,    
133.50,11.751,17342.9,-13348.6,6240.2,1.84,1.48,-46.85,429.0,-959.0,156.3,0.6,1.0,0.0,n/a,OK,4.0,    
134.00,11.772,17440.6,-13287.5,6232.5,1.82,1.47,-46.57,428.8,-905.7,156.3,0.6,1.2,0.0,n/a,OK,4.0,    
134.50,11.794,17538.4,-13226.6,6225.0,1.81,1.45,-46.28,428.6,-871.8,156.3,0.6,1.3,0.0,n/a,OK,4.0,    
135.00,11.816,17636.1,-13165.7,6217.9,1.77,1.44,-46.00,428.3,-851.9,156.3,0.6,1.3,0.0,n/a,OK,4.0,    
135.50,11.839,17733.8,-13104.9,6210.8,1.76,1.42,-45.72,428.1,-854.1,156.4,0.6,1.2,0.0,n/a,OK,4.0,    
136.00,11.862,17831.5,-13044.2,6203.7,1.76,1.41,-45.45,427.9,-856.1,156.4,0.6,1.4,0.0,n/a,OK,4.0,    
136.50,11.885,17929.2,-12983.5,6196.5,1.76,1.39,-45.17,427.7,-857.4,156.4,0.6,1.5,0.0,n/a,OK,4.0,    
137.00,11.908,18026.8,-12923.0,6189.4,1.76,1.38,-44.89,427.5,-859.1,156.5,0.6,1.5,0.0,n/a,OK,4.0,    
137.50,11.932,18124.5,-12862.5,6182.2,1.76,1.36,-44.62,427.3,-859.2,156.5,0.6,1.5,0.0,n/a,OK,4.0,    
138.00,11.956,18222.1,-12802.1,6175.1,1.76,1.35,-44.34,427.0,-860.4,156.5,0.6,1.5,0.0,n/a,OK,4.0,    
138.50,11.980,18319.7,-12741.7,6167.9,1.75,1.33,-44.07,426.8,-861.4,156.6,0.6,1.5,0.0,n/a,OK,4.0,    
139.00,12.005,18417.3,-12681.5,6160.7,1.76,1.32,-43.80,426.6,-863.4,156.6,0.6,1.4,0.0,n/a,OK,4.0,    
139.50,12.030,18514.9,-12621.3,6153.5,1.76,1.30,-43.53,426.4,-865.3,156.6,0.6,1.4,0.0,n/a,OK,4.0,    
140.00,12.055,18612.5,-12561.2,6146.3,1.76,1.28,-43.26,426.2,-867.0,156.6,0.6,1.4,0.0,n/a,OK,4.0,    
140.50,12.080,18710.0,-12501.2,6139.1,1.76,1.27,-43.00,425.8,-869.0,156.7,0.6,1.4,0.0,n/a,OK,4.0,    
141.00,12.106,18807.4,-12441.3,6131.8,1.76,1.25,-42.73,424.4,-871.0,156.7,0.6,1.4,0.0,n/a,OK,4.0,    
141.50,12.132,18904.5,-12381.7,6124.5,1.78,1.24,-42.47,422.8,-880.0,156.7,0.6,1.4,0.0,n/a,OK,4.0,    
142.00,12.158,19001.3,-12322.4,6117.1,1.79,1.22,-42.21,422.0,-888.0,156.8,0.6,1.4,0.0,n/a,OK,4.0,    
142.50,12.184,19098.2,-12263.1,6109.7,1.80,1.21,-41.95,423.2,-891.4,156.8,0.6,1.4,0.0,n/a,OK,4.0,    
143.00,12.211,19195.5,-12203.6,6102.4,1.82,1.19,-41.69,425.0,-866.8,156.8,0.6,1.4,0.0,n/a,OK,4.0,    
143.50,12.238,19293.1,-12143.9,6095.3,1.82,1.17,-41.43,426.0,-814.9,156.9,0.7,1.4,0.0,n/a,OK,4.0,    
144.00,12.265,19391.0,-12084.2,6088.7,1.76,1.16,-41.17,426.6,-791.3,156.9,0.7,1.4,0.0,n/a,OK,4.0,    
144.50,12.293,19489.0,-12024.5,6082.1,1.75,1.14,-40.91,427.3,-789.4,156.9,0.7,1.4,0.0,n/a,OK,4.0,    
145.00,12.321,19587.2,-11964.7,6075.5,1.74,1.13,-40.66,428.2,-782.7,157.0,0.7,1.4,0.0,n/a,OK,4.0,    
145.50,12.350,19685.6,-11904.8,6069.0,1.73,1.11,-40.40,429.1,-780.1,157.0,0.7,1.4,0.0,n/a,OK,4.0,    
146.00,12.378,19784.3,-11844.9,6062.5,1.73,1.10,-40.15,430.0,-775.6,157.0,0.7,1.4,0.0,n/a,OK,4.0,    
146.50,12.407,19883.2,-11784.8,6056.1,1.72,1.08,-39.89,430.8,-772.6,157.1,0.7,1.4,0.0,n/a,OK,4.0,    
147.00,12.437,19982.3,-11724.8,6049.7,1.71,1.07,-39.64,431.8,-763.3,157.1,0.7,1.4,0.0,n/a,OK,4.0,    
147.50,12.467,20081.7,-11664.6,6043.3,1.70,1.05,-39.38,432.6,-761.3,157.1,0.7,1.4,0.0,n/a,OK,4.0,    
148.00,12.497,20181.3,-11604.4,6037.0,1.69,1.03,-39.13,433.5,-754.7,157.1,0.7,1.4,0.0,n/a,OK,4.0,    
148.50,12.527,20281.0,-11544.1,6030.7,1.68,1.02,-38.88,434.4,-752.7,157.2,0.7,1.4,0.0,n/a,OK,4.0,    
149.00,12.558,20381.0,-11483.7,6024.5,1.67,1.00,-38.63,435.2,-749.8,157.2,0.7,1.4,0.0,n/a,OK,4.0,    
149.50,12.589,20481.3,-11423.3,6018.2,1.66,0.99,-38.38,436.0,-744.9,157.2,0.7,1.4,0.0,n/a,OK,4.0,    
150.00,12.620,20581.7,-11362.8,6012.0,1.66,0.97,-38.13,436.9,-742.3,157.3,0.7,1.4,0.0,n/a,OK,4.0,    
150.50,12.652,20682.3,-11302.2,6005.9,1.64,0.96,-37.88,437.7,-734.5,157.3,0.7,1.4,0.0,n/a,OK,4.0,    
151.00,12.684,20783.2,-11241.6,5999.7,1.64,0.94,-37.64,438.5,-735.2,157.3,0.7,1.4,0.0,n/a,OK,4.0,    
151.50,12.716,20884.3,-11181.0,5993.7,1.64,0.92,-37.39,439.3,-730.0,157.4,0.7,1.4,0.0,n/a,OK,4.0,    
152.00,12.749,20985.6,-11120.2,5987.6,1.63,0.91,-37.14,440.2,-724.6,157.4,0.7,1.4,0.0,n/a,OK,4.0,    
152.50,12.782,21087.0,-11059.4,5981.6,1.62,0.89,-36.90,440.9,-722.8,157.4,0.7,1.4,0.0,n/a,OK,4.0,    
153.00,12.815,21188.7,-10998.6,5975.6,1.61,0.88,-36.66,441.7,-715.5,157.5,0.7,1.4,0.0,n/a,OK,4.0,    
153.50,12.849,21290.6,-10937.7,5969.6,1.61,0.86,-36.41,442.5,-715.8,157.5,0.7,1.4,0.0,n/a,OK,4.0,    
154.00,12.883,21392.7,-10876.7,5963.7,1.60,0.85,-36.17,443.3,-709.1,157.5,0.7,1.4,0.0,n/a,OK,4.0,    
154.50,12.917,21495.0,-10815.7,5957.8,1.59,0.83,-35.93,444.1,-706.6,157.5,0.7,1.4,0.0,n/a,OK,4.0,    
155.00,12.951,21597.5,-10754.6,5951.9,1.59,0.81,-35.69,444.8,-702.5,157.6,0.7,1.4,0.0,n/a,OK,4.0,    
155.50,12.986,21700.2,-10693.5,5946.1,1.57,0.80,-35.45,445.6,-695.4,157.6,0.7,1.4,0.0,n/a,OK,4.0,    
156.00,13.021,21803.1,-10632.3,5940.3,1.57,0.78,-35.21,446.3,-694.8,157.6,0.7,1.4,0.0,n/a,OK,4.0,    
156.50,13.057,21906.2,-10571.1,5934.5,1.57,0.77,-34.98,447.1,-691.2,157.7,0.7,1.4,0.0,n/a,OK,4.0,    
157.00,13.093,22009.5,-10509.8,5928.8,1.56,0.75,-34.74,447.8,-686.8,157.7,0.7,1.4,0.0,n/a,OK,4.0,    
157.50,13.129,22113.0,-10448.5,5923.1,1.55,0.74,-34.50,448.6,-685.2,157.7,0.7,1.4,0.0,n/a,OK,4.0,    
158.00,13.165,22216.6,-10387.1,5917.3,1.54,0.72,-34.27,449.3,-680.1,157.8,0.7,1.4,0.0,n/a,OK,4.0,    
158.50,13.202,22320.5,-10325.7,5911.7,1.54,0.70,-34.04,450.0,-676.6,157.8,0.7,1.4,0.0,n/a,OK,4.0,    
159.00,13.239,22424.5,-10264.2,5906.1,1.53,0.69,-33.81,450.7,-671.5,157.8,0.7,1.4,0.0,n/a,OK,4.0,    
159.50,13.276,22528.8,-10202.7,5900.5,1.53,0.67,-33.57,451.4,-669.5,157.8,0.7,1.4,0.0,n/a,OK,4.0,    
160.00,13.314,22633.2,-10141.2,5894.9,1.52,0.66,-33.34,452.1,-666.9,157.9,0.7,1.4,0.0,n/a,OK,4.0,    
160.50,13.352,22737.8,-10079.6,5889.4,1.52,0.64,-33.12,452.8,-662.3,157.9,0.7,1.4,0.0,n/a,OK,4.0,    
161.00,13.390,22842.6,-10017.9,5883.9,1.51,0.63,-32.89,453.5,-661.0,157.9,0.7,1.4,0.0,n/a,OK,4.0,    
161.50,13.428,22947.5,-9956.3,5878.4,1.50,0.61,-32.66,454.2,-654.8,158.0,0.7,1.4,0.0,n/a,OK,4.0,    
162.00,13.467,23052.7,-9894.5,5872.9,1.50,0.59,-32.44,454.8,-656.3,158.0,0.7,1.4,0.0,n/a,OK,4.0,    
162.50,13.506,23158.0,-9832.8,5867.5,1.49,0.58,-32.21,455.5,-649.4,158.0,0.7,1.4,0.0,n/a,OK,4.0,    
163.00,13.545,23263.5,-9771.0,5862.1,1.49,0.56,-31.99,456.1,-650.2,158.1,0.7,1.4,0.0,n/a,OK,4.0,    
163.50,13.585,23369.2,-9709.2,5856.7,1.48,0.55,-31.76,456.8,-642.2,158.1,0.7,1.4,0.0,n/a,OK,4.0,    
164.00,13.625,23475.0,-9647.3,5851.3,1.48,0.53,-31.54,457.4,-641.1,158.1,0.7,1.4,0.0,n/a,OK,4.0,    
164.50,13.665,23581.1,-9585.4,5846.0,1.47,0.52,-31.32,458.1,-639.4,158.1,0.7,1.4,0.0,n/a,OK,4.0,    
165.00,13.706,23687.3,-9523.5,5840.7,1.47,0.50,-31.10,458.7,-636.9,158.2,0.7,1.4,0.0,n/a,OK,4.0,    
165.50,13.746,23793.6,-9461.5,5835.4,1.46,0.49,-30.88,459.3,-632.0,158.2,0.7,1.4,0.0,n/a,OK,4.0,    
166.00,13.787,23900.2,-9399.5,5830.1,1.46,0.47,-30.67,459.9,-628.7,158.2,0.7,1.4,0.0,n/a,OK,4.0,    
166.50,13.829,24006.9,-9337.5,5824.9,1.45,0.46,-30.45,460.6,-626.2,158.3,0.7,1.4,0.0,n/a,OK,4.0,    
167.00,13.870,24113.7,-9275.4,5819.7,1.45,0.44,-30.24,461.1,-624.0,158.3,0.7,1.4,0.0,n/a,OK,4.0,    
167.50,13.912,24220.7,-9213.4,5814.5,1.44,0.42,-30.02,461.7,-618.4,158.3,0.7,1.4,0.0,n/a,OK,4.0,    
168.00,13.954,24327.9,-9151.2,5809.4,1.44,0.41,-29.81,462.4,-618.1,158.3,0.7,1.4,0.0,n/a,OK,4.0,    
168.50,13.997,24435.3,-9089.1,5804.2,1.43,0.39,-29.60,462.9,-614.6,158.4,0.7,1.4,0.0,n/a,OK,4.0,    
169.00,14.039,24542.8,-9026.9,5799.1,1.43,0.38,-29.39,463.5,-615.1,158.4,0.7,1.4,0.0,n/a,OK,4.0,    
169.50,14.082,24650.5,-8964.7,5794.1,1.59,0.36,-29.18,464.1,-542.5,158.4,0.9,1.4,0.0,n/a,OK,4.0,    
170.00,14.126,24758.3,-8902.5,5790.3,1.58,0.35,-28.97,464.6,-381.4,158.5,1.1,1.4,0.0,n/a,OK,4.0,    
170.50,14.169,24866.3,-8840.3,5787.6,1.56,0.34,-28.76,465.0,-268.5,158.5,1.2,1.4,0.0,n/a,OK,4.0,    
171.00,14.213,24974.4,-8778.1,5785.8,1.55,0.32,-28.56,465.5,-151.7,158.5,1.4,1.4,0.0,n/a,OK,4.0,    
171.50,14.257,25082.6,-8715.9,5785.0,1.54,0.31,-28.35,465.9,-50.3,158.6,1.5,1.4,0.0,n/a,OK,4.0,    
172.00,14.301,25191.0,-8653.7,5784.9,1.53,0.30,-28.15,466.3,37.3,158.6,1.6,1.4,0.0,n/a,OK,4.0,    
172.50,14.345,25299.5,-8591.4,5785.6,1.51,0.29,-27.94,466.7,116.6,158.6,1.7,1.4,0.0,n/a,OK,4.0,    
173.00,14.390,25408.1,-8529.2,5786.8,1.49,0.28,-27.74,467.1,183.0,158.7,1.7,1.4,0.0,n/a,OK,4.0,    
173.50,14.435,25516.8,-8467.0,5788.5,1.47,0.27,-27.54,467.4,230.8,158.7,1.8,1.4,0.0,n/a,OK,4.0,    
174.00,14.480,25625.6,-8404.8,5790.6,1.45,0.26,-27.34,467.8,268.5,158.7,1.8,1.4,0.0,n/a,OK,4.0,    
174.50,14.526,25734.6,-8342.7,5792.9,1.43,0.25,-27.15,468.1,285.0,158.8,1.8,1.4,0.0,n/a,OK,4.0,    
175.00,14.571,25843.6,-8280.5,5795.3,1.41,0.24,-26.95,468.5,296.7,158.8,1.8,1.4,0.0,n/a,OK,4.0,    
175.50,14.617,25952.8,-8218.3,5797.8,1.39,0.23,-26.75,468.8,290.7,158.8,1.7,1.4,0.0,n/a,OK,4.0,    
176.00,14.663,26062.0,-8156.1,5800.2,1.37,0.22,-26.56,469.2,281.5,158.8,1.7,1.4,0.0,n/a,OK,4.0,    
176.50,14.710,26171.4,-8093.9,5802.5,1.35,0.20,-26.37,469.5,257.8,158.9,1.7,1.4,0.0,n/a,OK,4.0,    
177.00,14.756,26280.9,-8031.8,5804.5,1.34,0.19,-26.18,469.9,229.0,158.9,1.6,1.4,0.0,n/a,OK,4.0,    
177.50,14.803,26390.4,-7969.6,5806.3,1.33,0.18,-25.98,470.2,195.1,158.9,1.6,1.4,0.0,n/a,OK,4.0,    
178.00,14.850,26500.1,-7907.5,5807.8,1.32,0.17,-25.79,470.6,158.3,158.9,1.5,1.4,0.0,n/a,OK,4.0,    
178.50,14.897,26609.9,-7845.3,5808.9,1.31,0.16,-25.61,471.0,123.8,159.0,1.5,1.4,0.0,n/a,OK,4.0,    
179.00,14.944,26719.9,-7783.1,5809.8,1.31,0.15,-25.42,471.3,83.1,159.0,1.4,1.4,0.0,n/a,OK,4.0,    
179.50,14.992,26829.9,-7721.0,5810.3,1.31,0.14,-25.23,471.7,48.2,159.0,1.4,1.4,0.0,n/a,OK,4.0,    
180.00,15.040,26940.0,-7658.8,5810.6,1.31,0.13,-25.05,472.1,13.3,159.1,1.3,1.4,0.0,n/a,OK,4.0,    
180.50,15.088,27050.3,-7596.7,5810.6,1.31,0.12,-24.86,472.5,-13.4,159.1,1.3,1.4,0.0,n/a,OK,4.0,    
181.00,15.136,27160.6,-7534.5,5810.4,1.31,0.11,-24.68,472.8,-39.1,159.1,1.3,1.4,0.0,n/a,OK,4.0,    
181.50,15.185,27271.1,-7472.4,5810.0,1.31,0.09,-24.50,473.2,-58.5,159.1,1.2,1.4,0.0,n/a,OK,4.0,    
182.00,15.233,27381.7,-7410.2,5809.4,1.32,0.08,-24.32,473.6,-78.4,159.2,1.2,1.4,0.0,n/a,OK,4.0,    
182.50,15.282,27492.4,-7348.1,5808.7,1.33,0.07,-24.14,474.0,-89.8,159.2,1.2,1.4,0.0,n/a,OK,4.0,    
183.00,15.332,27603.2,-7285.9,5807.9,1.33,0.06,-23.96,474.3,-97.4,159.2,1.2,1.4,0.0,n/a,OK,4.0,    
183.50,15.381,27714.2,-7223.8,5807.1,1.34,0.05,-23.78,474.7,-100.8,159.3,1.2,1.4,0.0,n/a,OK,4.0,    
184.00,15.430,27825.2,-7161.7,5806.3,1.34,0.03,-23.61,475.1,-94.3,159.3,1.2,1.4,0.0,n/a,OK,4.0,    
184.50,15.480,27936.4,-7099.5,5805.5,1.35,0.02,-23.43,475.4,-93.1,159.3,1.2,1.4,0.0,n/a,OK,4.0,    
185.00,15.530,28047.6,-7037.4,5804.7,1.35,0.01,-23.26,475.8,-87.7,159.3,1.2,1.4,0.0,n/a,OK,4.0,    
185.50,15.580,28159.0,-6975.3,5804.1,1.35,-0.00,-23.08,476.1,-77.2,159.4,1.3,1.4,0.0,n/a,OK,4.0,    
186.00,15.631,28270.5,-6913.2,5803.5,1.34,-0.01,-22.91,476.5,-63.3,159.4,1.3,1.4,0.0,n/a,OK,4.0,    
186.50,15.681,28382.1,-6851.1,5803.0,1.35,-0.02,-22.74,476.8,-53.0,159.4,1.3,1.4,0.0,n/a,OK,4.0,    
187.00,15.732,28493.7,-6789.0,5802.6,1.35,-0.03,-22.57,477.1,-41.7,159.5,1.3,1.4,0.0,n/a,OK,4.0,    
187.50,15.783,28605.5,-6726.9,5802.3,1.34,-0.05,-22.40,477.4,-27.2,159.5,1.3,1.4,0.0,n/a,OK,4.0,    
188.00,15.834,28717.4,-6664.8,5802.1,1.34,-0.06,-22.23,477.7,-15.8,159.5,1.3,1.4,0.0,n/a,OK,4.0,    
188.50,15.885,28829.4,-6602.8,5802.0,1.34,-0.07,-22.07,478.0,-5.1,159.5,1.3,1.4,0.0,n/a,OK,4.0,    
189.00,15.937,28941.5,-6540.7,5802.0,1.34,-0.08,-21.90,478.4,2.9,159.6,1.3,1.4,0.0,n/a,OK,4.0,    
189.50,15.989,29053.7,-6478.7,5802.0,1.33,-0.09,-21.74,478.6,10.8,159.6,1.3,1.4,0.0,n/a,OK,4.0,    
190.00,16.040,29166.0,-6416.7,5802.2,1.33,-0.10,-21.57,479.0,18.7,159.6,1.3,1.4,0.0,n/a,OK,4.0,    
190.50,16.092,29278.4,-6354.7,5802.3,1.32,-0.11,-21.41,479.2,28.0,159.6,1.4,1.4,0.0,n/a,OK,4.0,    
191.00,16.145,29390.8,-6292.7,5802.6,1.32,-0.12,-21.25,479.5,31.3,159.7,1.4,1.4,0.0,n/a,OK,4.0,    
191.50,16.197,29503.4,-6230.7,5802.9,1.32,-0.13,-21.09,479.8,30.9,159.7,1.4,1.4,0.0,n/a,OK,4.0,    
192.00,16.250,29616.0,-6168.7,5803.1,1.31,-0.14,-20.93,480.1,30.6,159.7,1.3,1.4,0.0,n/a,OK,4.0,    
192.50,16.303,29728.8,-6106.8,5803.4,1.30,-0.16,-20.77,480.4,33.4,159.8,1.3,1.4,0.0,n/a,OK,4.0,    
193.00,16.355,29841.7,-6044.9,5803.6,1.30,-0.17,-20.61,480.7,30.5,159.8,1.3,1.4,0.0,n/a,OK,4.0,    
193.50,16.409,29954.6,-5983.0,5803.9,1.30,-0.18,-20.46,480.9,26.4,159.8,1.3,1.4,0.0,n/a,OK,4.0,    
194.00,16.462,30067.6,-5921.1,5804.1,1.30,-0.19,-20.30,481.2,20.2,159.8,1.3,1.4,0.0,n/a,OK,4.0,    
194.50,16.515,30180.7,-5859.2,5804.2,1.30,-0.20,-20.15,481.4,20.1,159.9,1.3,1.4,0.0,n/a,OK,4.0,    
195.00,16.569,30293.9,-5797.3,5804.4,1.30,-0.21,-19.99,481.7,16.0,159.9,1.3,1.4,0.0,n/a,OK,4.0,    
195.50,16.623,30407.2,-5735.5,5804.5,1.29,-0.22,-19.84,482.0,11.9,159.9,1.3,1.4,0.0,n/a,OK,4.0,    
196.00,16.677,30520.6,-5673.7,5804.6,1.29,-0.23,-19.69,482.3,9.3,160.0,1.3,1.4,0.0,n/a,OK,4.0,    
196.50,16.731,30634.1,-5611.9,5804.7,1.29,-0.24,-19.54,482.5,4.3,160.0,1.3,1.4,0.0,n/a,OK,4.0,    
197.00,16.785,30747.6,-5550.1,5804.7,1.29,-0.25,-19.39,482.8,-1.1,160.0,1.3,1.4,0.0,n/a,OK,4.0,    
197.50,16.840,30861.3,-5488.3,5804.7,1.29,-0.26,-19.24,483.0,-1.7,160.0,1.3,1.4,0.0,n/a,OK,4.0,    
198.00,16.894,30975.0,-5426.6,5804.6,1.28,-0.27,-19.09,483.2,-3.8,160.1,1.3,1.4,0.0,n/a,OK,4.0,    
198.50,16.949,31088.8,-5364.9,5804.6,1.28,-0.28,-18.95,483.5,-6.9,160.1,1.3,1.4,0.0,n/a,OK,4.0,    
199.00,17.004,31202.7,-5303.2,5804.5,1.29,-0.29,-18.80,483.8,-11.9,160.1,1.3,1.4,0.0,n/a,OK,4.0,    
199.50,17.059,31316.7,-5241.5,5804.4,1.28,-0.30,-18.66,484.0,-10.7,160.2,1.3,1.4,0.0,n/a,OK,4.0,    
200.00,17.114,31430.8,-5179.8,5804.3,1.28,-0.31,-18.51,484.3,-12.7,160.2,1.3,1.4,0.0,n/a,OK,4.0,    
200.50,17.170,31545.0,-5118.2,5804.2,1.28,-0.32,-18.37,484.5,-10.0,160.2,1.3,1.4,0.0,n/a,OK,4.0,    
201.00,17.225,31659.2,-5056.6,5804.2,1.28,-0.33,-18.23,484.7,-10.8,160.2,1.3,1.4,0.0,n/a,OK,4.0,    
201.50,17.281,31773.5,-4995.0,5804.1,1.28,-0.34,-18.09,484.9,-8.1,160.3,1.3,1.4,0.0,n/a,OK,4.0,    
202.00,17.337,31887.9,-4933.4,5804.0,1.28,-0.35,-17.95,485.2,-7.4,160.3,1.3,1.4,0.0,n/a,OK,4.0,    
202.50,17.393,32002.4,-4871.8,5804.0,1.28,-0.36,-17.81,485.4,-6.0,160.3,1.3,1.4,0.0,n/a,OK,4.0,    
203.00,17.449,32117.0,-4810.3,5803.9,1.28,-0.37,-17.67,485.6,-5.2,160.3,1.3,1.4,0.0,n/a,OK,4.0,    
203.50,17.505,32231.6,-4748.8,5803.9,1.27,-0.38,-17.53,485.9,-0.2,160.4,1.3,1.4,0.0,n/a,OK,4.0,    
204.00,17.562,32346.3,-4687.3,5803.9,1.27,-0.39,-17.40,486.1,1.3,160.4,1.3,1.4,0.0,n/a,OK,4.0,    
204.50,17.619,32461.1,-4625.9,5803.9,1.27,-0.40,-17.26,486.3,-2.5,160.4,1.3,1.4,0.0,n/a,OK,4.0,    
205.00,17.675,32576.0,-4564.5,5803.9,1.27,-0.41,-17.13,486.5,0.5,160.5,1.3,1.4,0.0,n/a,OK,4.0,    
205.50,17.732,32691.0,-4503.1,5803.9,1.26,-0.42,-16.99,486.7,4.5,160.5,1.3,1.4,0.0,n/a,OK,4.0,    
206.00,17.789,32806.0,-4441.7,5804.0,1.26,-0.43,-16.86,486.9,4.8,160.5,1.3,1.4,0.0,n/a,OK,4.0,    
206.50,17.846,32921.1,-4380.3,5804.0,1.26,-0.44,-16.73,487.1,4.0,160.5,1.3,1.4,0.0,n/a,OK,4.0,    
207.00,17.904,33036.3,-4319.0,5804.0,1.26,-0.45,-16.60,487.4,1.8,160.6,1.3,1.4,0.0,n/a,OK,4.0,    
207.50,17.961,33151.5,-4257.7,5804.0,1.26,-0.46,-16.47,487.5,1.9,160.6,1.3,1.4,0.0,n/a,OK,4.0,    
208.00,18.019,33266.9,-4196.5,5804.1,1.26,-0.47,-16.34,487.7,3.8,160.6,1.3,1.4,0.0,n/a,OK,4.0,    
208.50,18.076,33382.2,-4135.2,5804.1,1.25,-0.48,-16.21,487.9,7.1,160.6,1.3,1.4,0.0,n/a,OK,4.0,    
209.00,18.134,33497.7,-4074.0,5804.2,1.25,-0.49,-16.08,488.1,5.3,160.7,1.3,1.4,0.0,n/a,OK,4.0,    
209.50,18.192,33613.3,-4012.8,5804.2,1.25,-0.50,-15.96,488.4,3.8,160.7,1.3,1.4,0.0,n/a,OK,4.0,    
210.00,18.250,33728.9,-3951.7,5804.2,1.25,-0.51,-15.83,488.5,-2.3,160.7,1.3,1.4,0.0,n/a,OK,4.0,    
210.50,18.308,33844.6,-3890.5,5804.2,1.25,-0.52,-15.70,488.7,1.8,160.8,1.2,1.4,0.0,n/a,OK,4.0,    
211.00,18.367,33960.3,-3829.5,5804.2,1.25,-0.53,-15.58,488.9,-1.8,160.8,1.2,1.4,0.0,n/a,OK,4.0,    
211.50,18.425,34076.2,-3768.4,5804.2,1.25,-0.54,-15.46,489.0,0.8,160.8,1.2,1.4,0.0,n/a,OK,4.0,    
212.00,18.484,34192.1,-3707.3,5804.2,1.25,-0.55,-15.33,489.2,-1.6,160.8,1.2,1.4,0.0,n/a,OK,4.0,    
212.50,18.542,34308.0,-3646.3,5804.2,1.24,-0.56,-15.21,489.4,-0.3,160.9,1.2,1.4,0.0,n/a,OK,4.0,    
213.00,18.601,34424.1,-3585.4,5804.2,1.24,-0.57,-15.09,489.5,-2.2,160.9,1.2,1.4,0.0,n/a,OK,4.0,    
213.50,18.660,34540.2,-3524.4,5804.2,1.24,-0.58,-14.97,489.8,1.4,160.9,1.2,1.4,0.0,n/a,OK,4.0,    
214.00,18.719,34656.4,-3463.5,5804.2,1.24,-0.59,-14.85,490.0,-2.3,161.0,1.2,1.4,0.0,n/a,OK,4.0,    
214.50,18.779,34772.6,-3402.6,5804.2,1.23,-0.59,-14.73,490.1,-1.5,161.0,1.2,1.4,0.0,n/a,OK,4.0,    
215.00,18.838,34888.9,-3341.8,5804.2,1.23,-0.60,-14.62,490.3,0.7,161.0,1.2,1.4,0.0,n/a,OK,4.0,    
215.50,18.897,35005.3,-3281.0,5804.2,1.23,-0.61,-14.50,490.4,-0.0,161.0,1.2,1.4,0.0,n/a,OK,4.0,    
216.00,18.957,35121.8,-3220.2,5804.2,1.23,-0.62,-14.38,490.6,-2.0,161.1,1.2,1.4,0.0,n/a,OK,4.0,    
216.50,19.017,35238.3,-3159.4,5804.1,1.23,-0.63,-14.27,490.8,-0.5,161.1,1.2,1.4,0.0,n/a,OK,4.0,    
217.00,19.076,35354.9,-3098.7,5804.1,1.23,-0.64,-14.15,490.9,-2.2,161.1,1.2,1.4,0.0,n/a,OK,4.0,    
217.50,19.136,35471.5,-3038.0,5804.1,1.23,-0.65,-14.04,491.1,-5.1,161.1,1.2,1.4,0.0,n/a,OK,4.0,    
218.00,19.196,35588.2,-2977.3,5804.1,1.23,-0.66,-13.92,491.2,-4.0,161.2,1.2,1.4,0.0,n/a,OK,4.0,    
218.50,19.256,35705.0,-2916.7,5804.0,1.23,-0.67,-13.81,491.4,-1.7,161.2,1.2,1.4,0.0,n/a,OK,4.0,    
219.00,19.317,35821.8,-2856.1,5804.0,1.22,-0.68,-13.70,491.6,0.7,161.2,1.2,1.4,0.0,n/a,OK,4.0,    
219.50,19.377,35938.7,-2795.6,5804.0,1.22,-0.68,-13.59,491.7,-1.0,161.3,1.2,1.4,0.0,n/a,OK,4.0,    
220.00,19.437,36055.7,-2735.0,5804.0,1.22,-0.69,-13.48,491.8,-2.4,161.3,1.2,1.4,0.0,n/a,OK,4.0,    
220.50,19.498,36172.7,-2674.6,5804.0,1.22,-0.70,-13.37,492.0,-1.4,161.3,1.2,1.4,0.0,n/a,OK,4.0,    
221.00,19.559,36289.8,-2614.1,5804.0,1.22,-0.71,-13.26,492.2,-0.7,161.3,1.2,1.4,0.0,n/a,OK,4.0,    
221.50,19.619,36406.9,-2553.7,5804.0,1.22,-0.72,-13.15,492.3,-0.2,161.4,1.2,1.4,0.0,n/a,OK,4.0,    
222.00,19.680,36524.1,-2493.3,5804.0,1.22,-0.73,-13.05,492.5,-0.3,161.4,1.2,1.4,0.0,n/a,OK,4.0,    
222.50,19.741,36641.4,-2432.9,5803.9,1.22,-0.74,-12.94,492.6,-3.5,161.4,1.2,1.4,0.0,n/a,OK,4.0,    
223.00,19.802,36758.7,-2372.6,5803.9,1.22,-0.74,-12.83,492.7,-2.4,161.4,1.2,1.4,0.0,n/a,OK,4.0,    
223.50,19.863,36876.1,-2312.4,5803.9,1.21,-0.75,-12.73,492.9,-0.6,161.5,1.2,1.4,0.0,n/a,OK,4.0,    
224.00,19.925,36993.6,-2252.1,5803.9,1.21,-0.76,-12.62,493.0,1.7,161.5,1.2,1.4,0.0,n/a,OK,4.0,    
224.50,19.986,37111.1,-2191.9,5803.9,1.22,-0.77,-12.52,493.1,-1.5,161.5,1.2,1.4,0.0,n/a,OK,4.0,    
225.00,20.047,37228.6,-2131.7,5803.9,1.22,-0.78,-12.42,493.3,-1.7,161.6,1.2,1.4,0.0,n/a,OK,4.0,    
225.50,20.109,37346.3,-2071.6,5803.9,1.21,-0.79,-12.31,493.4,0.6,161.6,1.2,1.4,0.0,n/a,OK,4.0,    
226.00,20.171,37463.9,-2011.5,5803.9,1.21,-0.79,-12.21,493.5,0.2,161.6,1.2,1.4,0.0,n/a,OK,4.0,    
226.50,20.232,37581.7,-1951.5,5803.9,1.21,-0.80,-12.11,493.6,0.1,161.6,1.2,1.4,0.0,n/a,OK,4.0,    
227.00,20.294,37699.5,-1891.4,5803.9,1.21,-0.81,-12.01,493.8,0.3,161.7,1.2,1.4,0.0,n/a,OK,4.0,    
227.50,20.356,37817.3,-1831.5,5803.9,1.21,-0.82,-11.91,493.9,-0.0,161.7,1.2,1.4,0.0,n/a,OK,4.0,    
228.00,20.418,37935.2,-1771.5,5803.9,1.21,-0.83,-11.81,494.0,0.1,161.7,1.2,1.4,0.0,n/a,OK,4.0,    
228.50,20.480,38053.2,-1711.6,5803.9,1.20,-0.84,-11.71,494.1,1.2,161.7,1.2,1.4,0.0,n/a,OK,4.0,    
229.00,20.543,38171.2,-1651.7,5803.9,1.21,-0.84,-11.61,494.2,-0.0,161.8,1.2,1.4,0.0,n/a,OK,4.0,    
229.50,20.605,38289.3,-1591.9,5803.9,1.20,-0.85,-11.52,494.3,0.4,161.8,1.2,1.4,0.0,n/a,OK,4.0,    
230.00,20.667,38407.4,-1532.1,5803.9,1.20,-0.86,-11.42,494.5,0.1,161.8,1.2,1.4,0.0,n/a,OK,4.0,    
230.50,20.730,38525.6,-1472.4,5803.9,1.21,-0.87,-11.32,494.6,-0.0,161.9,1.2,1.4,0.0,n/a,OK,4.0,    
231.00,20.792,38643.8,-1412.7,5803.9,1.20,-0.87,-11.23,494.7,-0.1,161.9,1.2,1.4,0.0,n/a,OK,4.0,    
231.50,20.855,38762.1,-1353.0,5803.9,1.21,-0.88,-11.13,494.8,-3.5,161.9,1.2,1.4,0.0,n/a,OK,4.0,    
232.00,20.918,38880.4,-1293.4,5803.9,1.20,-0.89,-11.04,494.9,1.1,161.9,1.2,1.4,0.0,n/a,OK,4.0,    
232.50,20.981,38998.8,-1233.8,5803.9,1.20,-0.90,-10.95,495.0,0.1,162.0,1.2,1.4,0.0,n/a,OK,4.0,    
233.00,21.044,39117.3,-1174.2,5803.9,1.20,-0.91,-10.85,495.2,0.4,162.0,1.2,1.4,0.0,n/a,OK,4.0,    
233.50,21.107,39235.8,-1114.7,5803.9,1.20,-0.91,-10.76,495.2,-1.5,162.0,1.2,1.4,0.0,n/a,OK,4.0,    
234.00,21.170,39354.3,-1055.2,5803.9,1.20,-0.92,-10.67,495.4,-0.6,162.0,1.2,1.4,0.0,n/a,OK,4.0,    
234.50,21.233,39472.9,-995.8,5803.9,1.20,-0.93,-10.58,495.4,0.6,162.1,1.2,1.4,0.0,n/a,OK,4.0,    
235.00,21.296,39591.6,-936.4,5803.9,1.20,-0.94,-10.49,495.6,-0.7,162.1,1.2,1.4,0.0,n/a,OK,4.0,    
235.50,21.359,39710.3,-877.0,5803.9,1.20,-0.94,-10.40,495.7,-4.2,162.1,1.2,1.4,0.0,n/a,OK,4.0,    
236.00,21.423,39829.1,-817.7,5803.8,1.20,-0.95,-10.31,495.7,-3.2,162.2,1.2,1.4,0.0,n/a,OK,4.0,    
236.50,21.486,39947.9,-758.5,5803.8,1.19,-0.96,-10.22,495.8,1.7,162.2,1.2,1.4,0.0,n/a,OK,4.0,    
237.00,21.550,40066.7,-699.2,5803.8,1.19,-0.97,-10.13,495.9,0.9,162.2,1.2,1.4,0.0,n/a,OK,4.0,    
237.50,21.614,40185.6,-640.0,5803.8,1.20,-0.97,-10.05,496.1,-0.6,162.2,1.2,1.4,0.0,n/a,OK,4.0,    
238.00,21.677,40304.6,-580.9,5803.8,1.20,-0.98,-9.96,496.2,-3.9,162.3,1.2,1.4,0.0,n/a,OK,4.0,    
238.50,21.741,40423.6,-521.8,5803.8,1.19,-0.99,-9.87,496.2,-1.3,162.3,1.2,1.4,0.0,n/a,OK,4.0,    
239.00,21.805,40542.6,-462.7,5803.8,1.19,-1.00,-9.79,496.3,0.3,162.3,1.2,1.4,0.0,n/a,OK,4.0,    
239.50,21.869,40661.7,-403.7,5803.8,1.19,-1.00,-9.70,496.4,-3.7,162.4,1.2,1.4,0.0,n/a,OK,4.0,    
240.00,21.933,40780.9,-344.7,5803.8,1.19,-1.01,-9.62,496.5,1.2,162.4,1.2,1.4,0.0,n/a,OK,4.0,    
240.50,21.997,40900.1,-285.8,5803.8,1.19,-1.02,-9.53,496.6,0.2,162.4,1.2,1.4,0.0,n/a,OK,4.0,    
241.00,22.061,41019.3,-226.9,5803.8,1.19,-1.03,-9.45,496.7,0.1,162.4,1.2,1.4,0.0,n/a,OK,4.0,    
241.50,22.126,41138.6,-168.1,5803.8,1.18,-1.03,-9.37,496.8,1.7,162.5,1.2,1.4,0.0,n/a,OK,4.0,    
242.00,22.190,41258.0,-109.3,5803.8,1.19,-1.04,-9.28,496.8,-0.4,162.5,1.2,1.4,0.0,n/a,OK,4.0,    
242.50,22.254,41377.3,-50.5,5803.8,1.18,-1.05,-9.20,496.9,2.4,162.5,1.2,1.4,0.0,n/a,OK,4.0,    
243.00,22.319,41496.8,8.2,5803.8,1.19,-1.05,-9.12,496.9,-1.6,162.5,1.2,1.4,0.0,n/a,OK,4.0,    
243.50,22.383,41616.0,66.8,5803.8,1.19,-1.06,-9.04,494.2,-11.8,162.6,1.2,1.4,0.0,n/a,OK,4.0,    
244.00,22.447,41734.4,124.8,5803.6,1.21,-1.07,-8.96,490.6,-35.5,162.6,1.2,1.4,0.0,n/a,OK,4.0,    
244.50,22.511,41852.1,182.5,5803.2,1.23,-1.08,-8.88,487.5,-53.2,162.6,1.2,1.4,0.0,n/a,OK,4.0,    
245.00,22.574,41969.2,239.8,5802.7,1.26,-1.08,-8.80,484.9,-71.6,162.6,1.2,1.4,0.0,n/a,OK,4.0,    
245.50,22.637,42085.6,296.7,5802.1,1.28,-1.09,-8.73,482.1,-86.5,162.7,1.2,1.4,0.0,n/a,OK,4.0,    
246.00,22.700,42201.5,353.2,5801.3,1.31,-1.10,-8.65,479.3,-96.0,162.7,1.2,1.4,0.0,n/a,OK,4.0,    
246.50,22.763,42316.8,409.4,5800.5,1.33,-1.10,-8.58,476.5,-91.8,162.7,1.2,1.4,0.0,n/a,OK,4.0,    
247.00,22.825,42431.4,465.2,5799.7,1.36,-1.11,-8.50,473.6,-90.4,162.8,1.2,1.4,0.0,n/a,OK,4.0,    
247.50,22.887,42545.3,520.6,5799.0,1.38,-1.12,-8.43,470.8,-79.8,162.8,1.3,1.4,0.0,n/a,OK,4.0,    
248.00,22.948,42658.7,575.6,5798.4,1.40,-1.12,-8.36,468.0,-68.5,162.8,1.3,1.4,0.0,n/a,OK,4.0,    
248.50,23.009,42771.4,630.3,5797.9,1.43,-1.13,-8.29,465.1,-57.4,162.8,1.4,1.4,0.0,n/a,OK,4.0,    
249.00,23.070,42883.5,684.6,5797.5,1.45,-1.14,-8.22,462.4,-44.1,162.9,1.4,1.4,0.0,n/a,OK,4.0,    
249.50,23.131,42995.0,738.5,5797.1,1.47,-1.14,-8.15,459.7,-33.0,162.9,1.4,1.4,0.0,n/a,OK,4.0,    
250.00,23.191,43106.0,792.0,5796.9,1.49,-1.15,-8.08,457.0,-21.8,162.9,1.5,1.4,0.0,n/a,OK,4.0,    
250.50,23.252,43216.3,845.2,5796.8,1.51,-1.15,-8.01,454.4,-10.0,163.0,1.5,1.4,0.0,n/a,OK,4.0,    
251.00,23.311,43326.1,898.1,5796.7,1.52,-1.16,-7.94,451.7,-1.4,163.0,1.5,1.4,0.0,n/a,OK,4.0,    
251.50,23.371,43435.2,950.6,5796.8,1.54,-1.17,-7.88,449.1,8.1,163.0,1.6,1.4,0.0,n/a,OK,4.0,    
252.00,23.430,43543.9,1002.7,5796.9,1.56,-1.17,-7.81,446.6,13.7,163.1,1.6,1.4,0.0,n/a,OK,4.0,    
252.50,23.489,43651.9,1054.6,5797.0,1.58,-1.18,-7.75,444.1,21.2,163.1,1.6,1.4,0.0,n/a,OK,4.0,    
253.00,23.548,43759.4,1106.1,5797.2,1.60,-1.18,-7.68,441.7,26.2,163.1,1.6,1.4,0.0,n/a,OK,4.0,    
253.50,23.606,43866.4,1157.2,5797.4,1.62,-1.19,-7.62,439.3,27.7,163.1,1.7,1.4,0.0,n/a,OK,4.0,    
254.00,23.665,43972.9,1208.1,5797.7,1.64,-1.20,-7.56,436.8,28.2,163.2,1.7,1.4,0.0,n/a,OK,4.0,    
254.50,23.722,44078.8,1258.6,5797.9,1.66,-1.20,-7.49,434.5,29.2,163.2,1.7,1.4,0.0,n/a,OK,4.0,    
255.00,23.780,44184.2,1308.8,5798.2,1.67,-1.21,-7.43,432.2,31.1,163.2,1.7,1.4,0.0,n/a,OK,4.0,    
255.50,23.838,44289.1,1358.6,5798.4,1.69,-1.21,-7.37,429.8,30.1,163.3,1.7,1.4,0.0,n/a,OK,4.0,    
256.00,23.895,44393.5,1408.2,5798.7,1.71,-1.22,-7.31,427.5,27.3,163.3,1.7,1.4,0.0,n/a,OK,4.0,    
256.50,23.952,44497.4,1457.5,5798.9,1.73,-1.22,-7.25,425.3,24.1,163.3,1.8,1.4,0.0,n/a,OK,4.0,    
257.00,24.008,44600.8,1506.5,5799.0,1.75,-1.23,-7.19,423.1,17.5,163.4,1.8,1.4,0.0,n/a,OK,4.0,    
257.50,24.065,44703.7,1555.1,5799.2,1.77,-1.23,-7.14,420.9,16.2,163.4,1.8,1.4,0.0,n/a,OK,4.0,    
258.00,24.121,44806.2,1603.5,5799.3,1.79,-1.24,-7.08,418.8,13.5,163.4,1.8,1.4,0.0,n/a,OK,4.0,    
258.50,24.177,44908.1,1651.6,5799.4,1.81,-1.24,-7.02,416.6,11.8,163.5,1.8,1.4,0.0,n/a,OK,4.0,    
259.00,24.233,45009.6,1699.3,5799.5,1.83,-1.25,-6.97,414.5,5.7,163.5,1.8,1.4,0.0,n/a,OK,4.0,    
259.50,24.288,45110.7,1746.8,5799.5,1.86,-1.25,-6.91,412.4,-0.2,163.5,1.9,1.4,0.0,n/a,OK,4.0,    
260.00,24.343,45211.3,1794.1,5799.5,1.88,-1.26,-6.86,410.3,-2.3,163.6,1.9,1.4,0.0,n/a,OK,4.0,    
260.50,24.399,45311.4,1841.0,5799.4,1.90,-1.26,-6.80,408.3,-2.3,163.6,1.9,1.4,0.0,n/a,OK,4.0,    
261.00,24.453,45411.1,1887.6,5799.4,1.92,-1.27,-6.75,406.2,-4.7,163.6,1.9,1.4,0.0,n/a,OK,4.0,    
261.50,24.508,45510.3,1934.0,5799.4,1.95,-1.27,-6.69,404.3,-9.0,163.7,1.9,1.4,0.0,n/a,OK,4.0,    
262.00,24.562,45609.1,1980.1,5799.3,1.97,-1.28,-6.64,402.2,-10.1,163.7,2.0,1.4,0.0,n/a,OK,4.0,    
262.50,24.616,45707.5,2025.9,5799.2,1.99,-1.28,-6.59,400.3,-9.6,163.7,2.0,1.4,0.0,n/a,OK,4.0,    
263.00,24.670,45805.4,2071.5,5799.2,2.01,-1.29,-6.54,398.3,-7.5,163.8,2.0,1.4,0.0,n/a,OK,4.0,    
263.50,24.724,45903.0,2116.8,5799.1,2.03,-1.29,-6.49,396.4,-6.9,163.8,2.0,1.2,0.0,n/a,OK,4.0,    
264.00,24.778,46000.0,2161.8,5799.0,2.05,-1.30,-6.44,394.5,-7.9,163.7,2.0,-1.1,0.0,n/a,OK,4.0,    
264.50,24.831,46096.7,2206.7,5798.9,2.08,-1.30,-6.39,392.6,-15.8,163.5,2.0,-5.4,0.0,n/a,OK,4.0,    
265.00,24.884,46192.7,2251.6,5798.8,2.13,-1.31,-6.34,390.7,-2.7,163.3,2.1,-9.0,0.0,n/a,OK,4.0,    
265.50,24.936,46288.2,2296.7,5798.9,2.16,-1.31,-6.29,388.9,27.0,163.0,2.2,-13.6,0.0,n/a,OK,4.0,    
266.00,24.989,46383.0,2342.0,5799.2,2.20,-1.32,-6.24,387.1,42.4,162.4,2.3,-20.4,0.0,n/a,OK,4.0,    
266.50,25.041,46477.0,2388.0,5799.7,2.25,-1.32,-6.19,385.3,52.8,161.6,2.3,-27.5,0.0,n/a,OK,4.0,    
267.00,25.092,46569.9,2434.8,5800.1,2.32,-1.33,-6.13,383.5,51.0,160.6,2.4,-33.7,0.0,n/a,OK,4.0,    
267.50,25.143,46661.8,2482.8,5800.4,2.44,-1.33,-6.08,381.7,27.0,159.4,2.4,-39.3,0.0,n/a,OK,4.0,    
268.00,25.193,46752.3,2532.1,5800.5,2.59,-1.33,-6.03,379.9,-20.7,157.9,2.4,-44.4,0.0,n/a,OK,4.0,    
268.50,25.243,46841.4,2582.9,5800.0,2.87,-1.34,-5.97,378.2,-80.7,156.4,2.5,-45.6,0.0,n/a,OK,4.0,    
269.00,25.292,46928.9,2635.5,5799.5,3.11,-1.34,-5.91,376.4,-40.0,154.9,2.7,-43.6,0.0,n/a,OK,4.0,    
269.50,25.340,47014.7,2689.6,5799.2,3.18,-1.35,-5.85,374.5,-31.9,153.4,2.7,-44.6,0.0,n/a,OK,4.0,    
270.00,25.387,47098.9,2745.3,5798.9,3.31,-1.35,-5.79,372.7,-44.7,151.7,2.7,-46.1,0.0,n/a,OK,4.0,    
270.50,25.433,47181.3,2802.7,5798.7,3.44,-1.35,-5.73,370.9,-4.2,150.1,2.9,-45.4,0.0,n/a,OK,4.0,    
271.00,25.478,47261.7,2861.9,5798.8,3.47,-1.36,-5.66,369.1,26.8,148.6,2.9,-45.2,0.0,n/a,OK,4.0,    
271.50,25.522,47340.3,2922.6,5799.1,3.52,-1.36,-5.59,367.3,57.3,147.0,3.0,-45.2,0.0,n/a,OK,4.0,    
272.00,25.566,47416.9,2984.9,5799.7,3.57,-1.37,-5.52,365.4,83.1,145.5,3.1,-45.3,0.0,n/a,OK,4.0,    
272.50,25.608,47491.5,3048.7,5800.5,3.58,-1.37,-5.45,363.6,104.6,143.9,3.1,-45.3,0.0,n/a,OK,4.0,    
273.00,25.650,47564.0,3113.9,5801.4,3.60,-1.37,-5.38,361.8,122.5,142.4,3.2,-45.3,0.0,n/a,OK,4.0,    
273.50,25.690,47634.5,3180.6,5802.5,3.62,-1.37,-5.31,360.0,133.4,140.8,3.2,-45.3,0.0,n/a,OK,4.0,    
274.00,25.729,47702.9,3248.6,5803.6,3.63,-1.38,-5.23,358.2,139.7,139.3,3.2,-45.3,0.0,n/a,OK,4.0,    
274.50,25.768,47769.2,3317.9,5804.8,3.65,-1.38,-5.15,356.5,141.5,137.7,3.3,-45.4,0.0,n/a,OK,4.0,    
275.00,25.805,47833.4,3388.4,5806.0,3.68,-1.38,-5.07,354.7,135.3,136.2,3.3,-45.4,0.0,n/a,OK,4.0,    
275.50,25.841,47895.4,3460.0,5807.1,3.69,-1.39,-4.99,352.9,130.0,134.6,3.3,-45.4,0.0,n/a,OK,4.0,    
276.00,25.876,47955.2,3532.8,5808.1,3.72,-1.39,-4.91,351.2,115.3,133.1,3.3,-45.4,0.0,n/a,OK,4.0,    
276.50,25.910,48012.9,3606.5,5809.0,3.74,-1.39,-4.83,349.4,102.9,131.5,3.3,-45.4,0.0,n/a,OK,4.0,    
277.00,25.943,48068.3,3681.3,5809.8,3.77,-1.39,-4.75,347.7,84.0,129.9,3.3,-45.4,0.0,n/a,OK,4.0,    
277.50,25.975,48121.5,3756.9,5810.5,3.78,-1.40,-4.66,346.6,74.4,128.4,3.3,-45.4,0.0,n/a,OK,4.0,    
278.00,26.006,48172.7,3833.7,5811.1,3.81,-1.40,-4.57,346.0,63.7,126.8,3.3,-45.4,0.0,n/a,OK,4.0,    
278.50,26.035,48221.6,3911.4,5811.5,3.83,-1.40,-4.49,345.2,53.0,125.2,3.3,-45.4,0.0,n/a,OK,4.0,    
279.00,26.064,48268.4,3990.1,5811.9,3.84,-1.40,-4.40,343.8,39.5,123.6,3.3,-45.4,0.0,n/a,OK,4.0,    
279.50,26.091,48312.8,4069.4,5812.2,3.87,-1.40,-4.31,342.4,19.9,122.0,3.3,-45.4,0.0,n/a,OK,4.0,    
280.00,26.118,48355.0,4149.5,5812.3,3.90,-1.41,-4.22,341.1,4.6,120.4,3.3,-45.4,0.0,n/a,OK,4.0,    
280.50,26.143,48394.9,4230.2,5812.3,3.93,-1.41,-4.13,339.9,-8.6,118.8,3.3,-45.4,0.0,n/a,OK,4.0,    
281.00,26.167,48432.5,4311.5,5812.1,3.97,-1.41,-4.04,338.7,-23.1,117.2,3.3,-45.4,0.0,n/a,OK,4.0,    
281.50,26.190,48467.8,4393.4,5811.9,4.00,-1.41,-3.94,337.4,-33.9,115.6,3.3,-45.4,0.0,n/a,OK,4.0,    
282.00,26.212,48500.7,4475.7,5811.6,4.04,-1.41,-3.85,336.2,-46.9,113.9,3.3,-45.4,0.0,n/a,OK,4.0,    
282.50,26.232,48531.3,4558.4,5811.1,4.08,-1.42,-3.76,334.9,-54.2,112.3,3.3,-45.4,0.0,n/a,OK,4.0,    
283.00,26.252,48559.5,4641.4,5810.6,4.12,-1.42,-3.66,333.7,-62.8,110.6,3.3,-45.3,0.0,n/a,OK,4.0,    
283.50,26.270,48585.3,4724.8,5810.1,4.16,-1.42,-3.57,332.4,-63.5,108.9,3.4,-45.3,0.0,n/a,OK,4.0,    
284.00,26.287,48608.7,4808.3,5809.6,4.20,-1.42,-3.47,331.1,-67.2,107.3,3.4,-45.3,0.0,n/a,OK,4.0,    
284.50,26.303,48629.7,4891.9,5809.0,4.24,-1.42,-3.38,329.8,-68.4,105.6,3.4,-45.3,0.0,n/a,OK,4.0,    
285.00,26.317,48648.2,4975.6,5808.4,4.28,-1.42,-3.28,328.5,-62.9,103.9,3.5,-45.3,0.0,n/a,OK,4.0,    
285.50,26.330,48664.4,5059.4,5807.9,4.32,-1.42,-3.19,327.2,-60.5,102.2,3.5,-45.3,0.0,n/a,OK,4.0,    
286.00,26.343,48678.1,5143.0,5807.4,4.36,-1.43,-3.09,325.9,-56.5,100.4,3.5,-45.3,0.0,n/a,OK,4.0,    
286.50,26.353,48689.4,5226.5,5807.0,4.39,-1.43,-2.99,324.6,-51.4,98.7,3.6,-45.3,0.0,n/a,OK,4.0,    
287.00,26.363,48698.3,5309.8,5806.6,4.44,-1.43,-2.90,323.3,-48.0,97.0,3.6,-45.3,0.0,n/a,OK,4.0,    
287.50,26.371,48704.7,5392.8,5806.2,4.47,-1.43,-2.80,322.0,-38.9,95.3,3.6,-45.3,0.0,n/a,OK,4.0,    
288.00,26.379,48708.8,5475.5,5805.9,4.50,-1.43,-2.71,320.7,-32.6,93.5,3.7,-45.3,0.0,n/a,OK,4.0,    
288.50,26.384,48710.4,5557.7,5805.7,4.53,-1.43,-2.61,319.4,-25.7,91.8,3.7,-45.3,0.0,n/a,OK,4.0,    
289.00,26.389,48709.7,5639.4,5805.5,4.57,-1.43,-2.52,318.0,-19.4,90.0,3.8,-45.3,0.0,n/a,OK,4.0,    
289.50,26.393,48706.6,5720.5,5805.3,4.61,-1.43,-2.42,316.7,-15.2,88.3,3.8,-45.3,0.0,n/a,OK,4.0,    
290.00,26.395,48701.2,5801.0,5805.2,4.64,-1.43,-2.33,315.4,-9.5,86.5,3.8,-45.3,0.0,n/a,OK,4.0,    
290.50,26.396,48693.5,5880.8,5805.2,4.67,-1.43,-2.23,314.1,-4.6,84.7,3.9,-45.3,0.0,n/a,OK,4.0,    
291.00,26.395,48683.4,5959.9,5805.2,4.69,-1.43,-2.14,313.3,3.4,83.0,3.9,-45.3,0.0,n/a,OK,4.0,    
291.50,26.394,48671.0,6038.3,5805.3,4.70,-1.43,-2.05,313.2,20.1,81.2,3.9,-45.3,-0.0,n/a,OK,4.0,    
292.00,26.391,48656.2,6116.2,5805.5,4.70,-1.43,-1.96,313.4,38.7,79.4,4.0,-45.3,-0.0,n/a,OK,4.0,    
292.50,26.387,48639.1,6193.5,5805.9,4.69,-1.43,-1.86,313.5,59.0,77.6,4.0,-45.3,-0.0,n/a,OK,4.0,    
293.00,26.382,48619.7,6270.0,5806.5,4.66,-1.43,-1.77,313.3,75.8,75.9,4.0,-45.3,-0.0,n/a,OK,4.0,    
293.50,26.376,48598.0,6345.7,5807.1,4.64,-1.43,-1.68,313.1,84.6,74.1,4.0,-45.3,-0.0,n/a,OK,4.0,    
294.00,26.368,48574.0,6420.5,5807.9,4.62,-1.43,-1.59,313.0,93.1,72.4,4.0,-45.3,-0.0,n/a,OK,4.0,    
294.50,26.360,48547.9,6494.4,5808.7,4.60,-1.43,-1.50,312.9,95.3,70.7,4.0,-45.3,-0.0,n/a,OK,4.0,    
295.00,26.350,48519.5,6567.2,5809.5,4.58,-1.43,-1.41,312.9,96.5,68.9,4.0,-45.3,-0.0,n/a,OK,4.0,    
295.50,26.339,48489.0,6639.0,5810.3,4.56,-1.42,-1.32,312.8,92.6,67.2,4.0,-45.3,-0.0,n/a,OK,4.0,    
