#Time,Rho,X,Z,Alt,AoA,GSE,LUE,Vtot,Vy,Gamma,Pitch,Roll,Yaw,Step,Grade,Points,Details
0.00,13.817,23678.9,10096.9,1863.9,0.90,-2.23,14.04,607.5,-455.2,35.8,0.5,-1.2,0.0,n/a,OK,4.0,    
0.50,13.742,23576.0,9984.7,1860.1,0.91,-2.23,13.90,607.5,-434.4,35.8,0.5,-1.2,0.0,n/a,OK,4.0,    
1.00,13.667,23473.2,9872.4,1856.6,0.90,-2.22,13.76,607.4,-412.8,35.9,0.5,-1.2,0.0,n/a,OK,4.0,    
1.50,13.592,23370.5,9760.1,1853.2,0.89,-2.22,13.61,607.4,-396.0,35.9,0.5,-1.3,0.0,n/a,OK,4.0,    
2.00,13.518,23267.8,9647.8,1850.0,0.90,-2.21,13.47,607.4,-380.9,35.9,0.5,-1.3,0.0,n/a,OK,4.0,    
2.50,13.443,23165.1,9535.5,1846.9,0.90,-2.21,13.32,607.4,-360.3,35.9,0.6,-1.3,0.0,n/a,OK,4.0,    
3.00,13.369,23062.5,9423.1,1844.0,0.90,-2.20,13.17,607.3,-339.7,35.9,0.6,-1.3,0.0,n/a,OK,4.0,    
3.50,13.295,22959.9,9310.7,1841.2,0.90,-2.20,13.02,607.2,-322.5,35.9,0.6,-1.3,0.0,n/a,OK,4.0,    
4.00,13.221,22857.4,9198.2,1838.6,0.89,-2.19,12.87,607.2,-301.5,36.0,0.6,-1.3,0.0,n/a,OK,4.0,    
4.50,13.147,22754.9,9085.7,1836.2,0.89,-2.19,12.71,607.1,-282.6,36.0,0.6,-1.3,0.0,n/a,OK,4.0,    
5.00,13.073,22652.5,8973.2,1833.9,0.88,-2.18,12.55,607.1,-266.1,36.0,0.6,-1.3,0.0,n/a,OK,4.0,    
5.50,12.999,22550.1,8860.7,1831.8,0.88,-2.18,12.40,607.1,-246.1,36.0,0.7,-1.3,0.0,n/a,OK,4.0,    
6.00,12.925,22447.8,8748.1,1829.8,0.88,-2.17,12.24,607.1,-231.6,36.0,0.7,-1.3,0.0,n/a,OK,4.0,    
6.50,12.852,22345.5,8635.5,1828.0,0.88,-2.16,12.07,607.0,-209.2,36.1,0.7,-1.2,0.0,n/a,OK,4.0,    
7.00,12.778,22243.2,8522.9,1826.3,0.89,-2.16,11.91,607.0,-192.3,36.1,0.7,-1.2,0.0,n/a,OK,4.0,    
7.50,12.705,22141.0,8410.2,1824.8,0.92,-2.15,11.74,606.9,-151.4,36.1,0.8,-1.2,0.0,n/a,OK,4.0,    
8.00,12.632,22038.9,8297.6,1824.0,0.93,-2.14,11.58,606.8,-55.1,36.1,0.9,-1.2,0.0,n/a,OK,4.0,    
8.50,12.559,21936.8,8184.9,1823.7,0.92,-2.14,11.41,606.7,-12.2,36.1,0.9,-1.3,0.0,n/a,OK,4.0,    
9.00,12.486,21834.7,8072.1,1823.7,0.90,-2.13,11.23,606.7,4.6,36.2,0.9,-1.2,0.0,n/a,OK,4.0,    
9.50,12.413,21732.8,7959.4,1823.8,0.88,-2.12,11.06,606.3,22.4,36.2,0.9,-1.2,0.0,n/a,OK,4.0,    
10.00,12.341,21631.3,7847.1,1823.9,0.88,-2.11,10.88,600.4,10.1,36.2,0.9,-1.2,0.0,n/a,OK,4.0,    
10.50,12.269,21531.3,7736.2,1823.9,0.90,-2.10,10.71,591.9,-7.3,36.2,0.9,-1.2,0.0,n/a,OK,4.0,    
11.00,12.199,21432.7,7626.6,1823.9,0.93,-2.10,10.53,585.2,-3.8,36.2,0.9,-1.2,0.0,n/a,OK,4.0,    
11.50,12.130,21335.2,7518.2,1823.9,0.95,-2.09,10.35,579.3,16.4,36.2,1.0,-1.2,0.0,n/a,OK,4.0,    
12.00,12.062,21238.9,7410.8,1824.1,0.97,-2.08,10.18,573.5,40.4,36.3,1.0,-1.2,0.0,n/a,OK,4.0,    
12.50,11.994,21143.6,7304.4,1824.6,0.98,-2.07,10.00,567.5,74.8,36.3,1.0,-1.2,0.0,n/a,OK,4.0,    
13.00,11.928,21049.5,7199.1,1825.4,0.98,-2.06,9.82,561.5,118.1,36.3,1.1,-1.2,0.0,n/a,OK,4.0,    
13.50,11.862,20956.4,7094.8,1826.5,1.00,-2.05,9.65,555.8,158.3,36.3,1.2,-1.2,0.0,n/a,OK,4.0,    
14.00,11.797,20864.5,6991.6,1828.1,1.03,-2.04,9.47,550.2,219.0,36.3,1.3,-1.2,0.0,n/a,OK,4.0,    
14.50,11.733,20773.5,6889.3,1830.2,1.05,-2.03,9.29,544.7,284.9,36.4,1.4,-1.2,0.0,n/a,OK,4.0,    
15.00,11.669,20683.6,6787.9,1832.8,1.02,-2.02,9.11,539.5,328.8,36.4,1.4,-1.2,0.0,n/a,OK,4.0,    
15.50,11.607,20594.6,6687.5,1835.4,0.95,-2.01,8.93,534.5,269.1,36.4,1.2,-1.1,0.0,n/a,OK,4.0,    
16.00,11.545,20506.6,6587.9,1837.0,0.91,-2.01,8.75,529.7,103.3,36.4,1.0,-0.6,0.0,n/a,OK,4.0,    
16.50,11.484,20419.4,6489.2,1837.5,1.04,-2.00,8.57,525.0,66.7,36.4,1.1,-0.6,0.0,n/a,OK,4.0,    
17.00,11.423,20333.1,6391.3,1838.4,1.07,-1.99,8.39,520.5,134.6,36.4,1.2,-0.6,0.0,n/a,OK,4.0,    
17.50,11.364,20247.5,6294.3,1839.7,1.10,-1.98,8.21,516.1,201.5,36.4,1.3,-0.7,0.0,n/a,OK,4.0,    
18.00,11.304,20162.8,6198.0,1841.7,1.09,-1.97,8.03,511.9,264.2,36.4,1.4,-0.7,0.0,n/a,OK,4.0,    
18.50,11.246,20078.9,6102.4,1844.0,1.06,-1.96,7.84,507.8,272.3,36.5,1.4,-0.7,0.0,n/a,OK,4.0,    
19.00,11.188,19995.7,6007.6,1846.2,1.06,-1.95,7.66,503.8,254.2,36.5,1.4,-0.7,0.0,n/a,OK,4.0,    
19.50,11.131,19913.2,5913.4,1848.2,1.09,-1.94,7.48,499.9,226.2,36.5,1.4,-0.7,0.0,n/a,OK,4.0,    
20.00,11.074,19831.5,5820.0,1850.0,1.09,-1.93,7.29,496.1,204.1,36.5,1.3,-0.7,0.0,n/a,OK,4.0,    
20.50,11.018,19750.4,5727.2,1851.4,1.05,-1.92,7.11,492.4,117.8,36.5,1.2,-0.7,0.0,n/a,OK,4.0,    
21.00,10.962,19670.0,5635.1,1851.8,1.06,-1.91,6.92,488.9,-17.9,36.5,1.0,-0.7,0.0,n/a,OK,4.0,    
21.50,10.907,19590.2,5543.6,1851.2,1.08,-1.91,6.74,485.5,-138.7,36.6,0.9,-0.7,0.0,n/a,OK,4.0,    
22.00,10.853,19511.1,5452.7,1849.7,1.31,-1.90,6.55,482.1,-158.3,36.6,1.1,-0.7,0.0,n/a,OK,4.0,    
22.50,10.799,19432.6,5362.4,1849.2,1.25,-1.89,6.36,478.7,-6.2,36.6,1.2,-0.6,0.0,n/a,OK,4.0,    
23.00,10.746,19354.8,5272.6,1848.5,1.10,-1.88,6.18,475.5,-183.6,36.6,0.8,-0.5,0.0,n/a,OK,4.0,    
23.50,10.693,19277.4,5183.5,1846.4,1.14,-1.88,5.99,472.4,-311.1,36.5,0.7,1.0,0.0,n/a,OK,4.0,    
24.00,10.640,19200.7,5095.0,1843.4,1.10,-1.87,5.80,469.3,-440.7,36.5,0.5,1.4,0.0,n/a,OK,4.0,    
24.50,10.588,19124.4,5007.0,1839.1,1.15,-1.87,5.61,466.4,-582.4,36.5,0.4,1.1,0.0,n/a,OK,4.0,    
25.00,10.537,19048.6,4919.6,1834.1,1.27,-1.87,5.42,463.5,-608.2,36.5,0.5,1.0,0.0,n/a,OK,4.0,    
25.50,10.486,18973.3,4832.8,1829.0,1.33,-1.86,5.22,460.6,-601.9,36.5,0.6,0.9,0.0,n/a,OK,4.0,    
26.00,10.435,18898.5,4746.5,1824.2,1.42,-1.86,5.03,457.8,-522.1,36.4,0.8,0.9,0.0,n/a,OK,4.0,    
26.50,10.385,18824.2,4660.8,1820.1,1.35,-1.85,4.84,455.0,-502.2,36.4,0.7,1.0,0.0,n/a,OK,4.0,    
27.00,10.335,18750.4,4575.6,1815.7,1.42,-1.85,4.65,452.2,-533.0,36.4,0.8,1.0,0.0,n/a,OK,4.0,    
27.50,10.286,18677.0,4490.9,1811.5,1.48,-1.85,4.45,449.5,-465.2,36.4,0.9,1.0,0.0,n/a,OK,4.0,    
28.00,10.237,18604.0,4406.8,1807.8,1.49,-1.84,4.26,446.9,-425.3,36.4,1.0,1.0,0.0,n/a,OK,4.0,    
28.50,10.188,18531.6,4323.2,1804.4,1.43,-1.84,4.06,444.2,-407.1,36.3,0.9,1.0,0.0,n/a,OK,4.0,    
29.00,10.140,18459.5,4240.1,1800.9,1.44,-1.83,3.87,441.7,-437.7,36.3,0.9,1.0,0.0,n/a,OK,4.0,    
29.50,10.093,18387.9,4157.4,1797.2,1.50,-1.83,3.67,439.1,-434.5,36.3,1.0,1.0,0.0,n/a,OK,4.0,    
30.00,10.045,18316.7,4075.3,1793.7,1.56,-1.82,3.47,436.6,-396.8,36.3,1.1,1.0,0.0,n/a,OK,4.0,    
30.50,9.998,18245.9,3993.7,1790.6,1.62,-1.82,3.28,434.1,-344.7,36.3,1.2,1.0,0.0,n/a,OK,4.0,    
31.00,9.952,18175.6,3912.5,1788.0,1.67,-1.81,3.08,431.5,-267.9,36.2,1.3,0.9,0.0,n/a,OK,4.0,    
31.50,9.906,18105.7,3831.8,1786.1,1.69,-1.81,2.88,429.1,-197.4,36.2,1.5,0.9,0.0,n/a,OK,4.0,    
32.00,9.860,18036.2,3751.7,1784.8,1.71,-1.80,2.68,426.6,-121.8,36.2,1.6,0.9,0.0,n/a,OK,4.0,    
32.50,9.815,17967.1,3672.0,1784.0,1.65,-1.79,2.48,424.2,-70.1,36.2,1.6,0.9,0.0,n/a,OK,4.0,    
33.00,9.770,17898.4,3592.7,1783.4,1.65,-1.79,2.28,421.8,-80.0,36.2,1.6,0.9,0.0,n/a,OK,4.0,    
33.50,9.726,17830.1,3513.9,1783.0,1.77,-1.78,2.07,419.5,-0.2,36.1,1.8,0.9,0.0,n/a,OK,4.0,    
34.00,9.681,17762.2,3435.6,1783.3,1.74,-1.77,1.87,417.0,81.9,36.1,1.9,1.1,0.0,n/a,OK,4.0,    
34.50,9.638,17694.7,3357.8,1784.0,1.67,-1.76,1.67,414.7,70.6,36.0,1.8,1.5,0.0,n/a,OK,4.0,    
35.00,9.594,17627.6,3280.4,1784.5,1.72,-1.75,1.47,412.4,52.6,36.0,1.8,1.5,0.0,n/a,OK,4.0,    
35.50,9.551,17560.9,3203.5,1784.9,1.72,-1.75,1.26,410.1,34.6,36.0,1.8,1.4,0.0,n/a,OK,4.0,    
36.00,9.509,17494.5,3127.0,1785.1,1.68,-1.74,1.06,407.9,-1.8,35.9,1.7,1.8,0.0,n/a,OK,4.0,    
36.50,9.466,17428.5,3051.0,1784.8,1.60,-1.73,0.85,405.7,-86.6,35.9,1.5,3.4,0.0,n/a,OK,4.0,    
37.00,9.424,17362.7,2975.5,1783.5,1.75,-1.72,0.65,403.6,-185.7,35.7,1.5,5.1,0.0,n/a,OK,4.0,    
37.50,9.383,17297.2,2900.5,1782.2,1.95,-1.72,0.44,401.4,-110.9,35.6,1.8,6.1,0.0,n/a,OK,4.0,    
38.00,9.341,17231.9,2826.1,1781.6,1.89,-1.71,0.23,399.2,-46.2,35.4,1.8,6.9,0.0,n/a,OK,4.0,    
38.50,9.300,17166.8,2752.2,1781.3,1.87,-1.70,0.03,397.0,-28.8,35.3,1.8,6.6,0.0,n/a,OK,4.0,    
39.00,9.259,17101.9,2679.0,1781.2,1.93,-1.69,-0.18,394.9,5.5,35.1,1.9,6.2,0.0,n/a,OK,4.0,    
39.50,9.219,17037.2,2606.3,1781.4,1.96,-1.69,-0.39,392.8,48.9,35.0,2.0,6.1,0.0,n/a,OK,4.0,    
40.00,9.179,16972.7,2534.1,1782.0,2.00,-1.68,-0.59,390.7,84.7,34.8,2.1,6.1,0.0,n/a,OK,4.0,    
40.50,9.139,16908.4,2462.6,1782.9,2.04,-1.67,-0.80,388.6,135.9,34.7,2.2,6.1,0.0,n/a,OK,4.0,    
41.00,9.099,16844.3,2391.6,1784.2,2.07,-1.66,-1.00,386.5,185.4,34.5,2.3,6.1,0.0,n/a,OK,4.0,    
41.50,9.059,16780.5,2321.1,1786.0,2.11,-1.65,-1.21,384.4,237.0,34.4,2.5,6.1,0.0,n/a,OK,4.0,    
42.00,9.020,16716.8,2251.2,1788.1,2.15,-1.64,-1.42,382.3,288.1,34.2,2.6,6.0,0.0,n/a,OK,4.0,    
42.50,8.981,16653.3,2181.9,1790.8,2.18,-1.63,-1.62,380.2,345.7,34.1,2.7,6.1,0.0,n/a,OK,4.0,    
43.00,8.943,16590.0,2113.1,1793.9,2.21,-1.62,-1.83,378.1,403.6,33.9,2.8,6.9,0.0,n/a,OK,4.0,    
43.50,8.904,16526.9,2044.9,1797.4,2.11,-1.61,-2.04,376.1,435.2,33.7,2.7,8.4,0.0,n/a,OK,4.0,    
44.00,8.866,16463.9,1977.4,1800.8,2.01,-1.59,-2.24,374.1,370.4,33.5,2.5,9.4,0.0,n/a,OK,4.0,    
44.50,8.828,16401.0,1910.4,1803.5,2.01,-1.58,-2.45,372.1,286.3,33.3,2.4,10.5,0.0,n/a,OK,4.0,    
45.00,8.790,16338.2,1844.1,1805.7,2.15,-1.57,-2.65,370.1,246.1,32.9,2.5,12.0,0.0,n/a,OK,4.0,    
45.50,8.753,16275.5,1778.5,1807.8,2.29,-1.56,-2.86,368.1,269.8,32.6,2.7,13.1,0.0,n/a,OK,4.0,    
46.00,8.715,16212.7,1713.6,1810.3,2.29,-1.55,-3.06,366.2,305.3,32.2,2.7,14.0,0.0,n/a,OK,4.0,    
46.50,8.678,16149.9,1649.5,1812.8,2.27,-1.54,-3.26,364.2,312.3,31.8,2.7,14.9,0.0,n/a,OK,4.0,    
47.00,8.641,16087.1,1586.2,1815.4,2.26,-1.53,-3.46,362.3,306.7,31.4,2.7,15.3,0.0,n/a,OK,4.0,    
47.50,8.604,16024.2,1523.6,1817.8,2.24,-1.52,-3.66,360.4,266.0,31.0,2.6,15.7,0.0,n/a,OK,4.0,    
48.00,8.567,15961.3,1461.9,1819.9,2.33,-1.51,-3.86,358.5,244.2,30.6,2.7,16.2,0.0,n/a,OK,4.0,    
48.50,8.530,15898.3,1400.9,1822.0,2.41,-1.50,-4.06,356.6,253.0,30.2,2.8,16.2,0.0,n/a,OK,4.0,    
49.00,8.493,15835.2,1340.8,1824.1,2.40,-1.49,-4.26,354.7,249.9,29.8,2.8,16.0,0.0,n/a,OK,4.0,    
49.50,8.456,15772.0,1281.5,1826.1,2.43,-1.47,-4.45,352.8,233.4,29.4,2.8,15.9,0.0,n/a,OK,4.0,    
50.00,8.420,15708.8,1223.0,1828.0,2.50,-1.46,-4.65,351.0,233.0,28.9,2.9,15.8,0.0,n/a,OK,4.0,    
50.50,8.383,15645.5,1165.3,1830.0,2.55,-1.45,-4.84,349.9,250.3,28.5,2.9,15.9,0.0,n/a,OK,4.0,    
51.00,8.347,15581.8,1108.2,1832.2,2.57,-1.44,-5.03,350.4,284.5,28.1,3.0,16.0,0.0,n/a,OK,4.0,    
51.50,8.310,15517.5,1051.4,1834.8,2.56,-1.43,-5.23,351.7,339.3,27.6,3.1,16.4,0.0,n/a,OK,4.0,    
52.00,8.273,15452.5,995.1,1837.8,2.45,-1.42,-5.42,351.9,359.8,27.2,3.0,16.8,0.0,n/a,OK,4.0,    
52.50,8.236,15387.1,939.4,1840.7,2.45,-1.40,-5.61,351.2,338.9,26.7,3.0,17.2,0.0,n/a,OK,4.0,    
53.00,8.199,15321.4,884.4,1843.5,2.35,-1.39,-5.80,350.8,330.4,26.3,2.9,17.9,0.0,n/a,OK,4.0,    
53.50,8.162,15255.3,830.0,1845.8,2.02,-1.38,-5.99,351.1,178.2,26.0,2.3,19.0,0.0,n/a,OK,4.0,    
54.00,8.124,15188.7,776.0,1846.6,2.31,-1.37,-6.18,351.5,42.1,25.4,2.4,19.6,0.0,n/a,OK,4.0,    
54.50,8.086,15121.6,722.6,1847.1,2.62,-1.36,-6.37,351.6,102.0,24.7,2.8,20.6,0.0,n/a,OK,4.0,    
55.00,8.049,15054.0,670.0,1848.1,2.52,-1.35,-6.56,351.4,138.9,24.1,2.7,22.0,0.0,n/a,OK,4.0,    
55.50,8.011,14985.8,618.2,1849.2,2.43,-1.34,-6.75,351.3,124.7,23.6,2.6,22.5,0.0,n/a,OK,4.0,    
56.00,7.973,14917.0,567.2,1850.2,2.47,-1.32,-6.93,351.3,111.7,23.0,2.7,22.9,0.0,n/a,OK,4.0,    
56.50,7.934,14847.8,517.0,1851.2,2.53,-1.31,-7.12,351.3,108.7,22.3,2.7,23.4,0.0,n/a,OK,4.0,    
57.00,7.896,14778.0,467.7,1852.1,2.56,-1.30,-7.30,351.3,110.2,21.7,2.7,23.8,0.0,n/a,OK,4.0,    
57.50,7.857,14707.6,419.2,1853.0,2.57,-1.29,-7.48,351.3,112.6,21.0,2.7,24.1,0.0,n/a,OK,4.0,    
58.00,7.818,14636.7,371.7,1854.0,2.58,-1.28,-7.66,351.2,119.5,20.3,2.7,24.5,0.0,n/a,OK,4.0,    
58.50,7.779,14565.2,325.0,1855.0,2.56,-1.26,-7.84,351.1,123.5,19.6,2.7,24.9,0.0,n/a,OK,4.0,    
59.00,7.739,14493.2,279.3,1856.0,2.56,-1.25,-8.01,351.1,124.3,19.0,2.7,25.3,0.0,n/a,OK,4.0,    
59.50,7.700,14420.7,234.6,1857.0,2.59,-1.24,-8.19,351.0,120.6,18.2,2.7,25.7,0.0,n/a,OK,4.0,    
60.00,7.660,14347.6,190.9,1858.0,2.61,-1.23,-8.36,350.9,120.5,17.5,2.7,26.1,0.0,n/a,OK,4.0,    
60.50,7.620,14273.9,148.2,1859.0,2.62,-1.21,-8.52,350.8,122.7,16.8,2.7,26.5,0.0,n/a,OK,4.0,    
61.00,7.580,14199.8,106.6,1860.1,2.60,-1.20,-8.69,350.8,129.1,16.1,2.7,26.8,0.0,n/a,OK,4.0,    
61.50,7.539,14125.1,66.0,1861.1,2.61,-1.19,-8.85,350.7,125.7,15.3,2.7,26.7,0.0,n/a,OK,4.0,    
62.00,7.499,14049.9,26.4,1862.2,2.64,-1.17,-9.01,350.8,125.2,14.6,2.7,26.4,0.0,n/a,OK,4.0,    
62.50,7.458,13974.1,-12.0,1863.3,2.65,-1.16,-9.17,350.7,138.4,13.9,2.7,26.2,0.0,n/a,OK,4.0,    
63.00,7.417,13897.9,-49.4,1864.5,2.64,-1.14,-9.33,350.7,147.7,13.2,2.7,26.0,0.0,n/a,OK,4.0,    
63.50,7.375,13821.2,-85.8,1865.7,2.64,-1.13,-9.48,350.7,157.1,12.5,2.8,25.9,0.0,n/a,OK,4.0,    
64.00,7.334,13744.1,-121.0,1867.1,2.64,-1.11,-9.63,350.6,168.5,11.8,2.8,25.8,0.0,n/a,OK,4.0,    
64.50,7.292,13666.5,-155.2,1868.6,2.64,-1.10,-9.78,350.6,184.7,11.1,2.8,26.0,0.0,n/a,OK,4.0,    
65.00,7.250,13588.5,-188.3,1870.1,2.61,-1.08,-9.92,350.5,189.6,10.3,2.8,26.7,0.0,n/a,OK,4.0,    
65.50,7.208,13510.1,-220.3,1871.7,2.59,-1.07,-10.06,350.5,194.0,9.6,2.7,27.5,0.0,n/a,OK,4.0,    
66.00,7.166,13431.3,-251.1,1873.3,2.56,-1.05,-10.20,350.4,183.3,8.8,2.7,28.3,0.0,n/a,OK,4.0,    
66.50,7.124,13352.1,-280.7,1874.8,2.55,-1.03,-10.33,350.3,156.8,8.0,2.6,30.1,0.0,n/a,OK,4.0,    
67.00,7.081,13272.5,-309.1,1875.9,2.50,-1.02,-10.46,350.3,99.3,7.0,2.5,34.5,0.0,n/a,OK,4.0,    
67.50,7.038,13192.4,-336.1,1876.3,2.49,-1.00,-10.59,350.3,3.4,5.9,2.3,38.2,-0.0,n/a,OK,4.0,    
68.00,6.995,13111.8,-361.4,1875.9,2.52,-0.99,-10.71,350.3,-111.4,4.9,2.2,39.0,-0.0,n/a,OK,4.0,    
68.50,6.952,13030.8,-385.2,1874.6,2.60,-0.97,-10.83,350.3,-209.6,3.9,2.1,38.9,-0.0,n/a,OK,4.0,    
69.00,6.908,12949.3,-407.3,1872.4,2.69,-0.96,-10.94,350.2,-304.9,2.8,2.0,39.2,-0.0,n/a,OK,4.0,    
69.50,6.864,12867.5,-427.8,1869.7,3.00,-0.95,-11.04,350.1,-333.9,1.4,2.2,39.5,-0.0,n/a,OK,4.0,    
70.00,6.820,12785.3,-446.3,1867.2,3.20,-0.94,-11.13,349.9,-249.6,0.0,2.4,39.7,-0.0,n/a,OK,4.0,    
70.50,6.776,12702.7,-462.7,1865.4,3.11,-0.92,-11.22,349.7,-182.4,1.3,2.5,40.0,-0.0,n/a,OK,4.0,    
71.00,6.732,12619.8,-477.0,1864.1,3.12,-0.91,-11.30,349.7,-139.3,2.6,2.5,40.1,-0.0,n/a,OK,4.0,    
71.50,6.687,12536.6,-489.4,1863.2,3.26,-0.89,-11.37,349.5,-57.3,4.0,2.7,40.2,-0.0,n/a,OK,4.0,    
72.00,6.642,12453.2,-499.5,1863.2,3.34,-0.87,-11.43,349.4,55.4,5.4,3.0,40.3,-0.0,n/a,OK,4.0,    
72.50,6.597,12369.5,-507.3,1864.1,3.21,-0.85,-11.49,349.3,158.5,6.7,3.0,40.5,-0.0,n/a,OK,4.0,    
73.00,6.552,12285.7,-513.1,1865.4,2.86,-0.83,-11.53,349.4,119.9,7.7,2.7,41.0,-0.0,n/a,OK,4.0,    
73.50,6.507,12201.8,-517.0,1866.0,2.92,-0.82,-11.56,349.6,32.4,8.8,2.6,41.0,-0.0,n/a,OK,4.0,    
74.00,6.462,12117.8,-519.0,1866.3,3.23,-0.80,-11.59,349.6,79.4,10.3,3.0,39.7,-0.0,n/a,OK,4.0,    
74.50,6.416,12033.8,-518.7,1867.4,3.14,-0.78,-11.61,349.3,176.5,11.4,3.1,36.8,-0.0,n/a,OK,4.0,    
75.00,6.371,11949.8,-516.6,1869.0,2.89,-0.75,-11.61,349.4,202.6,12.1,3.0,33.3,-0.0,n/a,OK,4.0,    
75.50,6.326,11865.9,-512.9,1870.8,2.87,-0.73,-11.61,349.5,225.3,12.9,3.1,30.8,-0.0,n/a,OK,4.0,    
76.00,6.280,11782.0,-507.8,1872.9,2.91,-0.71,-11.61,349.6,289.2,13.8,3.2,28.6,-0.0,n/a,OK,4.0,    
76.50,6.235,11698.2,-501.3,1875.6,2.85,-0.68,-11.59,349.6,372.6,14.5,3.3,26.4,-0.0,n/a,OK,4.0,    
77.00,6.190,11614.5,-493.4,1879.1,2.79,-0.66,-11.57,349.6,457.5,15.1,3.4,23.9,-0.0,n/a,OK,4.0,    
77.50,6.144,11530.9,-484.4,1883.2,2.73,-0.63,-11.54,349.6,542.9,15.7,3.6,21.1,-0.0,n/a,OK,4.0,    
78.00,6.099,11447.5,-474.5,1888.0,2.53,-0.60,-11.51,349.6,585.1,16.0,3.4,18.0,-0.0,n/a,OK,4.0,    
78.50,6.054,11364.1,-463.7,1892.8,2.43,-0.57,-11.47,349.7,562.2,16.3,3.3,14.6,-0.0,n/a,OK,4.0,    
79.00,6.009,11280.7,-452.4,1897.5,2.47,-0.55,-11.43,349.7,571.6,16.6,3.4,11.3,-0.0,n/a,OK,4.0,    
79.50,5.963,11197.5,-440.5,1902.3,2.35,-0.52,-11.39,349.7,583.5,16.8,3.3,8.0,-0.0,n/a,OK,4.0,    
80.00,5.918,11114.2,-428.3,1906.8,2.05,-0.49,-11.34,349.7,471.2,16.8,2.8,4.8,-0.0,n/a,OK,4.0,    
80.50,5.873,11031.0,-415.9,1910.1,2.07,-0.46,-11.30,349.9,317.3,16.8,2.6,1.9,-0.0,n/a,OK,4.0,    
81.00,5.828,10947.8,-403.5,1912.4,2.13,-0.43,-11.25,349.9,228.4,16.8,2.5,-0.3,-0.0,n/a,OK,4.0,    
81.50,5.783,10864.5,-391.0,1913.8,2.09,-0.40,-11.20,350.0,115.9,16.7,2.3,-2.3,-0.0,n/a,OK,4.0,    
82.00,5.737,10781.2,-378.5,1914.4,2.18,-0.38,-11.15,350.0,27.4,16.6,2.2,-3.7,-0.0,n/a,OK,4.0,    
82.50,5.692,10697.9,-366.2,1914.6,2.40,-0.35,-11.09,350.0,29.8,16.6,2.5,-3.2,-0.0,n/a,OK,4.0,    
83.00,5.647,10614.6,-354.0,1915.1,2.44,-0.33,-11.04,350.1,97.4,16.5,2.6,-2.6,-0.0,n/a,OK,4.0,    
83.50,5.602,10531.2,-341.8,1916.0,2.28,-0.30,-10.99,350.1,111.2,16.4,2.5,-2.3,-0.0,n/a,OK,4.0,    
84.00,5.557,10447.9,-329.8,1916.6,2.04,-0.28,-10.94,350.2,13.4,16.4,2.1,-1.5,-0.0,n/a,OK,4.0,    
84.50,5.511,10364.5,-317.8,1916.2,2.18,-0.25,-10.89,350.2,-99.7,16.4,2.0,-0.2,-0.0,n/a,OK,4.0,    
85.00,5.466,10281.1,-305.8,1915.4,2.45,-0.22,-10.84,350.3,-63.3,16.4,2.4,1.2,-0.0,n/a,OK,4.0,    
85.50,5.421,10197.7,-293.7,1915.2,2.48,-0.20,-10.78,350.3,14.2,16.4,2.5,1.4,-0.0,n/a,OK,4.0,    
86.00,5.376,10114.3,-281.6,1915.6,2.41,-0.17,-10.73,350.2,62.7,16.5,2.5,1.1,-0.0,n/a,OK,4.0,    
86.50,5.331,10030.9,-269.5,1916.2,2.43,-0.14,-10.67,350.1,99.6,16.5,2.6,1.3,-0.0,n/a,OK,4.0,    
87.00,5.285,9947.5,-257.4,1917.3,2.46,-0.11,-10.61,350.1,154.4,16.6,2.7,1.7,-0.0,n/a,OK,4.0,    
87.50,5.240,9864.2,-245.1,1918.8,2.49,-0.08,-10.55,349.8,208.4,16.6,2.8,2.1,-0.0,n/a,OK,4.0,    
88.00,5.195,9781.0,-232.9,1920.8,2.52,-0.05,-10.49,349.7,272.1,16.7,2.9,2.0,-0.0,n/a,OK,4.0,    
88.50,5.150,9697.8,-220.5,1923.1,2.24,-0.01,-10.43,349.7,274.9,16.7,2.6,0.9,-0.0,n/a,OK,4.0,    
89.00,5.105,9614.6,-208.1,1924.9,2.10,0.02,-10.37,349.8,134.1,16.7,2.3,0.5,-0.0,n/a,OK,4.0,    
89.50,5.060,9531.3,-195.7,1925.8,2.36,0.05,-10.30,349.8,108.9,16.7,2.5,0.6,-0.0,n/a,OK,4.0,    
90.00,5.015,9448.1,-183.3,1926.8,2.36,0.09,-10.24,349.7,134.8,16.7,2.6,-0.2,-0.0,n/a,OK,4.0,    
90.50,4.970,9364.9,-170.9,1927.8,2.18,0.12,-10.17,349.7,80.2,16.7,2.3,-1.4,-0.0,n/a,OK,4.0,    
91.00,4.925,9281.7,-158.5,1928.1,2.18,0.16,-10.10,349.7,-20.0,16.6,2.1,-2.0,-0.0,n/a,OK,4.0,    
91.50,4.880,9198.5,-146.2,1927.9,2.43,0.19,-10.04,349.7,-1.3,16.5,2.4,-2.8,-0.0,n/a,OK,4.0,    
92.00,4.835,9115.2,-134.1,1928.1,2.43,0.22,-9.97,349.7,56.6,16.5,2.5,-2.9,-0.0,n/a,OK,4.0,    
92.50,4.790,9032.0,-122.0,1928.6,2.38,0.26,-9.90,349.7,64.8,16.4,2.5,-2.6,-0.0,n/a,OK,4.0,    
93.00,4.745,8948.7,-110.1,1929.3,2.45,0.30,-9.83,349.8,105.6,16.3,2.6,-2.5,-0.0,n/a,OK,4.0,    
93.50,4.700,8865.4,-98.2,1930.4,2.46,0.33,-9.76,349.7,168.9,16.3,2.7,-2.4,-0.0,n/a,OK,4.0,    
94.00,4.655,8782.1,-86.4,1932.1,2.43,0.37,-9.68,349.7,219.5,16.2,2.8,-2.5,-0.0,n/a,OK,4.0,    
94.50,4.609,8698.8,-74.8,1934.0,2.46,0.41,-9.61,349.7,258.4,16.1,2.8,-2.5,-0.0,n/a,OK,4.0,    
95.00,4.564,8615.5,-63.3,1936.4,2.50,0.46,-9.54,349.7,325.3,16.0,3.0,-2.5,-0.0,n/a,OK,4.0,    
95.50,4.519,8532.2,-51.8,1939.5,2.52,0.50,-9.47,349.7,399.8,16.0,3.1,-2.5,-0.0,n/a,OK,4.0,    
96.00,4.474,8448.8,-40.5,1943.1,2.54,0.55,-9.39,349.8,466.6,15.9,3.3,-2.5,-0.0,n/a,OK,4.0,    
96.50,4.429,8365.4,-29.3,1947.3,2.55,0.60,-9.32,349.8,550.3,15.8,3.4,-2.4,-0.0,n/a,OK,4.0,    
97.00,4.384,8282.0,-18.2,1952.2,2.54,0.65,-9.24,349.8,630.9,15.8,3.5,-2.4,-0.0,n/a,OK,4.0,    
97.50,4.339,8198.6,-7.2,1957.8,2.55,0.71,-9.16,349.7,707.8,15.7,3.7,-2.4,-0.0,n/a,OK,4.0,    
98.00,4.294,8115.3,3.7,1964.0,2.55,0.76,-9.09,349.7,793.9,15.6,3.8,-2.4,-0.0,n/a,OK,4.0,    
98.50,4.249,8031.9,14.5,1970.9,2.57,0.82,-9.01,349.7,877.9,15.6,4.0,-2.4,-0.0,n/a,OK,4.0,    
99.00,4.204,7948.5,25.1,1978.6,2.58,0.89,-8.93,349.7,965.6,15.5,4.1,-2.4,-0.0,n/a,OK,4.0,    
99.50,4.159,7865.1,35.7,1987.0,2.56,0.95,-8.85,349.6,1058.9,15.5,4.3,-2.4,-0.0,n/a,OK,4.0,    
100.00,4.114,7781.6,46.1,1996.2,2.56,1.02,-8.77,349.7,1150.1,15.4,4.4,-2.4,-0.0,n/a,OK,4.0,    
100.50,4.069,7698.2,56.4,2006.2,2.58,1.09,-8.69,349.8,1237.0,15.3,4.5,-2.4,-0.0,n/a,OK,4.0,    
101.00,4.024,7614.8,66.7,2016.8,2.26,1.17,-8.60,349.9,1303.2,15.3,4.3,-2.3,-0.0,n/a,OK,4.0,    
101.50,3.979,7531.2,76.8,2026.4,0.99,1.24,-8.52,350.2,863.0,15.3,2.4,-2.2,-0.0,n/a,OK,4.0,    
102.00,3.934,7447.6,87.0,2030.8,1.45,1.30,-8.43,350.7,262.0,15.3,1.9,-2.2,-0.0,n/a,OK,4.0,    
102.50,3.889,7363.8,97.1,2032.5,2.07,1.36,-8.35,350.6,179.9,15.2,2.4,-2.2,-0.0,n/a,OK,4.0,    
103.00,3.844,7280.1,107.1,2033.4,1.88,1.42,-8.26,350.5,5.2,15.1,1.9,-2.2,-0.0,n/a,OK,4.0,    
103.50,3.798,7196.4,117.0,2032.7,2.06,1.48,-8.17,350.5,-150.0,15.1,1.8,-2.0,-0.0,n/a,OK,4.0,    
104.00,3.753,7112.7,126.9,2031.4,2.31,1.53,-8.08,350.4,-139.6,15.1,2.1,-1.7,-0.0,n/a,OK,4.0,    
104.50,3.708,7029.0,136.7,2030.4,2.24,1.59,-7.98,350.3,-121.5,15.1,2.0,-1.1,-0.0,n/a,OK,4.0,    
105.00,3.663,6945.3,146.4,2029.2,2.23,1.65,-7.89,350.3,-157.3,15.0,2.0,-0.8,-0.0,n/a,OK,4.0,    
105.50,3.618,6861.6,156.1,2027.9,2.32,1.71,-7.79,350.2,-166.7,15.0,2.0,-0.9,-0.0,n/a,OK,4.0,    
106.00,3.573,6777.9,165.8,2026.6,2.38,1.77,-7.69,350.1,-147.3,15.0,2.1,-1.0,-0.0,n/a,OK,4.0,    
106.50,3.528,6694.3,175.4,2025.4,2.41,1.83,-7.59,350.0,-126.7,15.0,2.1,-1.0,-0.0,n/a,OK,4.0,    
107.00,3.483,6610.6,185.0,2024.5,2.43,1.90,-7.48,350.1,-95.3,15.0,2.2,-1.0,-0.0,n/a,OK,4.0,    
107.50,3.438,6527.0,194.5,2023.9,2.47,1.97,-7.38,350.1,-33.2,14.9,2.4,-1.0,-0.0,n/a,OK,4.0,    
108.00,3.393,6443.3,204.0,2023.9,2.51,2.04,-7.27,350.1,29.8,14.9,2.5,-1.0,-0.0,n/a,OK,4.0,    
108.50,3.348,6359.6,213.4,2024.4,2.48,2.11,-7.16,350.1,92.1,14.9,2.6,-1.0,-0.0,n/a,OK,4.0,    
109.00,3.303,6275.9,222.8,2025.1,2.20,2.19,-7.05,350.2,51.9,14.9,2.2,-1.0,-0.0,n/a,OK,4.0,    
109.50,3.258,6192.2,232.2,2025.2,2.38,2.27,-6.93,350.3,-14.6,14.8,2.3,-1.0,-0.0,n/a,OK,4.0,    
110.00,3.213,6108.5,241.5,2025.4,2.62,2.35,-6.81,350.3,91.7,14.8,2.7,-1.0,-0.0,n/a,OK,4.0,    
110.50,3.168,6024.8,250.7,2026.5,2.33,2.43,-6.69,350.1,143.3,14.8,2.5,-1.0,-0.0,n/a,OK,4.0,    
111.00,3.123,5941.1,260.0,2027.1,1.93,2.52,-6.56,350.1,-34.8,14.8,1.8,-1.0,-0.0,n/a,OK,4.0,    
111.50,3.078,5857.4,269.2,2026.1,2.25,2.60,-6.44,350.2,-170.7,14.7,1.9,-1.1,-0.0,n/a,OK,4.0,    
112.00,3.033,5773.7,278.3,2025.0,2.61,2.68,-6.30,350.0,-66.3,14.7,2.5,-1.1,-0.0,n/a,OK,4.0,    
112.50,2.988,5690.0,287.4,2024.9,2.52,2.77,-6.17,349.8,36.0,14.6,2.6,-1.1,-0.0,n/a,OK,4.0,    
113.00,2.944,5606.4,296.5,2025.4,2.42,2.87,-6.03,349.7,63.8,14.6,2.5,-1.1,-0.0,n/a,OK,4.0,    
113.50,2.899,5522.8,305.5,2026.1,2.47,2.97,-5.89,349.7,111.1,14.6,2.7,-1.1,-0.0,n/a,OK,4.0,    
114.00,2.854,5439.2,314.4,2027.3,2.49,3.07,-5.74,349.7,178.1,14.6,2.8,-1.1,-0.0,n/a,OK,4.0,    
114.50,2.809,5355.5,323.3,2029.0,2.51,3.18,-5.59,349.7,238.7,14.5,2.9,-1.1,-0.0,n/a,OK,4.0,    
115.00,2.764,5271.9,332.2,2031.2,2.55,3.29,-5.44,349.7,301.0,14.5,3.0,-1.0,-0.0,n/a,OK,4.0,    
115.50,2.720,5188.3,341.0,2034.0,2.58,3.41,-5.28,349.6,384.4,14.5,3.2,-1.0,-0.0,n/a,OK,4.0,    
116.00,2.675,5104.7,349.8,2037.6,2.56,3.54,-5.11,349.6,465.9,14.5,3.3,-1.0,-0.0,n/a,OK,4.0,    
116.50,2.630,5021.1,358.5,2041.7,2.55,3.67,-4.95,349.6,540.3,14.4,3.4,-1.0,-0.0,n/a,OK,4.0,    
117.00,2.586,4937.5,367.1,2046.6,2.55,3.80,-4.77,349.5,625.9,14.4,3.6,-1.0,-0.0,n/a,OK,4.0,    
117.50,2.541,4853.9,375.8,2052.1,2.56,3.95,-4.59,349.5,701.3,14.4,3.7,-1.0,-0.0,n/a,OK,4.0,    
118.00,2.496,4770.3,384.4,2058.3,2.60,4.10,-4.41,349.5,790.9,14.3,3.8,-1.0,-0.0,n/a,OK,4.0,    
118.50,2.452,4686.7,392.9,2065.3,2.61,4.26,-4.22,349.6,882.4,14.3,4.0,-1.0,-0.0,n/a,OK,4.0,    
119.00,2.407,4603.1,401.4,2073.0,2.60,4.43,-4.02,349.6,973.8,14.3,4.1,-1.0,-0.0,n/a,OK,4.0,    
119.50,2.363,4519.5,409.8,2081.5,2.50,4.61,-3.82,349.6,1065.7,14.3,4.1,-1.0,-0.0,n/a,OK,4.0,    
120.00,2.318,4435.9,418.3,2089.9,1.53,4.79,-3.60,349.7,836.2,14.3,2.8,-0.9,-0.0,n/a,OK,4.0,    
120.50,2.273,4352.2,426.7,2094.6,1.70,4.97,-3.38,350.2,319.9,14.3,2.1,-0.9,-0.0,n/a,OK,4.0,    
121.00,2.229,4268.4,435.0,2097.1,2.58,5.14,-3.16,350.1,375.7,14.2,3.1,-0.9,-0.0,n/a,OK,4.0,    
121.50,2.184,4184.6,443.4,2100.6,2.07,5.32,-2.92,349.9,393.0,14.2,2.6,-0.9,-0.0,n/a,OK,4.0,    
122.00,2.140,4100.9,451.7,2102.9,1.94,5.51,-2.68,350.2,139.9,14.2,2.1,-0.9,-0.0,n/a,OK,4.0,    
122.50,2.095,4017.0,459.9,2103.8,2.43,5.70,-2.42,350.4,133.4,14.2,2.6,-0.9,-0.0,n/a,OK,4.0,    
123.00,2.051,3933.2,468.2,2105.3,2.47,5.90,-2.15,350.2,215.8,14.1,2.8,-0.9,-0.0,n/a,OK,4.0,    
123.50,2.007,3849.3,476.4,2107.2,2.32,6.11,-1.88,350.2,229.9,14.1,2.6,-0.9,-0.0,n/a,OK,4.0,    
124.00,1.962,3765.5,484.5,2109.1,2.33,6.32,-1.59,350.2,227.4,14.1,2.7,-0.9,-0.0,n/a,OK,4.0,    
124.50,1.918,3681.7,492.6,2111.1,2.41,6.55,-1.29,350.2,258.2,14.0,2.8,-0.9,-0.0,n/a,OK,4.0,    
125.00,1.874,3597.8,500.7,2113.3,2.41,6.79,-0.97,350.4,282.6,14.0,2.8,-0.9,-0.0,n/a,OK,4.0,    
125.50,1.830,3514.0,508.8,2115.8,2.43,7.04,-0.65,350.3,306.1,14.0,2.9,-0.9,-0.0,n/a,OK,4.0,    
126.00,1.786,3430.1,516.8,2118.4,2.39,7.30,-0.30,350.0,323.6,13.9,2.9,-0.8,-0.0,n/a,OK,4.0,    
126.50,1.742,3346.4,524.8,2121.1,2.30,7.57,0.06,349.8,307.8,13.9,2.8,-0.8,-0.0,n/a,OK,4.0,    
127.00,1.698,3262.6,532.7,2123.5,2.21,7.85,0.43,349.9,265.6,13.9,2.6,-0.8,-0.0,n/a,OK,4.0,    
127.50,1.654,3178.8,540.6,2125.4,2.20,8.15,0.83,349.9,202.8,13.9,2.5,-0.8,-0.0,n/a,OK,4.0,    
128.00,1.610,3095.1,548.5,2126.8,2.22,8.46,1.25,349.9,135.0,13.9,2.4,-0.8,-0.0,n/a,OK,4.0,    
128.50,1.566,3011.3,556.3,2127.7,2.24,8.78,1.69,349.9,72.7,13.8,2.4,-0.8,-0.0,n/a,OK,4.0,    
129.00,1.523,2927.5,564.1,2128.1,2.22,9.11,2.15,349.9,14.3,13.8,2.2,-0.8,-0.0,n/a,OK,4.0,    
129.50,1.479,2843.7,571.9,2128.0,2.24,9.46,2.64,350.0,-49.0,13.8,2.2,-0.8,-0.0,X0,OK,4.0,    
130.00,1.436,2759.9,579.7,2127.4,2.35,9.82,3.15,349.9,-71.9,13.8,2.2,-0.8,-0.0,X0,OK,4.0,    
130.50,1.393,2676.2,587.4,2126.9,2.48,10.21,3.70,349.7,-40.3,13.7,2.4,-0.8,-0.0,X0,OK,4.0,    
131.00,1.350,2592.4,595.0,2126.9,2.54,10.61,4.28,349.6,55.8,13.7,2.6,-0.8,-0.0,X0,OK,4.0,    
131.50,1.307,2508.7,602.7,2127.6,2.30,11.05,4.90,349.5,85.2,13.7,2.4,-0.8,-0.0,X0,OK,4.0,    
132.00,1.264,2425.0,610.3,2128.0,2.12,11.51,5.55,349.7,-4.8,13.7,2.1,-0.8,-0.0,X0,OK,4.0,    
132.50,1.221,2341.3,617.8,2127.6,2.18,11.99,6.25,349.8,-91.4,13.7,2.0,-0.8,-0.0,X0,OK,4.0,    
133.00,1.179,2257.5,625.4,2126.6,2.21,12.49,7.00,349.8,-145.2,13.7,2.0,-0.8,-0.0,X0,OK,4.0,    
133.50,1.137,2173.7,632.9,2125.2,2.13,13.02,7.80,349.9,-197.3,13.7,1.9,-0.8,-0.0,X0,OK,4.0,    
134.00,1.095,2089.9,640.4,2123.2,2.12,13.58,8.66,349.9,-271.1,13.7,1.8,-0.8,-0.0,X0,OK,4.0,    
134.50,1.053,2006.0,647.8,2120.7,2.15,14.17,9.58,349.9,-342.6,13.7,1.7,-0.8,-0.0,X0,OK,4.0,    
135.00,1.012,1922.2,655.3,2117.5,2.22,14.80,10.58,350.0,-410.0,13.7,1.7,-0.8,-0.0,X0,OK,4.0,    
135.50,0.971,1838.4,662.6,2114.0,2.40,15.46,11.65,350.0,-428.3,13.6,1.8,-0.8,-0.0,X0,OK,4.0,    
136.00,0.931,1754.6,670.0,2110.9,2.65,16.16,12.82,349.8,-292.9,13.6,2.3,-0.8,-0.0,X0,OK,4.0,    
136.50,0.891,1670.8,677.3,2109.0,2.53,16.93,14.08,349.6,-171.3,13.6,2.3,-0.8,-0.0,X0,OK,4.0,    
137.00,0.851,1587.1,684.6,2107.7,2.47,17.74,15.46,349.5,-142.0,13.6,2.3,-0.9,-0.0,X0,OK,4.0,    
137.50,0.812,1503.3,691.8,2106.8,2.65,18.62,16.96,349.5,-45.9,13.5,2.6,-1.8,-0.0,X0,OK,4.0,    
138.00,0.774,1419.6,699.0,2107.0,2.70,19.56,18.60,349.5,103.8,13.4,2.8,-3.0,-0.0,X0,OK,4.0,    
138.50,0.737,1335.9,706.0,2108.4,2.64,20.57,20.40,349.5,225.0,13.3,3.0,-4.2,-0.0,X0,OK,4.0,    
139.00,0.700,1252.1,712.8,2110.8,2.70,21.66,22.38,349.5,363.3,13.1,3.2,-5.2,-0.0,X0,OK,4.0,    
139.50,0.665,1168.4,719.3,2114.5,2.69,22.83,24.55,349.4,518.6,13.0,3.4,-6.3,0.0,X0,OK,4.0,    
140.00,0.630,1084.6,725.6,2119.1,2.37,24.06,26.94,349.6,548.7,12.8,3.2,-7.0,0.0,X0,OK,4.0,    
140.50,0.597,1000.7,731.6,2123.4,2.24,25.36,29.59,349.7,484.5,12.6,2.9,-7.5,0.0,X0,OK,4.0,    
141.00,0.566,916.8,737.3,2127.2,2.31,26.70,32.52,349.8,446.0,12.4,2.9,-8.4,-0.0,X0,OK,4.0,    
141.50,0.537,832.9,742.7,2130.9,2.30,28.08,35.77,349.8,421.2,12.1,2.9,-10.3,0.0,X0,OK,4.0,    
142.00,0.509,749.0,747.7,2134.2,2.25,29.48,39.36,349.8,368.1,11.7,2.8,-12.3,0.0,X0,OK,4.0,    
142.50,0.484,665.0,752.2,2137.1,2.31,30.86,43.32,349.8,331.3,11.3,2.8,-14.4,0.0,X0,OK,4.0,    
143.00,0.462,581.0,756.1,2139.8,2.25,32.22,47.68,349.8,315.1,11.0,2.7,-16.0,0.0,X0,OK,4.0,    
143.50,0.443,496.9,759.3,2142.1,2.24,33.49,52.46,349.8,226.7,10.5,2.5,-17.3,0.0,X0,OK,4.0,    
144.00,0.428,412.9,761.9,2143.9,2.55,34.63,57.64,349.8,242.1,9.9,2.8,-19.5,0.0,X0,OK,4.0,    
144.50,0.417,328.8,763.6,2146.5,2.72,35.61,63.19,349.7,378.4,9.2,3.2,-21.5,0.0,X0,OK,4.0,    
145.00,0.410,244.8,764.2,2150.2,2.71,36.39,69.07,349.6,510.3,8.5,3.4,-23.0,0.0,X0,OK,4.0,    
145.50,-0.407,160.7,763.8,2154.9,2.74,36.94,75.19,349.5,611.6,7.7,3.6,-24.4,0.0,X0,OK,4.0,    
146.00,-0.409,76.8,762.2,2160.4,2.74,37.21,81.44,349.6,713.6,6.9,3.7,-25.8,0.0,X0,OK,4.0,    
146.50,-0.415,-7.2,759.3,2166.6,2.72,37.19,87.72,349.7,795.1,6.1,3.9,-27.3,0.0,X0,OK,4.0,    
147.00,-0.425,-91.2,755.1,2173.5,2.61,36.90,93.91,349.8,838.0,5.3,3.8,-27.6,0.0,X0,OK,4.0,    
147.50,-0.439,-175.1,749.8,2180.3,2.31,36.34,99.89,350.0,777.3,4.7,3.5,-28.5,0.0,X0,OK,4.0,    
