#Time,Rho,X,Z,Alt,AoA,GSE,LUE,Vtot,Vy,Gamma,Pitch,Roll,Yaw,Step,Grade,Points,Details
0.00,0.670,1403.3,22.9,221.6,9.38,-0.57,-8.00,144.0,46.1,28.6,8.0,-33.5,-0.0,X0,OK,4.0,    
0.50,0.655,1375.3,37.8,222.3,8.67,-0.50,-7.32,143.7,101.8,26.7,7.8,-33.4,-0.0,X0,OK,4.0,    
1.00,0.640,1346.8,51.2,223.3,7.94,-0.42,-6.67,143.6,147.4,25.3,7.6,-30.2,0.0,X0,OK,4.0,    
1.50,0.624,1317.8,63.2,224.7,7.72,-0.33,-6.05,143.3,205.9,24.1,7.7,-26.2,0.0,X0,OK,4.0,    
2.00,0.609,1288.5,74.0,226.8,7.77,-0.22,-5.47,142.6,290.4,22.8,8.2,-22.3,0.0,X0,OK,4.0,    
2.50,0.594,1259.2,83.7,229.6,7.47,-0.10,-4.91,141.0,379.9,21.5,8.3,-20.1,0.0,X0,OK,4.0,    
3.00,0.578,1230.1,92.3,232.9,6.74,0.03,-4.37,139.0,405.4,20.3,7.8,-19.3,0.0,X0,OK,4.0,    
3.50,0.563,1201.3,99.9,236.2,6.11,0.17,-3.86,137.6,378.1,19.3,7.1,-19.1,0.0,X0,OK,4.0,    
4.00,0.548,1172.5,106.6,239.2,6.27,0.31,-3.38,136.5,358.8,18.0,7.2,-19.1,0.0,X0,OK,4.0,    
4.50,0.533,1144.0,112.4,242.1,5.67,0.46,-2.91,134.9,326.4,16.9,6.6,-19.2,0.0,X0,OK,4.0,    
5.00,0.518,1115.7,117.3,244.5,4.49,0.61,-2.47,133.4,223.7,16.2,5.2,-19.3,0.0,X0,OK,4.0,    
5.50,0.503,1087.7,121.4,245.8,4.06,0.74,-2.06,132.2,74.4,15.3,4.3,-19.4,0.0,X0,OK,4.0,    
6.00,0.489,1059.9,124.8,245.8,4.48,0.85,-1.66,131.2,-75.3,14.2,4.1,-19.5,0.0,X0,OK,4.0,    
6.50,0.474,1032.2,127.4,244.6,6.04,0.96,-1.29,130.3,-192.2,12.5,5.2,-20.3,0.0,X0,OK,4.0,    
7.00,0.459,1004.8,129.2,242.8,6.85,1.05,-0.95,129.0,-250.2,10.9,5.7,-20.6,0.0,X0,OK,4.0,    
7.50,0.445,977.6,130.1,240.3,6.04,1.14,-0.65,128.0,-360.5,10.0,4.3,-20.4,0.0,XX,OK,4.0,    
8.00,0.431,950.7,130.3,236.6,5.02,1.20,-0.38,127.4,-544.4,9.2,2.5,-20.4,0.0,IM,--,2.0,_F_H(LUL)X    
8.50,0.416,923.9,129.8,231.3,5.81,1.24,-0.14,126.8,-743.2,7.7,2.4,-20.8,0.0,IM,--,2.0,_F_H(LUL)X _F_HIM   
9.00,0.402,897.3,128.5,224.6,7.94,1.25,0.06,127.0,-853.9,5.5,3.9,-21.3,0.0,IM,--,2.0,_F_H(LUL)X _F_HIM   
9.50,0.387,870.5,126.2,217.3,8.94,1.25,0.21,128.6,-875.9,3.6,4.8,-20.7,0.0,IM,--,2.0,_F_H(LUL)X _F_HIM   
10.00,0.373,843.4,123.1,210.0,7.89,1.26,0.31,129.3,-899.1,2.6,3.8,-19.7,0.0,IM,--,2.0,_F_H(LUL)X _F_H (DR)IM   
10.50,0.358,816.4,119.2,202.1,6.86,1.24,0.35,128.4,-1009.2,1.8,2.5,-18.5,0.0,IM,--,2.0,_F_H(LUL)X _F_H DRIM   
11.00,0.343,789.8,114.6,193.2,6.89,1.21,0.34,128.4,-1112.1,1.0,2.2,-15.1,0.0,IM,--,2.0,_F_H(LUL)X _F_H DRIM   
11.50,0.329,763.0,109.3,183.7,7.66,1.15,0.28,130.0,-1163.6,0.3,2.8,-11.0,0.0,IM,--,2.0,_F_H(LUL)X _F_H DRIM   
12.00,0.314,735.8,103.5,174.1,8.24,1.10,0.16,132.2,-1133.8,0.2,3.5,-6.9,0.0,IM,--,2.0,_F_H(LUL)X _F_H DRIM   
12.50,0.298,708.2,97.2,164.9,8.07,1.05,0.01,133.0,-1076.3,0.3,3.6,-3.6,0.0,IM,--,2.0,_F_H(LUL)X _F_H (DR)IM   
13.00,0.283,680.7,90.8,156.0,7.81,1.01,-0.18,132.5,-1042.9,0.4,3.4,-2.5,0.0,IM,--,2.0,_F_H(LUL)X _F_H (DR)IM   
13.50,0.268,653.3,84.3,147.4,7.94,0.96,-0.39,132.1,-1023.7,0.7,3.6,-3.1,0.0,IM,--,2.0,_F_H(LUL)X _F_H (DR)IM   
14.00,0.253,626.0,77.5,138.9,7.54,0.92,-0.66,131.6,-1015.6,0.2,3.3,-0.4,0.0,IM,--,2.0,_F_H(LUL)X _F_H (DR)IM   
14.50,0.238,598.9,70.8,130.4,7.07,0.87,-0.96,131.1,-1039.9,0.4,2.7,3.2,0.0,IC,--,2.0,_F_H(LUL)X _F_H(LUL) (DR)IM   
15.00,0.223,571.8,64.2,121.6,7.17,0.81,-1.27,130.8,-1061.7,0.9,2.8,5.6,0.0,IC,--,2.0,_F_H(LUL)X _F_H(LUL) (DR)IM  (F)H(LUL)IC 
15.50,0.208,544.8,57.8,112.7,7.93,0.73,-1.59,130.6,-1060.1,1.4,3.6,6.4,0.0,IC,--,2.0,_F_H(LUL)X _F_H(LUL) (DR)IM  (F)HLULIC 
16.00,0.193,517.8,51.7,104.0,8.58,0.65,-1.91,130.8,-1024.5,1.8,4.4,6.3,0.0,IC,--,2.0,_F_H(LUL)X _F_H(LUL) (DR)IM  (F)HLULIC 
16.50,0.178,490.6,45.9,95.7,8.65,0.58,-2.25,131.4,-969.1,2.2,4.7,6.5,0.0,IC,--,2.0,_F_H(LUL)X _F_H(LUL) (DR)IM  (F)HLULIC 
17.00,0.163,463.1,40.2,87.8,8.36,0.52,-2.60,131.9,-923.1,2.7,4.5,7.2,0.0,IC,--,2.0,_F_H(LUL)X _F_H(LUL) (DR)IM  (F)HLULIC 
17.50,0.148,435.6,34.9,80.3,8.00,0.46,-2.95,132.1,-891.7,3.1,4.4,7.7,0.0,IC,--,2.0,_F_H(LUL)X _F_H(LUL) (DR)IM  (F)HLULIC 
18.00,0.133,407.9,29.8,72.9,7.99,0.41,-3.31,132.3,-858.1,4.0,4.6,9.3,0.0,IC,--,2.0,_F_H(LUL)X _F_H(LUL) (DR)IM  (F)HLULIC 
18.50,0.118,380.1,25.2,65.9,8.36,0.37,-3.65,132.5,-819.5,4.8,5.0,10.4,0.0,IC,WO,1.0,_F_H(LUL)X _F_H(LUL) (DR)IM  (F)HLULIC 
19.00,0.103,352.2,21.1,59.3,8.58,0.35,-3.96,132.6,-772.1,5.4,5.4,9.6,0.0,IC,WO,1.0,_F_H(LUL)X _F_H(LUL) (DR)IM  (F)HLULIC 
19.50,0.087,324.2,17.4,53.1,8.49,0.35,-4.24,132.7,-711.6,5.7,5.6,8.0,0.0,IC,WO,1.0,_F_H(LUL)X _F_H(LUL) (DR)IM  (F)HLULIC 
20.00,0.072,296.2,14.0,47.4,8.08,0.39,-4.51,132.6,-662.8,6.1,5.4,7.0,0.0,IC,WO,1.0,_F_H(LUL)X _F_H(LUL) (DR)IM  (F)HLULIC 
20.50,0.057,268.1,10.9,42.0,7.92,0.47,-4.76,132.8,-631.3,6.2,5.4,4.8,0.0,IC,WO,1.0,_F_H(LUL)X _F_H(LUL) (DR)IM  (F)HLULIC 
21.00,0.042,239.9,8.0,36.9,7.96,0.63,-5.04,133.3,-585.9,6.5,5.7,3.3,0.0,IC,WO,1.0,_F_H(LUL)X _F_H(LUL) (DR)IM  (F)HLULIC 
21.50,0.027,211.6,5.2,32.2,8.02,0.91,-5.35,133.4,-524.3,6.6,5.9,2.1,0.0,AR,WO,1.0,_F_H(LUL)X _F_H(LUL) (DR)IM  (F)HLULIC 
22.00,0.012,183.3,2.6,28.1,7.38,1.44,-5.79,133.4,-480.1,6.7,5.5,0.9,0.0,AR,WO,1.0,_F_H(LUL)X _F_H(LUL) (DR)IM  (F)HLULIC H_LUL_AR
22.50,-0.006,155.0,0.1,24.1,7.27,2.44,-6.50,133.0,-475.5,6.6,5.4,-0.4,0.0,AR,WO,1.0,_F_H(LUL)X _F_H(LUL) (DR)IM  (F)HLULIC H_LUL_AR
23.00,-0.020,126.9,-2.4,20.2,7.86,4.77,-8.15,132.2,-443.7,6.2,6.0,-2.6,0.0,AR,WO,1.0,_F_H(LUL)X _F_H(LUL) (DR)IM  (F)HLULIC H_LUL_AR
23.50,-0.035,99.0,-5.0,16.7,7.56,15.72,-16.50,131.6,-408.1,5.7,6.0,-4.2,0.0,AR,WO,1.0,_F_H(LUL)X _F_H(LUL) (DR)IM  (F)HLULIC H_LUL_AR
24.00,-0.050,71.2,-7.8,13.4,7.18,12.58,-169.98,131.7,-391.6,5.2,5.8,-4.9,0.0,AR,WO,1.0,_F_H(LUL)X _F_H(LUL) (DR)IM  (F)HLULIC H_LUL_AR
24.50,-0.065,43.2,-10.8,10.3,7.26,0.75,-178.72,133.1,-344.0,4.7,5.9,-4.7,0.0,AR,WO,1.0,_F_H(LUL)X _F_H(LUL) (DR)IM  (F)HLULIC H_LUL_AR
25.00,-0.081,14.7,-14.0,7.7,7.52,-1.59,179.65,134.9,-251.7,4.2,6.4,-4.1,0.0,AR,WO,1.0,_F_H(LUL)X _F_H(LUL) (DR)IM  (F)HLULIC H_LUL_AR
25.50,-0.096,-14.1,-17.4,6.2,7.89,-2.42,179.06,136.2,-106.7,3.9,7.3,-3.5,0.0,AR,WO,1.0,_F_H(LUL)X _F_H(LUL) (DR)IM  (F)HLULIC H_LUL_AR
26.00,-0.112,-43.1,-21.0,6.1,8.01,-2.68,178.80,136.9,91.6,3.6,8.3,-1.8,0.0,AR,WO,1.0,_F_H(LUL)X _F_H(LUL) (DR)IM  (F)HLULIC H_LUL_AR
26.50,-0.128,-72.3,-24.7,7.6,7.78,-2.66,178.68,137.4,294.6,3.5,9.1,-1.0,0.0,AR,WO,1.0,_F_H(LUL)X _F_H(LUL) (DR)IM  (F)HLULIC H_LUL_AR
27.00,-0.144,-101.6,-28.5,10.9,7.79,-2.49,178.61,137.9,475.5,3.4,9.8,-1.0,0.0,AR,WO,1.0,_F_H(LUL)X _F_H(LUL) (DR)IM  (F)HLULIC H_LUL_AR
27.50,-0.160,-131.0,-32.3,15.2,9.16,-2.28,178.58,138.0,590.0,3.2,11.4,-1.5,0.0,AR,WO,1.0,_F_H(LUL)X _F_H(LUL) (DR)IM  (F)HLULIC H_LUL_AR
28.00,-0.176,-160.3,-36.3,21.0,10.29,-2.02,178.58,137.4,801.4,3.0,13.3,-2.7,0.0,AR,WO,1.0,_F_H(LUL)X _F_H(LUL) (DR)IM  (F)HLULIC H_LUL_AR
28.50,-0.192,-189.3,-40.5,28.4,8.71,-1.70,178.62,136.7,971.4,3.1,12.4,-3.8,0.0,AR,WO,1.0,_F_H(LUL)X _F_H(LUL) (DR)IM  (F)HLULIC H_LUL_AR
